"activity","address","city","code","codedescription","createddate","duedate","neighborhood","servicerequestnum","state","status","statusdate","updateddate","zip","outcome","lon","lat"
"Dispatch Work Crew","2726  LAURETTA AVE","BALTIMORE","BGESLPIN","BGE-StLight Pole Installation","2014-12-12T00:15:04.000","2015-01-02T00:15:04.000","ROSEMONT HOMEOWNERS/TENANTS","14-00927842","MD","CLOSED","2015-02-24T13:13:24.000","2014-12-15T11:36:00.000","21223",NA,-76.6622239,39.2939874
"Cityworks SR Comments","718  GRUNDY ST","BALTIMORE","BGESLPIN","BGE-StLight Pole Installation","2015-01-30T20:08:16.000","2015-02-20T20:08:16.000","BREWERS HILL","15-00070727","MD","CLOSED","2015-02-03T12:44:54.000","2015-01-30T21:13:40.000","21224","UPDATED",-76.5633933,39.2840594
"Cityworks SR Comments","2200  SAINT PAUL ST","BALTIMORE CITY","BGESLPIN","BGE-StLight Pole Installation","2014-10-02T23:58:08.000","2014-10-23T23:58:08.000","BARCLAY","14-00745254","MD","CLOSED","2014-11-06T13:07:45.000","2014-10-03T01:00:12.000","21218","UPDATED",-76.615617,39.314577
"Dispatch Work Crew","4500  SCARLET OAK LN","BALTIMORE","BGESLPIN","BGE-StLight Pole Installation","2015-03-29T21:29:13.000","2015-04-19T21:29:13.000","UPLANDS","15-00247470","MD","CLOSED","2015-04-01T11:49:49.000","2015-04-01T11:49:00.000","21229",NA,-76.6923719,39.2913525
"Dispatch Work Crew","1401  ROLAND HEIGHTS AVE","BALTIMORE","BGESLPIN","BGE-StLight Pole Installation","2015-03-06T17:27:04.000","2015-03-27T17:27:04.000","MEDFIELD","15-00174843","MD","CLOSED","2015-05-01T12:14:17.000","2015-03-10T11:19:00.000","21211",NA,-76.64165,39.339623
"Dispatch Work Crew","205 E 30TH ST","BALTIMORE","BGESLPIN","BGE-StLight Pole Installation","2015-01-30T16:46:27.000","2015-02-20T16:46:27.000","CHARLES VILLAGE","15-00069996","MD","CLOSED","2015-03-26T12:17:20.000","2015-02-03T11:40:00.000","21218",NA,-76.6142693,39.3244227
NA,"5600  LOCH RAVEN BLVD","BALTIMORE","BGESLPIN","BGE-StLight Pole Installation","2015-03-17T18:53:07.000","2015-04-07T18:53:07.000","WOODBOURNE HEIGHTS","15-00213112","MD","CLOSED","2015-04-21T12:33:34.000",NA,"21239",NA,-76.590271,39.357859
"Dispatch Work Crew","3800  STOKES DR","BALTIMORE","BGESLPIN","BGE-StLight Pole Installation","2015-06-29T14:21:07.000","2015-07-20T14:21:07.000","GWYNNS FALLS/LEAKIN PARK","15-00507565","MD","CLOSED","2015-07-20T12:16:22.000","2015-07-01T11:38:00.000","21229",NA,-76.6798531,39.2996899
"Dispatch Work Crew","2700  LIBERTY HEIGHTS AVE","BALTIMORE","BGESLPIN","BGE-StLight Pole Installation","2014-12-09T19:47:55.000","2014-12-30T19:47:55.000","LIBERTY SQUARE","14-00921818","MD","CLOSED","2015-02-09T12:01:37.000","2014-12-11T12:34:00.000","21215",NA,-76.6595527,39.3206336
"Dispatch Work Crew","3800  STOKES DR","BALTIMORE","BGESLPIN","BGE-StLight Pole Installation","2015-05-29T17:41:51.000","2015-06-19T17:41:51.000","GWYNNS FALLS/LEAKIN PARK","15-00421101","MD","O-WIP","2015-06-22T18:10:31.000","2015-06-05T12:29:00.000","21229",NA,-76.6798531,39.2996899
"Dispatch Work Crew","3805  EDGEWOOD RD","BALTIMORE","BGESLPIN","BGE-StLight Pole Installation","2015-01-12T13:26:07.000","2015-02-02T13:26:07.000","ASHBURTON","15-00024827","MD","CLOSED","2015-03-13T11:45:47.000","2015-01-20T12:15:00.000","21215",NA,-76.671572,39.330618
"Dispatch Work Crew","W SARATOGA ST &N SCHROEDER ST","BALTIMORE","BGESLPIN","BGE-StLight Pole Installation","2015-03-24T17:21:02.000","2015-04-14T17:21:02.000","POPPLETON","15-00233046","MD","CLOSED","2015-05-26T11:46:04.000","2015-03-26T11:11:00.000","21223",NA,NA,NA
"Cityworks SR Comments","JANICE AVE & MARBOURNE AVE","BALTIMORE CITY","BGESLPIN","BGE-StLight Pole Installation","2014-09-22T13:19:19.000","2014-10-13T13:19:19.000","LAKELAND","14-00714100","MD","CLOSED","2014-09-24T13:00:12.000","2014-09-22T13:45:22.000","21230","UPDATED",-118.209849,35.565619
"Cityworks SR Comments","S HANOVER ST & CHESAPEAKE AVE","BALTIMORE","BGESLPIN","BGE-StLight Pole Installation","2015-04-29T15:22:13.000","2015-05-20T15:22:13.000","BROOKLYN","15-00334648","MD","CLOSED","2015-06-09T11:58:00.000","2015-04-29T15:36:14.000","21225","UPDATED",-73.1663411,44.4727628
"Cityworks SR Comments","1408 N GAY ST","BALTIMORE CITY","BGESLPIN","BGE-StLight Pole Installation","2014-09-25T03:26:36.000","2014-10-16T03:26:36.000","BROADWAY EAST","14-00723128","MD","CLOSED","2014-10-22T13:08:27.000","2014-09-25T04:24:34.000","21213","UPDATED",-76.5911897,39.3067915
"Dispatch Work Crew","WABASH AVE & PATTERSON AVE","BALTIMORE","BGESLPIN","BGE-StLight Pole Installation","2015-01-19T12:20:24.000","2015-02-09T12:20:24.000","SETON BUSINESS PARK","15-00040181","MD","CLOSED","2015-02-10T12:04:58.000","2015-01-22T12:22:00.000","21215",NA,-87.3133604,39.4833563
"Dispatch Work Crew","1301 W 42ND ST","BALTIMORE","BGESLPIN","BGE-StLight Pole Installation","2015-03-16T18:42:47.000","2015-04-06T18:42:47.000","MEDFIELD","15-00208110","MD","CLOSED","2015-04-17T13:03:47.000","2015-03-18T11:49:00.000","21211",NA,-76.639303,39.338451
"Cityworks SR Comments","1421 E CLEMENT ST","BALTIMORE","BGESLPIN","BGE-StLight Pole Installation","2015-06-15T21:58:13.000","2015-07-06T21:58:13.000","LOCUST POINT","15-00466053","MD","CLOSED","2015-07-17T11:40:12.000","2015-06-16T00:14:46.000","21230","UPDATED",-76.593802,39.270425
"Dispatch Work Crew","N LINWOOD AVE & ORLEANS ST","BALTIMORE","BGESLPIN","BGE-StLight Pole Installation","2015-03-24T13:20:34.000","2015-04-14T13:20:34.000","MCELDERRY PARK","15-00231439","MD","CLOSED","2015-05-18T12:18:01.000","2015-05-18T12:17:00.000","21205",NA,-96.748712,36.0142419
"Dispatch Work Crew","600  CUMBERLAND ST","BALTIMORE","BGESLPIN","BGE-StLight Pole Installation","2015-05-05T13:44:13.000","2015-05-26T13:44:13.000","PENN NORTH","15-00349663","MD","CLOSED","2015-05-11T18:57:46.000","2015-05-11T18:57:00.000","21217",NA,-76.6416623,39.3093283
"Dispatch Work Crew","2005  CASADEL AVE","BALTIMORE","BGESLPIN","BGE-StLight Pole Installation","2015-03-16T14:17:47.000","2015-04-06T14:17:47.000","MORRELL PARK","15-00206470","MD","O-WIP","2015-03-25T18:22:19.000","2015-03-17T11:39:00.000","21230",NA,-76.654793,39.261353
"Dispatch Work Crew","3935  EDMONDSON AVE","BALTIMORE","BGESLPIN","BGE-StLight Pole Installation","2014-12-25T21:46:16.000","2015-01-15T21:46:16.000","ALLENDALE","14-00957470","MD","CLOSED","2015-02-13T13:28:24.000","2014-12-29T11:15:00.000","21229",NA,-76.682283,39.293494
"Dispatch Work Crew","W NORTHERN PKWY & FALLS RD","BALTIMORE CITY","BGESLPIN","BGE-StLight Pole Installation","2014-09-02T18:33:29.000","2014-09-23T18:33:29.000","SABINA-MATTFELDT","14-00660070","MD","CLOSED","2014-10-16T11:46:37.000","2014-09-04T20:02:00.000","21209",NA,-76.6656161,39.3557104
"Cityworks SR Comments","2300  ERDMAN AVE","BALTIMORE","BGESLPIN","BGE-StLight Pole Installation","2015-03-30T10:34:18.000","2015-04-20T10:34:18.000","MAYFIELD","15-00247802","MD","CLOSED","2015-03-31T12:35:56.000","2015-03-30T10:47:38.000","21213","UPDATED",-76.581496,39.326994
NA,"4201  POWELL AVE","BALTIMORE","BGESLPIN","BGE-StLight Pole Installation","2015-06-12T18:59:42.000","2015-07-03T18:59:42.000","CEDMONT","15-00459496","MD","CLOSED","2015-07-13T11:25:41.000",NA,"21206",NA,-76.538758,39.3471199
"Cityworks SR Comments","3013  GREENMOUNT AVE","BALTIMORE","BGESLPIN","BGE-StLight Pole Installation","2014-12-14T18:46:47.000","2015-01-04T18:46:47.000","BETTER WAVERLY","14-00931752","MD","CLOSED","2014-12-16T18:36:49.000","2014-12-14T20:05:28.000","21218","UPDATED",-76.609291,39.325831
"Cityworks SR Comments","4125  KINSWAY","BALTIMORE","BGESLPIN","BGE-StLight Pole Installation","2015-05-20T19:15:38.000","2015-06-10T19:15:38.000","GLENHAM-BELFORD","15-00396648","MD","CLOSED","2015-05-26T11:36:59.000","2015-05-23T10:00:03.000","21206","UPDATED",-76.543704,39.34428
"Dispatch Work Crew","3300  PIEDMONT AVE","BALTIMORE CITY","BGESLPIN","BGE-StLight Pole Installation","2014-08-26T15:53:39.000","2014-09-16T15:53:39.000","HANLON-LONGWOOD","14-00643088","MD","CLOSED","2014-10-03T14:01:13.000","2014-08-28T11:28:00.000","21216",NA,-76.672962,39.316626
"Cityworks SR Comments","GREENMOUNT AVE &E 25TH ST","BALTIMORE","BGESLPIN","BGE-StLight Pole Installation","2015-05-20T12:12:57.000","2015-06-10T12:12:57.000","BETTER WAVERLY","15-00394884","MD","CLOSED","2015-06-16T11:15:08.000","2015-05-23T10:10:15.000","21218","UPDATED",-76.6094637,39.3189114
"Cityworks SR Comments","E LEXINGTON ST & COLVIN ST","BALTIMORE","BGESLPIN","BGE-StLight Pole Installation","2015-02-15T10:09:41.000","2015-03-08T10:09:41.000","PLEASANT VIEW GARDENS","15-00107518","MD","O-WIP","2015-03-03T16:12:39.000","2015-02-15T10:44:06.000","21202","UPDATED",-84.8343794,37.7637816
"Dispatch Work Crew","46  POULTNEY ST","BALTIMORE","BGESLPIN","BGE-StLight Pole Installation","2015-06-21T21:04:59.000","2015-07-12T21:04:59.000","FEDERAL HILL","15-00483591","MD","CLOSED","2015-08-04T16:44:15.000","2015-08-04T16:43:00.000","21230",NA,-76.612912,39.277758
NA,"2799  WILKENS AVE","BALTIMORE","BGESLPIN","BGE-StLight Pole Installation","2014-12-01T18:31:30.000","2014-12-22T18:31:30.000","MORRELL PARK","14-00901109","MD","CLOSED","2015-01-16T11:33:48.000",NA,"21223",NA,-76.6623649,39.2768075
"Cityworks SR Comments","4125  KINSWAY","BALTIMORE","BGESLPIN","BGE-StLight Pole Installation","2015-02-09T15:47:00.000","2015-03-02T15:47:00.000","GLENHAM-BELFORD","15-00092320","MD","CLOSED","2015-05-22T17:42:37.000","2015-02-09T17:28:38.000","21206","UPDATED",-76.543704,39.34428
"Cityworks SR Comments","1718  THAMES ST","BALTIMORE CITY","BGESLPIN","BGE-StLight Pole Installation","2014-09-19T12:24:35.000","2014-10-10T12:24:35.000","FELLS POINT","14-00708186","MD","CLOSED","2014-10-22T13:10:06.000","2014-09-19T13:14:57.000","21231","UPDATED",-76.591898,39.2820689
"Cityworks SR Comments","3900 E NORTHERN PKWY","BALTIMORE","BGESLPIN","BGE-StLight Pole Installation","2014-12-10T13:16:03.000","2014-12-31T13:16:03.000","OVERLEA","14-00922949","MD","CLOSED","2015-01-12T11:50:08.000","2014-12-10T14:15:57.000","21206","UPDATED",-76.533479,39.357814
NA,"810 N HILTON ST","BALTIMORE","BGESLPIN","BGE-StLight Pole Installation","2015-07-02T15:50:26.000","2015-07-23T15:50:26.000","EDMONDSON VILLAGE","15-00520190","MD","O-WIP","2015-07-08T16:28:22.000",NA,"21229",NA,-76.673155,39.296441
"Cityworks SR Comments","3800  FLEET ST","BALTIMORE","BGESLPIN","BGE-StLight Pole Installation","2015-05-27T19:20:15.000","2015-06-17T19:20:15.000","BREWERS HILL","15-00413642","MD","CLOSED","2015-06-26T18:47:03.000","2015-05-27T19:33:25.000","21224","UPDATED",-76.5648052,39.2857013
"Dispatch Work Crew","W 40TH ST & ROLAND AVE, BALTIMORE, MD, 2",NA,"BGESLPIN","BGE-StLight Pole Installation","2015-07-06T10:49:36.000","2015-07-27T10:49:36.000","ROLAND PARK","15-00526070","MD","O-WIP","2015-07-28T18:14:01.000","2015-07-07T10:54:00.000",NA,NA,-85.3210154,35.0080789
"Dispatch Work Crew","500  DRUID HILL AVE","BALTIMORE","BGESLPIN","BGE-StLight Pole Installation","2015-05-26T16:58:51.000","2015-06-16T16:58:51.000","SETON HILL","15-00408891","MD","CLOSED","2015-06-11T12:52:06.000","2015-05-28T11:35:00.000","21201",NA,-76.62219,39.296898
"Dispatch Work Crew","GREENSPRING AVE & HILLWAY","BALTIMORE CITY","BGESLPIN","BGE-StLight Pole Installation","2014-09-11T21:21:08.000","2014-10-02T21:21:08.000","DRUID HILL PARK","14-00687895","MD","O-WIP","2014-09-30T12:58:33.000","2014-09-15T11:37:00.000","21217",NA,-76.6882923,39.3966579
"Cityworks SR Comments","114 N HAVEN ST","BALTIMORE","BGESLPIN","BGE-StLight Pole Installation","2015-04-21T00:35:02.000","2015-05-12T00:35:02.000","BALTIMORE HIGHLANDS","15-00309569","MD","O-WIP","2015-05-13T15:21:32.000","2015-04-21T00:50:11.000","21224","UPDATED",-76.563156,39.294218
"Cityworks SR Comments","LIGHT ST & POULTNEY ST","BALTIMORE CITY","BGESLPIN","BGE-StLight Pole Installation","2014-08-20T15:28:23.000","2014-09-10T15:28:23.000","FEDERAL HILL","14-00626752","MD","CLOSED","2014-09-08T13:04:08.000","2014-08-20T15:59:31.000","21230","UPDATED",-76.6125962,39.2785869
"Dispatch Work Crew","400 S BENTALOU ST","BALTIMORE CITY","BGESLPIN","BGE-StLight Pole Installation","2014-10-21T19:12:09.000","2014-11-11T19:12:09.000","CARROLLTON RIDGE","14-00793733","MD","CLOSED","2014-12-08T12:09:14.000","2014-10-23T11:23:00.000","21223",NA,-76.6527304,39.2829811
"Dispatch Work Crew","1314  MEDFIELD AVE","BALTIMORE CITY","BGESLPIN","BGE-StLight Pole Installation","2014-08-30T18:35:14.000","2014-09-20T18:35:14.000","MEDFIELD","14-00655232","MD","CLOSED","2014-10-10T11:24:05.000","2014-10-10T11:23:00.000","21211",NA,-76.641042,39.3393609
"Cityworks SR Comments","E PRESTON ST &N WOLFE ST","BALTIMORE CITY","BGESLPIN","BGE-StLight Pole Installation","2014-10-08T15:20:40.000","2014-10-29T15:20:40.000","BROADWAY EAST","14-00759049","MD","CLOSED","2014-11-19T11:57:19.000","2014-10-08T15:55:48.000","21213","UPDATED",-76.5945707,39.305356
"Cityworks SR Comments","MIDWOOD AVE & WINSTON AVE","BALTIMORE","BGESLPIN","BGE-StLight Pole Installation","2015-03-16T17:02:20.000","2015-04-06T17:02:20.000","WINSTON-GOVANS","15-00207355","MD","O-WIP","2015-03-17T11:21:47.000","2015-03-16T19:57:13.000","21212","UPDATED",-73.145962,40.843654
NA,"1240 N GAY ST","BALTIMORE","BGESLPIN","BGE-StLight Pole Installation","2015-06-18T19:00:44.000","2015-07-09T19:00:44.000","BROADWAY EAST","15-00476872","MD","CLOSED","2015-07-06T12:01:14.000",NA,"21213",NA,-76.593428,39.304921
"Cityworks SR Comments","2102 E EAGER ST","BALTIMORE CITY","BGESLPIN","BGE-StLight Pole Installation","2014-11-07T19:36:28.000","2014-11-28T19:36:28.000","MIDDLE EAST","14-00842879","MD","CLOSED","2014-11-21T12:51:44.000","2014-11-07T20:29:59.000","21205","UPDATED",-76.5878831,39.3021397
"Dispatch Work Crew","E FRANKLIN ST & HARGROVE ALY","BALTIMORE","BGESLPIN","BGE-StLight Pole Installation","2015-04-15T18:51:51.000","2015-05-06T18:51:51.000","MOUNT VERNON","15-00296179","MD","CLOSED","2015-05-27T12:02:15.000","2015-04-17T11:20:00.000","21202",NA,-83.8211387,31.528315
"Cityworks SR Comments","838 N FULTON AVE","BALTIMORE CITY","BGESLPIN","BGE-StLight Pole Installation","2014-08-12T10:54:00.000","2014-09-02T10:54:00.000","HARLEM PARK","14-00601358","MD","CLOSED","2014-09-29T12:54:01.000","2014-08-12T11:36:41.000","21217","UPDATED",-76.6460049,39.2986262
"Cityworks SR Comments","2400 E NORTH AVE","BALTIMORE","BGESLPIN","BGE-StLight Pole Installation","2015-06-01T14:58:20.000","2015-06-22T14:58:20.000","BEREA","15-00426409","MD","O-WIP","2015-06-05T20:04:48.000","2015-06-03T13:09:37.000","21213","UPDATED",-76.5838303,39.3125995
"Dispatch Work Crew","765 S WOODINGTON RD","BALTIMORE CITY","BGESLPIN","BGE-StLight Pole Installation","2014-10-03T14:16:29.000","2014-10-24T14:16:29.000","YALE HEIGHTS","14-00746970","MD","CLOSED","2014-11-20T12:13:09.000","2014-11-20T12:12:00.000","21229",NA,-76.690895,39.27365
"Cityworks SR Comments","BELAIR RD & WHITE AVE, BALTIMORE, MD, 21",NA,"BGESLPIN","BGE-StLight Pole Installation","2015-06-21T13:31:36.000","2015-07-12T13:31:36.000","CEDMONT","15-00483191","MD","O-WIP","2015-06-29T13:02:07.000","2015-06-23T20:00:12.000",NA,"UPDATED",-76.4688967,39.4084423
"Dispatch Work Crew","S BENTALOU ST & ASHTON ST","BALTIMORE CITY","BGESLPIN","BGE-StLight Pole Installation","2014-10-21T18:59:53.000","2014-11-11T18:59:53.000","MILLHILL","14-00793652","MD","CLOSED","2014-10-23T18:56:02.000","2014-10-23T18:55:00.000","21223",NA,-76.6524954,39.2815503
"Dispatch Work Crew","4046 W COLD SPRING LN","BALTIMORE CITY","BGESLPIN","BGE-StLight Pole Installation","2014-10-22T17:12:03.000","2014-11-12T17:12:03.000","DORCHESTER","14-00796199","MD","CLOSED","2014-12-09T12:51:58.000","2014-10-24T11:49:00.000","21215",NA,-76.686424,39.33525
"Dispatch Work Crew","EDMONDSON AVE & OLD FREDERICK RD","BALTIMORE","BGESLPIN","BGE-StLight Pole Installation","2015-01-06T13:18:54.000","2015-01-27T13:18:54.000","HUNTING RIDGE","15-00010034","MD","CLOSED","2015-03-12T13:37:16.000","2015-01-08T11:42:00.000","21229",NA,-76.7051535,39.2908485
"Cityworks SR Comments","5800  PERRING PKWY","BALTIMORE","BGESLPIN","BGE-StLight Pole Installation","2015-02-11T14:27:24.000","2015-03-04T14:27:24.000","MT PLEASANT PARK","15-00098759","MD","O-WIP","2015-02-13T19:11:25.000","2015-02-11T17:00:37.000","21239","UPDATED",-76.5731383,39.36168
"Cityworks SR Comments","2900  GLENMORE AVE","BALTIMORE CITY","BGESLPIN","BGE-StLight Pole Installation","2014-08-27T18:06:43.000","2014-09-17T18:06:43.000","HARFORD-ECHODALE/PERRING PARKWAY","14-00647063","MD","CLOSED","2014-10-03T13:16:12.000","2014-08-27T18:53:24.000","21214","UPDATED",-76.560835,39.357156
"Dispatch Work Crew","N WARWICK AVE & GWYNNS FALLS PKWY","BALTIMORE CITY","BGESLPIN","BGE-StLight Pole Installation","2014-08-25T17:35:57.000","2014-09-15T17:35:57.000","MONDAWMIN","14-00640108","MD","CLOSED","2014-09-05T11:48:29.000","2014-09-05T11:48:00.000","21215",NA,-87.5110472,41.6828379
"Cityworks SR Comments","1615  WINFORD RD","BALTIMORE","BGESLPIN","BGE-StLight Pole Installation","2015-06-19T19:23:48.000","2015-07-10T19:23:48.000","PERRING LOCH","15-00480265","MD","CLOSED","2015-07-28T11:52:59.000","2015-06-19T19:37:28.000","21239","UPDATED",-76.585866,39.352837
"Cityworks SR Comments","E NORTHERN PKWY & HILLEN RD, BALTIMORE,",NA,"BGESLPIN","BGE-StLight Pole Installation","2015-06-14T20:40:35.000","2015-07-05T20:40:35.000","MT PLEASANT PARK","15-00461986","MD","O-WIP","2015-06-25T14:14:16.000","2015-06-16T18:25:30.000",NA,"UPDATED",-76.5791369,39.3675727
"Dispatch Work Crew","2025  MARYLAND AVE","BALTIMORE","BGESLPIN","BGE-StLight Pole Installation","2014-12-01T19:24:16.000","2014-12-22T19:24:16.000","CHARLES NORTH","14-00901293","MD","CLOSED","2014-12-02T19:05:43.000","2014-12-02T19:05:00.000","21218",NA,-76.617656,39.312902
"Dispatch Work Crew","PATTERSON AVE & REISTERSTOWN RD","BALTIMORE","BGESLPIN","BGE-StLight Pole Installation","2015-05-13T13:40:39.000","2015-06-03T13:40:39.000","REISTERSTOWN STATION","15-00374605","MD","CLOSED","2015-06-24T17:28:52.000","2015-05-18T11:57:00.000","21215",NA,-77.5773837,37.5952305
"Cityworks SR Comments","1700  ASHLAND AVE","BALTIMORE","BGESLPIN","BGE-StLight Pole Installation","2015-05-01T18:34:11.000","2015-05-22T18:34:11.000","MIDDLE EAST","15-00341774","MD","CLOSED","2015-05-06T18:06:51.000","2015-05-05T19:05:16.000","21205","UPDATED",-76.5945263,39.300514
"Dispatch Work Crew","3955  BONNER RD","BALTIMORE","BGESLPIN","BGE-StLight Pole Installation","2015-06-22T19:54:19.000","2015-07-13T19:54:19.000","CONCERNED CITIZENS OF FOREST PARK","15-00486763","MD","CLOSED","2015-07-23T11:52:18.000","2015-06-29T11:57:00.000","21216",NA,-76.683942,39.322246
"Dispatch Work Crew","2282  DRUID PARK DR","BALTIMORE","BGESLPIN","BGE-StLight Pole Installation","2015-07-21T09:00:49.000","2015-08-11T09:00:49.000","DRUID HILL PARK","15-00572453","MD","CLOSED","2015-07-22T19:26:58.000","2015-07-22T19:26:00.000","21211",NA,-76.653509,39.330708
"Cityworks SR Comments","5801  ERDMAN AVE","BALTIMORE CITY","BGESLPIN","BGE-StLight Pole Installation","2014-08-10T01:22:13.000","2014-08-31T01:22:13.000","PULASKI INDUSTRIAL AREA","14-00596595","MD","CLOSED","2014-09-09T12:25:34.000","2014-08-10T01:46:29.000","21205","UPDATED",-76.5471929,39.299613
NA,"100 E 27TH ST","BALTIMORE","BGESLPIN","BGE-StLight Pole Installation","2014-12-05T18:33:26.000","2014-12-26T18:33:26.000","CHARLES VILLAGE","14-00913531","MD","CLOSED","2015-02-10T12:09:49.000",NA,"21218",NA,-76.6155627,39.3207174
"Dispatch Work Crew","700 N PACA ST","BALTIMORE","BGESLPIN","BGE-StLight Pole Installation","2015-06-22T16:43:59.000","2015-07-13T16:43:59.000","SETON HILL","15-00485934","MD","CLOSED","2015-06-25T17:48:52.000","2015-06-25T17:48:00.000","21201",NA,-76.6226779,39.2973329
"Cityworks SR Comments","100  SAINT MARTINS RD","BALTIMORE CITY","BGESLPIN","BGE-StLight Pole Installation","2014-09-13T15:20:32.000","2014-10-04T15:20:32.000","GUILFORD","14-00692200","MD","CLOSED","2014-11-05T12:32:29.000","2014-09-13T16:15:08.000","21218","UPDATED",-76.6149759,39.3347921
"Cityworks SR Comments","3300 E MADISON ST","BALTIMORE","BGESLPIN","BGE-StLight Pole Installation","2015-06-21T05:54:27.000","2015-07-12T05:54:27.000","ORANGEVILLE INDUSTRIAL AREA","15-00482987","MD","CLOSED","2015-06-25T18:11:58.000","2015-06-24T18:50:53.000","21205","UPDATED",-76.5711084,39.2999055
NA,"LOCH RAVEN RD &E 25TH ST","BALTIMORE","BGESLPIN","BGE-StLight Pole Installation","2015-03-24T18:45:58.000","2015-04-14T18:45:58.000","BETTER WAVERLY","15-00233569","MD","CLOSED","2015-04-24T13:04:56.000",NA,"21218",NA,-76.603584,39.3215719
"Cityworks SR Comments","E BELVEDERE AVE & LOCH RAVEN BLVD","BALTIMORE","BGESLPIN","BGE-StLight Pole Installation","2015-04-22T15:00:54.000","2015-05-13T15:00:54.000","WOODBOURNE HEIGHTS","15-00315124","MD","CLOSED","2015-04-23T19:09:42.000","2015-04-22T15:10:24.000","21239","UPDATED",-76.5959071,39.3604586
NA,"GREENSPRING AVE & POPLAR DR","BALTIMORE CITY","BGESLPIN","BGE-StLight Pole Installation","2014-09-15T19:06:50.000","2014-10-06T19:06:50.000","DRUID HILL PARK","14-00696491","MD","O-WIP","2014-09-30T12:55:53.000",NA,"21217",NA,-76.6882923,39.3966579
"Cityworks SR Comments","E 32ND ST & HILLEN RD, BALTIMORE, MD, 21",NA,"BGESLPIN","BGE-StLight Pole Installation","2015-06-28T17:29:35.000","2015-07-19T17:29:35.000","COLDSTREAM HOMESTEAD MONTEBELLO","15-00505371","MD","O-WIP","2015-07-08T16:30:22.000","2015-06-28T17:43:35.000",NA,"UPDATED",-94.4143949,37.0543275
"Dispatch Work Crew","YALE AVE & FREDERICK AVE","BALTIMORE","BGESLPIN","BGE-StLight Pole Installation","2015-05-31T19:08:46.000","2015-06-21T19:08:46.000","IRVINGTON","15-00424493","MD","CLOSED","2015-06-16T16:45:57.000","2015-06-05T12:07:00.000","21229",NA,-93.5175341,43.0817089
"Cityworks SR Comments","1013  SOMERSET ST","BALTIMORE","BGESLPIN","BGE-StLight Pole Installation","2015-07-02T17:33:02.000","2015-07-23T17:33:02.000","JOHNSTON SQUARE","15-00520600","MD","CLOSED","2015-07-07T17:13:47.000","2015-07-02T17:46:33.000","21202","UPDATED",-76.6010251,39.302225
NA,"5414  TRAMORE RD","BALTIMORE CITY","BGESLPIN","BGE-StLight Pole Installation","2014-09-30T11:02:50.000","2014-10-21T11:02:50.000","HARFORD-ECHODALE/PERRING PARKWAY","14-00735217","MD","CLOSED","2014-09-30T12:00:21.000",NA,"21214",NA,-76.56766,39.355722
"Dispatch Work Crew","2401  LIBERTY HEIGHTS AVE","BALTIMORE","BGESLPIN","BGE-StLight Pole Installation","2015-01-30T23:42:45.000","2015-02-20T23:42:45.000","MONDAWMIN","15-00070969","MD","CLOSED","2015-02-06T12:30:23.000","2015-02-03T19:19:00.000","21215",NA,-76.654697,39.3170829
NA,"2933  FAIT AVE","BALTIMORE","BGESLPIN","BGE-StLight Pole Installation","2015-03-19T19:05:01.000","2015-04-09T19:05:01.000","CANTON","15-00220600","MD","CLOSED","2015-05-01T12:13:27.000",NA,"21224",NA,-76.574585,39.2830749
"Cityworks SR Comments","1500  CHURCH ST","BALTIMORE","BGESLPIN","BGE-StLight Pole Installation","2015-04-24T17:45:57.000","2015-05-15T17:45:57.000","CURTIS BAY","15-00323001","MD","CLOSED","2015-04-29T18:56:47.000","2015-04-27T22:05:00.000","21226","UPDATED",-76.5897584,39.2229197
NA,"2908  ORLEANS ST","BALTIMORE","BGESLPIN","BGE-StLight Pole Installation","2014-12-12T18:44:21.000","2015-01-02T18:44:21.000","ELLWOOD PARK/MONUMENT","14-00929915","MD","CLOSED","2015-02-10T12:06:04.000",NA,"21224",NA,-76.5758309,39.296059
"Cityworks SR Comments","3200  O'DONNELL ST","BALTIMORE","BGESLPIN","BGE-StLight Pole Installation","2015-04-08T23:44:17.000","2015-04-29T23:44:17.000","CANTON","15-00276411","MD","CLOSED","2015-04-24T13:02:57.000","2015-04-10T12:40:17.000","21224","UPDATED",-76.5709604,39.280544
"Cityworks SR Comments","HERKIMER ST &S CAREY ST","BALTIMORE","BGESLPIN","BGE-StLight Pole Installation","2015-05-18T11:16:07.000","2015-06-08T11:16:07.000","WASHINGTON VILLAGE","15-00387265","MD","O-WIP","2015-05-21T17:58:45.000","2015-05-19T10:56:58.000","21223","UPDATED",-74.9724871,43.1348767
NA,"4666  PARK HEIGHTS AVE","BALTIMORE","BGESLPIN","BGE-StLight Pole Installation","2015-06-10T16:58:58.000","2015-07-01T16:58:58.000","CENTRAL PARK HEIGHTS","15-00452839","MD","CLOSED","2015-07-01T12:57:26.000",NA,"21215",NA,-76.670467,39.343769
"Dispatch Work Crew","LIBERTY HEIGHTS AVE &W NORTHERN PKWY","BALTIMORE","BGESLPIN","BGE-StLight Pole Installation","2015-03-05T12:50:11.000","2015-03-26T12:50:11.000","HOWARD PARK","15-00169616","MD","CLOSED","2015-05-01T12:15:02.000","2015-03-10T11:18:00.000","21207",NA,-76.6824045,39.3273606
"Dispatch Work Crew","500 N MONROE ST","BALTIMORE","BGESLPIN","BGE-StLight Pole Installation","2015-04-29T20:10:21.000","2015-05-20T20:10:21.000","MIDTOWN-EDMONDSON","15-00336063","MD","O-WIP","2015-05-08T16:38:53.000","2015-05-04T11:20:00.000","21223",NA,-76.6472483,39.2938819
"Dispatch Work Crew","401 W REDWOOD ST","BALTIMORE","BGESLPIN","BGE-StLight Pole Installation","2015-04-09T13:32:14.000","2015-04-30T13:32:14.000","DOWNTOWN","15-00277507","MD","CLOSED","2015-05-05T12:08:20.000","2015-04-13T12:00:00.000","21201",NA,-76.6213005,39.2884059
"Cityworks SR Comments","535 E 25TH ST","BALTIMORE","BGESLPIN","BGE-StLight Pole Installation","2015-07-17T17:12:45.000","2015-08-07T17:12:45.000","EAST BALTIMORE MIDWAY","15-00565172","MD","CLOSED","2015-07-22T11:35:50.000","2015-07-21T18:24:52.000","21218","UPDATED",-76.6081898,39.3181568
NA,"520 W LOMBARD ST","BALTIMORE CITY","BGESLPIN","BGE-StLight Pole Installation","2014-10-27T17:38:36.000","2014-11-17T17:38:36.000","INNER HARBOR","14-00807599","MD","CLOSED","2014-12-09T12:49:40.000",NA,"21201",NA,-76.6229323,39.2875498
"Cityworks SR Comments","2503  FLEET ST","BALTIMORE","BGESLPIN","BGE-StLight Pole Installation","2015-02-04T15:22:03.000","2015-02-25T15:22:03.000","CANTON","15-00081110","MD","CLOSED","2015-02-25T12:24:00.000","2015-02-04T15:45:36.000","21224","UPDATED",-76.5811798,39.284946
"Cityworks SR Comments","LOCH RAVEN BLVD &E 33RD ST","BALTIMORE CITY","BGESLPIN","BGE-StLight Pole Installation","2014-11-06T13:45:12.000","2014-11-27T13:45:12.000","BETTER WAVERLY","14-00837430","MD","O-WIP","2014-11-14T13:32:43.000","2014-11-06T14:08:24.000","21218","UPDATED",-76.5859898,39.3650581
"Dispatch Work Crew","W NORTHERN PKWY & NARCISSUS AVE","BALTIMORE","BGESLPIN","BGE-StLight Pole Installation","2015-01-17T18:31:28.000","2015-02-07T18:31:28.000","GLEN","15-00038700","MD","CLOSED","2015-03-17T12:07:16.000","2015-01-22T12:31:00.000","21215",NA,-76.6656161,39.3557104
"Dispatch Work Crew","ROCKSPRING RD & BRAMBLETON RD","BALTIMORE CITY","BGESLPIN","BGE-StLight Pole Installation","2014-11-15T01:56:47.000","2014-12-06T01:56:47.000","MOUNT WASHINGTON","14-00861784","MD","CLOSED","2014-12-05T11:49:20.000","2014-11-26T12:31:00.000","21209",NA,-80.0254269,35.974587
"Dispatch Work Crew","1100 W NORTH AVE","BALTIMORE","BGESLPIN","BGE-StLight Pole Installation","2015-06-13T09:35:59.000","2015-07-04T09:35:59.000","RESERVOIR HILL","15-00460212","MD","CLOSED","2015-06-17T18:45:47.000","2015-06-17T18:44:00.000","21217",NA,-76.63624,39.310589
"Cityworks SR Comments","128 S EXETER ST","BALTIMORE","BGESLPIN","BGE-StLight Pole Installation","2015-03-04T11:59:50.000","2015-03-25T11:59:50.000","JONESTOWN","15-00165359","MD","CLOSED","2015-04-02T12:54:02.000","2015-03-04T14:41:49.000","21202","UPDATED",-76.602002,39.2882797
"Dispatch Work Crew","PENNSYLVANIA AVE & LAURENS ST","BALTIMORE","BGESLPIN","BGE-StLight Pole Installation","2015-05-01T23:03:55.000","2015-05-22T23:03:55.000","UPTON","15-00342411","MD","CLOSED","2015-06-05T13:28:53.000","2015-05-07T11:30:00.000","21217",NA,-81.5936382,38.3845797
"Dispatch Work Crew","ANNAPOLIS RD & MD 295 S, BALTIMORE, MD,","BALTIMORE","BGESLPIN","BGE-StLight Pole Installation","2015-06-27T13:21:56.000","2015-07-18T13:21:56.000","LAKELAND","15-00503552","MD","CLOSED","2015-06-30T19:17:05.000","2015-06-30T19:16:00.000","21230",NA,-76.8261738,38.9586401
"Cityworks SR Comments","4000  HILLEN RD","BALTIMORE","BGESLPIN","BGE-StLight Pole Installation","2014-12-17T13:56:50.000","2015-01-07T13:56:50.000","HILLEN","14-00938360","MD","CLOSED","2014-12-22T18:42:32.000","2014-12-17T14:26:26.000","21218","UPDATED",-76.588685,39.337966
"Dispatch Work Crew","510 S MONROE ST","BALTIMORE","BGESLPIN","BGE-StLight Pole Installation","2015-02-21T15:10:46.000","2015-03-14T15:10:46.000","CARROLLTON RIDGE","15-00130486","MD","CLOSED","2015-04-27T11:35:59.000","2015-02-24T11:24:00.000","21223",NA,-76.646979,39.281265
"Dispatch Work Crew","2612 N LONGWOOD ST","BALTIMORE CITY","BGESLPIN","BGE-StLight Pole Installation","2014-10-30T18:50:31.000","2014-11-20T18:50:31.000","HANLON-LONGWOOD","14-00817406","MD","CLOSED","2014-12-15T11:32:55.000","2014-10-31T11:23:00.000","21216",NA,-76.668472,39.316502
"Cityworks SR Comments","E 33RD ST & HILLEN RD","BALTIMORE","BGESLPIN","BGE-StLight Pole Installation","2014-12-29T09:23:33.000","2015-01-19T09:23:33.000","COLDSTREAM HOMESTEAD MONTEBELLO","14-00961790","MD","CLOSED","2014-12-29T19:16:41.000","2014-12-29T11:14:38.000","21218","UPDATED",-97.4291472,35.6237229
"Dispatch Work Crew","918  CHAUNCEY AVE","BALTIMORE","BGESLPIN","BGE-StLight Pole Installation","2015-03-16T22:13:13.000","2015-04-06T22:13:13.000","RESERVOIR HILL","15-00209129","MD","CLOSED","2015-05-13T12:14:12.000","2015-03-18T11:38:00.000","21217",NA,-76.636908,39.315181
"Dispatch Work Crew","4125  KINSWAY","BALTIMORE","BGESLPIN","BGE-StLight Pole Installation","2015-04-24T19:29:09.000","2015-05-15T19:29:09.000","GLENHAM-BELFORD","15-00323433","MD","CLOSED","2015-06-08T17:34:27.000","2015-04-28T17:49:00.000","21206",NA,-76.543704,39.34428
"Cityworks SR Comments","E 35TH ST & THE ALAMEDA, BALTIMORE, MD,","BALTIMORE","BGESLPIN","BGE-StLight Pole Installation","2015-08-04T10:21:32.000","2015-08-25T10:21:32.000","EDNOR GARDENS-LAKESIDE","15-00615814","MD","NEW","2015-08-04T18:49:17.000","2015-08-04T10:34:40.000","21218","UPDATED",-93.2422906,44.9395361
"Cityworks SR Comments","SAINT PAUL ST & E NORTH AVE, BALTIMORE,",NA,"BGESLPIN","BGE-StLight Pole Installation","2015-07-20T16:59:07.000","2015-08-10T16:59:07.000","GREENMOUNT WEST","15-00570923","MD","O-WIP","2015-07-30T13:37:06.000","2015-07-20T17:13:46.000",NA,"UPDATED",-90.741793,38.8614405
"Cityworks SR Comments","3420  MAYFIELD AVE","BALTIMORE CITY","BGESLPIN","BGE-StLight Pole Installation","2014-09-16T16:39:53.000","2014-10-07T16:39:53.000","BELAIR-EDISON","14-00699227","MD","CLOSED","2014-10-17T13:09:33.000","2014-09-16T17:23:57.000","21213","UPDATED",-76.569394,39.319905
"Cityworks SR Comments","1715  INGRAM RD","BALTIMORE CITY","BGESLPIN","BGE-StLight Pole Installation","2014-10-17T18:46:38.000","2014-11-07T18:46:38.000","PERRING LOCH","14-00784012","MD","CLOSED","2014-12-04T12:08:29.000","2014-10-17T19:11:41.000","21239","UPDATED",-76.5834847,39.3508425
"Cityworks SR Comments","601 S DECKER AVE","BALTIMORE","BGESLPIN","BGE-StLight Pole Installation","2015-06-28T13:27:31.000","2015-07-19T13:27:31.000","CANTON","15-00504999","MD","CLOSED","2015-07-30T12:40:10.000","2015-06-28T13:43:36.000","21224","UPDATED",-76.5733588,39.2852378
"Dispatch Work Crew","LIBERTY HEIGHTS AVE &W NORTHERN PKWY","BALTIMORE COUNTY","BGESLPIN","BGE-StLight Pole Installation","2014-11-14T18:09:25.000","2014-12-05T18:09:25.000","GROVE PARK","14-00861234","MD","CLOSED","2015-01-08T11:39:28.000","2014-11-18T11:39:00.000","21207",NA,-76.6824045,39.3273606
"Dispatch Work Crew","1300 E PATAPSCO AVE","BALTIMORE CITY","BGESLPIN","BGE-StLight Pole Installation","2014-10-23T15:59:46.000","2014-11-13T15:59:46.000","FAIRFIELD AREA","14-00799008","MD","CLOSED","2015-01-23T17:43:04.000","2014-10-27T11:41:00.000","21225",NA,-76.5923078,39.2332407
"Cityworks SR Comments","1300 E 33RD ST","BALTIMORE","BGESLPIN","BGE-StLight Pole Installation","2014-12-01T10:29:41.000","2014-12-22T10:29:41.000","EDNOR GARDENS-LAKESIDE","14-00898484","MD","CLOSED","2014-12-02T11:16:13.000","2014-12-01T11:09:24.000","21218","UPDATED",-76.597662,39.328732
"Cityworks SR Comments","GREENMOUNT AVE &E 28TH ST","BALTIMORE","BGESLPIN","BGE-StLight Pole Installation","2015-04-10T04:27:06.000","2015-05-01T04:27:06.000","BETTER WAVERLY","15-00279734","MD","CLOSED","2015-05-28T12:55:06.000","2015-04-10T04:39:41.000","21218","UPDATED",-76.6094637,39.3189114
"Dispatch Work Crew","1400 N FULTON AVE","BALTIMORE","BGESLPIN","BGE-StLight Pole Installation","2015-06-23T21:00:02.000","2015-07-14T21:00:02.000","SANDTOWN-WINCHESTER","15-00490779","MD","CLOSED","2015-07-16T12:01:23.000","2015-06-25T12:39:00.000","21217",NA,-76.6463586,39.3042946
"Cityworks SR Comments","1400  BONSAL ST","BALTIMORE","BGESLPIN","BGE-StLight Pole Installation","2015-01-24T13:32:51.000","2015-02-14T13:32:51.000","MEDFORD","15-00054490","MD","CLOSED","2015-02-10T12:03:14.000","2015-01-24T13:54:46.000","21224","UPDATED",-76.5449307,39.2777335
NA,"532 E 25TH ST","BALTIMORE CITY","BGESLPIN","BGE-StLight Pole Installation","2014-10-21T12:17:00.000","2014-11-11T12:17:00.000","EAST BALTIMORE MIDWAY","14-00791382","MD","CLOSED","2014-10-29T11:36:22.000",NA,"21218",NA,-76.607372,39.318934
"Dispatch Work Crew","PARKSLEY AVE & STRICKLAND ST","BALTIMORE","BGESLPIN","BGE-StLight Pole Installation","2015-03-29T17:50:24.000","2015-04-19T17:50:24.000","GWYNNS FALLS","15-00247207","MD","CLOSED","2015-04-17T13:01:31.000","2015-03-31T11:55:00.000","21223",NA,-76.6656759,39.2774997
"Cityworks SR Comments","5414  TRAMORE RD","BALTIMORE CITY","BGESLPIN","BGE-StLight Pole Installation","2014-08-10T17:40:14.000","2014-08-31T17:40:14.000","HARFORD-ECHODALE/PERRING PARKWAY","14-00597078","MD","CLOSED","2014-10-03T13:23:01.000","2014-08-10T18:23:17.000","21214","UPDATED",-76.56766,39.355722
"Cityworks SR Comments","ORLEANS ST &N CURLEY ST","BALTIMORE","BGESLPIN","BGE-StLight Pole Installation","2014-12-19T17:37:33.000","2015-01-09T17:37:33.000","ELLWOOD PARK/MONUMENT","14-00945664","MD","CLOSED","2014-12-23T11:29:17.000","2014-12-19T18:56:16.000","21224","UPDATED",-76.5939633,39.2952793
"Dispatch Work Crew","1425 W 37TH ST","BALTIMORE CITY","BGESLPIN","BGE-StLight Pole Installation","2014-09-01T19:44:51.000","2014-09-22T19:44:51.000","HAMPDEN","14-00657324","MD","CLOSED","2014-10-14T19:02:29.000","2014-10-14T19:02:00.000","21211",NA,-76.639203,39.331607
"Cityworks SR Comments","2501  FLEET ST","BALTIMORE","BGESLPIN","BGE-StLight Pole Installation","2015-02-09T09:57:48.000","2015-03-02T09:57:48.000","CANTON","15-00090650","MD","CLOSED","2015-02-10T11:56:56.000","2015-02-09T10:21:32.000","21224","UPDATED",-76.5812672,39.2848831
"Cityworks SR Comments","5409  HAMLET AVE","BALTIMORE","BGESLPIN","BGE-StLight Pole Installation","2014-11-18T14:33:51.000","2014-12-09T14:33:51.000","HARFORD-ECHODALE/PERRING PARKWAY","14-00869070","MD","CLOSED","2014-12-30T12:53:33.000","2014-11-18T14:58:40.000","21214","UPDATED",-76.565262,39.354954
"Cityworks SR Comments","2612  ERDMAN AVE","BALTIMORE CITY","BGESLPIN","BGE-StLight Pole Installation","2014-09-19T15:16:12.000","2014-10-10T15:16:12.000","CLIFTON PARK","14-00709128","MD","CLOSED","2014-09-23T12:48:54.000","2014-09-19T16:00:53.000","21213","UPDATED",-76.577417,39.324221
"Dispatch Work Crew","614  LAURENS ST","BALTIMORE","BGESLPIN","BGE-StLight Pole Installation","2015-04-13T17:21:14.000","2015-05-04T17:21:14.000","UPTON","15-00287949","MD","CLOSED","2015-05-13T12:11:32.000","2015-04-14T11:40:00.000","21217",NA,-76.6362163,39.3040849
"Cityworks SR Comments","1300 N BROADWAY","BALTIMORE","BGESLPIN","BGE-StLight Pole Installation","2015-04-06T19:48:56.000","2015-04-27T19:48:56.000","OLIVER","15-00268773","MD","CLOSED","2015-05-22T11:56:39.000","2015-04-06T22:27:01.000","21213","UPDATED",-76.595091,39.305442
"Dispatch Work Crew","N HILTON ST &N KOSSUTH ST","BALTIMORE","BGESLPIN","BGE-StLight Pole Installation","2015-03-25T16:24:37.000","2015-04-15T16:24:37.000","CARROLL-SOUTH HILTON","15-00236380","MD","CLOSED","2015-03-27T18:30:55.000","2015-03-27T18:30:00.000","21229",NA,-76.6726637,39.3142125
"Dispatch Work Crew","W SARATOGA ST &N SCHROEDER ST","BALTIMORE","BGESLPIN","BGE-StLight Pole Installation","2015-03-24T17:21:50.000","2015-04-14T17:21:50.000","POPPLETON","15-00233052","MD","CLOSED","2015-03-26T18:59:12.000","2015-03-26T18:58:00.000","21223",NA,NA,NA
"Dispatch Work Crew","WILKENS AVE & HURLEY AVE","BALTIMORE","BGESLPIN","BGE-StLight Pole Installation","2014-11-24T22:35:28.000","2014-12-15T22:35:28.000","GWYNNS FALLS","14-00885117","MD","CLOSED","2015-01-16T11:32:53.000","2014-11-26T11:39:00.000","21223",NA,-76.6587005,39.2780873
NA,"5025  MIDWOOD AVE","BALTIMORE","BGESLPIN","BGE-StLight Pole Installation","2015-03-16T18:58:57.000","2015-04-06T18:58:57.000","KENILWORTH PARK","15-00208265","MD","CLOSED","2015-04-01T11:56:15.000",NA,"21212",NA,-76.603348,39.349381
"Dispatch Work Crew","FALLSTAFF RD & WESTBROOK RD","BALTIMORE CITY","BGESLPIN","BGE-StLight Pole Installation","2014-10-22T23:50:14.000","2014-11-12T23:50:14.000","CROSS COUNTRY","14-00797096","MD","CLOSED","2014-12-09T12:50:33.000","2014-10-24T11:55:00.000","21215",NA,-76.7008993,39.3666697
"Dispatch Work Crew","2573  SOUTHDENE AVE","BALTIMORE CITY","BGESLPIN","BGE-StLight Pole Installation","2014-10-25T10:52:52.000","2014-11-15T10:52:52.000","LAKELAND","14-00803412","MD","CLOSED","2014-11-10T13:01:05.000","2014-11-10T13:00:00.000","21230",NA,-76.647604,39.254012
"Dispatch Work Crew","600 N LONGWOOD ST","BALTIMORE CITY","BGESLPIN","BGE-StLight Pole Installation","2014-11-02T16:05:43.000","2014-11-23T16:05:43.000","FRANKLINTOWN ROAD","14-00824357","MD","CLOSED","2015-01-15T12:17:06.000","2014-11-05T11:29:00.000","21216",NA,-76.6667309,39.2944021
"Dispatch Work Crew","N WARWICK AVE & GWYNNS FALLS PKWY, BALTI",NA,"BGESLPIN","BGE-StLight Pole Installation","2015-07-28T13:03:02.000","2015-08-18T13:03:02.000","MONDAWMIN","15-00595783","MD","CLOSED","2015-07-29T19:09:02.000","2015-07-29T19:08:00.000",NA,NA,-87.5110472,41.6828379
"Dispatch Work Crew","1500 W BALTIMORE ST","BALTIMORE CITY","BGESLPIN","BGE-StLight Pole Installation","2014-10-30T14:46:35.000","2014-11-20T14:46:35.000","FRANKLIN SQUARE","14-00816102","MD","CLOSED","2015-07-16T12:09:54.000","2014-11-03T11:43:00.000","21223",NA,-76.641132,39.288647
NA,"3600  HILLEN RD","BALTIMORE CITY","BGESLPIN","BGE-StLight Pole Installation","2014-08-06T19:09:23.000","2014-08-27T19:09:23.000","EDNOR GARDENS-LAKESIDE","14-00587099","MD","CLOSED","2014-09-04T11:38:37.000",NA,"21218",NA,-76.588591,39.3359533
"Dispatch Work Crew","5502  ROBINWOOD AVE","BALTIMORE","BGESLPIN","BGE-StLight Pole Installation","2015-04-24T13:22:48.000","2015-05-15T13:22:48.000","HOWARD PARK","15-00321749","MD","CLOSED","2015-04-28T18:36:16.000","2015-04-28T18:36:00.000","21207",NA,-76.70751,39.3270051
"Cityworks SR Comments","S FAGLEY ST & FOSTER AVE","BALTIMORE","BGESLPIN","BGE-StLight Pole Installation","2015-01-03T18:32:26.000","2015-01-24T18:32:26.000","BREWERS HILL","15-00004209","MD","CLOSED","2015-01-07T12:52:01.000","2015-01-03T19:20:19.000","21224","UPDATED",-76.5642101,39.2857104
"Cityworks SR Comments","3800 E NORTHERN PKWY","BALTIMORE","BGESLPIN","BGE-StLight Pole Installation","2014-12-10T13:14:51.000","2014-12-31T13:14:51.000","OVERLEA","14-00922936","MD","CLOSED","2014-12-12T19:02:53.000","2014-12-10T14:15:57.000","21206","UPDATED",-76.535019,39.358204
"Cityworks SR Comments","1700 N PATTERSON PARK AVE","BALTIMORE CITY","BGESLPIN","BGE-StLight Pole Installation","2014-10-30T13:00:40.000","2014-11-20T13:00:40.000","BROADWAY EAST","14-00815619","MD","CLOSED","2014-12-15T11:34:03.000","2014-10-30T13:25:12.000","21213","UPDATED",-76.5858273,39.3099401
"Cityworks SR Comments","1020 N LUZERNE AVE","BALTIMORE","BGESLPIN","BGE-StLight Pole Installation","2015-01-30T17:15:10.000","2015-02-20T17:15:10.000","BIDDLE STREET","15-00070166","MD","CLOSED","2015-03-25T13:14:09.000","2015-01-30T18:57:58.000","21205","UPDATED",-76.58144,39.302705
"Cityworks SR Comments","2700  SAINT LO DR","BALTIMORE","BGESLPIN","BGE-StLight Pole Installation","2015-06-20T00:16:44.000","2015-07-11T00:16:44.000","CLIFTON PARK","15-00481121","MD","CLOSED","2015-07-15T11:43:25.000","2015-06-23T20:30:23.000","21213","UPDATED",-76.5871623,39.3187818
"Dispatch Work Crew","WABASH AVE & PATTERSON AVE","BALTIMORE","BGESLPIN","BGE-StLight Pole Installation","2015-02-12T08:54:22.000","2015-03-05T08:54:22.000","SETON BUSINESS PARK","15-00100401","MD","CLOSED","2015-02-13T18:24:27.000","2015-02-13T18:24:00.000","21215",NA,-87.3133604,39.4833563
"Cityworks SR Comments","2851  KENTUCKY AVE","BALTIMORE CITY","BGESLPIN","BGE-StLight Pole Installation","2014-09-29T11:37:14.000","2014-10-20T11:37:14.000","BELAIR-EDISON","14-00731791","MD","CLOSED","2014-11-13T12:06:45.000","2014-09-29T12:08:40.000","21213","UPDATED",-76.5718885,39.3242784
"Cityworks SR Comments","1312  NORTHVIEW RD","BALTIMORE","BGESLPIN","BGE-StLight Pole Installation","2015-03-19T21:13:30.000","2015-04-09T21:13:30.000","ORIGINAL NORTHWOOD","15-00220986","MD","CLOSED","2015-04-24T13:05:44.000","2015-03-20T00:57:35.000","21218","UPDATED",-76.596297,39.342764
"Dispatch Work Crew","1201  WELDON AVE","BALTIMORE","BGESLPIN","BGE-StLight Pole Installation","2015-02-23T11:24:24.000","2015-03-16T11:24:24.000","MEDFIELD","15-00135306","MD","CLOSED","2015-05-08T11:39:19.000","2015-02-25T11:29:00.000","21211",NA,-76.638207,39.33798
"Dispatch Work Crew","2948  GARRISON BLVD","BALTIMORE CITY","BGESLPIN","BGE-StLight Pole Installation","2014-11-11T16:55:11.000","2014-12-02T16:55:11.000","FOREST PARK","14-00851460","MD","CLOSED","2014-11-26T11:24:11.000","2014-11-13T18:41:00.000","21216",NA,-76.6789783,39.3216692
"Cityworks SR Comments","5424  SPRINGLAKE WAY","BALTIMORE","BGESLPIN","BGE-StLight Pole Installation","2015-04-03T19:07:22.000","2015-04-24T19:07:22.000","HOMELAND","15-00263272","MD","CLOSED","2015-04-27T11:34:08.000","2015-04-03T21:52:32.000","21212","UPDATED",-76.617874,39.362867
NA,"3827  LOCH RAVEN BLVD","BALTIMORE","BGESLPIN","BGE-StLight Pole Installation","2015-03-17T19:09:18.000","2015-04-07T19:09:18.000","EDNOR GARDENS-LAKESIDE","15-00213238","MD","CLOSED","2015-04-01T11:54:32.000",NA,"21218",NA,-76.593931,39.335438
"Dispatch Work Crew","4200 E MONUMENT ST","BALTIMORE","BGESLPIN","BGE-StLight Pole Installation","2014-09-09T11:53:19.000","2014-09-30T11:53:19.000","ORANGEVILLE","14-00677904","MD","CLOSED","2014-10-09T13:19:26.000","2014-10-09T13:19:00.000",NA,NA,-76.5619673,39.2998257
"Dispatch Work Crew","5508  CRAIG AVE","BALTIMORE","BGESLPIN","BGE-StLight Pole Installation","2014-12-09T19:29:41.000","2014-12-30T19:29:41.000","MID-GOVANS","14-00921790","MD","CLOSED","2015-01-02T12:09:10.000","2015-01-02T12:00:00.000","21212",NA,-76.606272,39.35731
NA,"1001  ALICEANNA ST","BALTIMORE","BGESLPIN","BGE-StLight Pole Installation","2015-03-10T17:32:12.000","2015-03-31T17:32:12.000","INNER HARBOR","15-00187272","MD","CLOSED","2015-04-02T12:52:58.000",NA,"21202",NA,-76.5998395,39.2830924
NA,"1730  INGRAM RD","BALTIMORE CITY","BGESLPIN","BGE-StLight Pole Installation","2014-10-21T19:09:50.000","2014-11-11T19:09:50.000","PERRING LOCH","14-00793718","MD","CLOSED","2014-12-04T12:07:50.000",NA,"21239",NA,-76.5827903,39.3510465
"Cityworks SR Comments","2851  KENTUCKY AVE","BALTIMORE","BGESLPIN","BGE-StLight Pole Installation","2015-04-06T12:33:29.000","2015-04-27T12:33:29.000","BELAIR-EDISON","15-00266368","MD","CLOSED","2015-04-21T18:47:22.000","2015-04-16T19:25:30.000","21213","UPDATED",-76.5718885,39.3242784
NA,"415  WINGATE RD","BALTIMORE CITY","BGESLPIN","BGE-StLight Pole Installation","2014-11-10T17:36:16.000","2014-12-01T17:36:16.000","KESWICK","14-00848794","MD","CLOSED","2014-12-30T12:54:25.000",NA,"21210",NA,-76.627966,39.343302
"Cityworks SR Comments","4316  SAINT PAUL ST","BALTIMORE CITY","BGESLPIN","BGE-StLight Pole Installation","2014-10-08T22:37:56.000","2014-10-29T22:37:56.000","GUILFORD","14-00760941","MD","CLOSED","2014-10-21T13:10:14.000","2014-10-08T23:31:35.000","21218","UPDATED",-76.621292,39.342455
"Dispatch Work Crew","1418  MADISON AVE","BALTIMORE","BGESLPIN","BGE-StLight Pole Installation","2015-06-09T02:49:48.000","2015-06-30T02:49:48.000","MADISON PARK","15-00446774","MD","CLOSED","2015-07-29T11:28:25.000","2015-06-26T11:23:00.000","21217",NA,-76.6288288,39.3042
"Cityworks SR Comments","N GAY ST & ORLEANS ST","BALTIMORE","BGESLPIN","BGE-StLight Pole Installation","2015-05-30T02:35:58.000","2015-06-20T02:35:58.000","JONESTOWN","15-00422150","MD","CLOSED","2015-06-24T17:24:44.000","2015-06-03T13:19:57.000","21202","UPDATED",-76.5897917,39.3076816
"Dispatch Work Crew","1100 W SARATOGA ST","BALTIMORE","BGESLPIN","BGE-StLight Pole Installation","2015-05-20T13:31:50.000","2015-06-10T13:31:50.000","POPPLETON","15-00395195","MD","CLOSED","2015-05-29T12:45:58.000","2015-05-26T11:19:00.000","21223",NA,-76.635645,39.292554
"Dispatch Work Crew","2100  WASHINGTON BLVD","BALTIMORE CITY","BGESLPIN","BGE-StLight Pole Installation","2014-08-27T21:40:04.000","2014-09-17T21:40:04.000","CARROLL PARK","14-00647835","MD","CLOSED","2014-09-02T12:13:20.000","2014-09-02T12:12:00.000","21230",NA,-76.647487,39.275039
"Cityworks SR Comments","WALTHER AVE & BAYONNE AVE","BALTIMORE","BGESLPIN","BGE-StLight Pole Installation","2014-09-09T02:45:27.000","2014-09-30T02:45:27.000","GLENHAM-BELFORD","14-00677569","MD","CLOSED","2014-09-09T13:01:49.000","2014-09-09T12:34:58.000",NA,"UPDATED",-76.5555633,39.3464895
"Dispatch Work Crew","3000  HARLEM AVE","BALTIMORE","BGESLPIN","BGE-StLight Pole Installation","2014-12-04T17:59:00.000","2014-12-25T17:59:00.000","FRANKLINTOWN ROAD","14-00910296","MD","CLOSED","2014-12-11T13:50:03.000","2014-12-11T13:49:00.000","21216",NA,-76.666925,39.296014
"Dispatch Work Crew","1723  BELT ST","BALTIMORE","BGESLPIN","BGE-StLight Pole Installation","2015-04-20T11:58:59.000","2015-05-11T11:58:59.000","RIVERSIDE","15-00306933","MD","CLOSED","2015-04-29T18:37:23.000","2015-04-29T12:11:00.000","21230",NA,-76.6054693,39.2703194
"Dispatch Work Crew","3900  HILTON RD","BALTIMORE CITY","BGESLPIN","BGE-StLight Pole Installation","2014-08-05T21:52:13.000","2014-08-26T21:52:13.000","EAST ARLINGTON","14-00584010","MD","CLOSED","2014-09-17T12:07:36.000","2014-08-07T11:54:00.000","21215",NA,-76.6687029,39.3297572
"Cityworks SR Comments","500 E 21ST ST","BALTIMORE","BGESLPIN","BGE-StLight Pole Installation","2015-03-02T12:48:42.000","2015-03-23T12:48:42.000","EAST BALTIMORE MIDWAY","15-00158935","MD","CLOSED","2015-05-07T11:27:57.000","2015-03-02T15:12:32.000","21218","UPDATED",-76.6093731,39.3136948
"Cityworks SR Comments","1704 N PATTERSON PARK AVE","BALTIMORE CITY","BGESLPIN","BGE-StLight Pole Installation","2014-11-05T21:43:16.000","2014-11-26T21:43:16.000","BROADWAY EAST","14-00836060","MD","CLOSED","2014-11-10T11:58:24.000","2014-11-05T22:30:11.000","21213","UPDATED",-76.5858296,39.3099766
"Dispatch Work Crew","2609  HUNTINGDON AVE","BALTIMORE CITY","BGESLPIN","BGE-StLight Pole Installation","2014-10-20T17:52:29.000","2014-11-10T17:52:29.000","REMINGTON","14-00789855","MD","CLOSED","2015-07-16T12:04:23.000","2014-10-20T17:55:00.000","21211",NA,-76.621154,39.319132
"Cityworks SR Comments","GREENWAY & WENDOVER RD","BALTIMORE","BGESLPIN","BGE-StLight Pole Installation","2015-04-14T17:29:53.000","2015-05-05T17:29:53.000","GUILFORD","15-00291811","MD","CLOSED","2015-05-26T11:44:48.000","2015-04-14T17:44:13.000","21218","UPDATED",-76.9599852,38.8835718
"Cityworks SR Comments","4300 E MONUMENT ST","BALTIMORE","BGESLPIN","BGE-StLight Pole Installation","2014-09-09T09:36:51.000","2014-09-30T09:36:51.000","ORANGEVILLE","14-00677597","MD","CLOSED","2014-09-16T13:41:04.000","2014-09-10T18:48:29.000","21205","UPDATED",-76.5610389,39.300064
"Dispatch Work Crew","2100  BRYANT AVE","BALTIMORE","BGESLPIN","BGE-StLight Pole Installation","2015-03-21T19:34:23.000","2015-04-11T19:34:23.000","MONDAWMIN","15-00226035","MD","CLOSED","2015-03-25T18:13:33.000","2015-03-25T18:13:00.000","21217",NA,-76.650676,39.315874
"Cityworks SR Comments","4300  FENWICK AVE","BALTIMORE CITY","BGESLPIN","BGE-StLight Pole Installation","2014-10-15T13:22:25.000","2014-11-05T13:22:25.000","HILLEN","14-00776278","MD","CLOSED","2014-12-08T12:10:30.000","2014-10-15T14:14:15.000","21218","UPDATED",-76.5894796,39.3427575
"Cityworks SR Comments","BANK ST &S CHESTER ST","BALTIMORE","BGESLPIN","BGE-StLight Pole Installation","2015-05-27T15:42:47.000","2015-06-17T15:42:47.000","UPPER FELLS POINT","15-00412636","MD","CLOSED","2015-05-29T18:05:20.000","2015-05-27T15:53:16.000","21231","UPDATED",-72.244986,43.6436493
"Dispatch Work Crew","N HILTON ST & EDMONDSON AVE, BALTIMORE,",NA,"BGESLPIN","BGE-StLight Pole Installation","2015-07-02T23:32:02.000","2015-07-23T23:32:02.000","EDMONDSON VILLAGE","15-00522225","MD","CLOSED","2015-07-07T18:38:42.000","2015-07-07T18:37:00.000",NA,NA,-76.6726637,39.3142125
"Dispatch Work Crew","W NORTH AVE & PENNSYLVANIA AVE","BALTIMORE","BGESLPIN","BGE-StLight Pole Installation","2015-05-04T18:35:04.000","2015-05-25T18:35:04.000","MADISON PARK","15-00347810","MD","CLOSED","2015-05-19T11:58:47.000","2015-05-04T18:37:00.000","21217",NA,-87.8106306,41.9087923
"Dispatch Work Crew","MCCULLOH ST &N MARTIN LUTHER KING JR BLV","BALTIMORE","BGESLPIN","BGE-StLight Pole Installation","2015-03-11T17:11:39.000","2015-04-01T17:11:39.000","UPTON","15-00191547","MD","CLOSED","2015-03-13T18:25:26.000","2015-03-13T18:25:00.000","21201",NA,-76.6346118,39.3080473
NA,"2900  ORLEANS ST","BALTIMORE","BGESLPIN","BGE-StLight Pole Installation","2014-12-19T15:08:35.000","2015-01-09T15:08:35.000","ELLWOOD PARK/MONUMENT","14-00945140","MD","CLOSED","2015-02-25T12:27:41.000",NA,"21224",NA,-76.576012,39.296053
NA,"BELAIR RD & PELHAM AVE","BALTIMORE CITY","BGESLPIN","BGE-StLight Pole Installation","2014-10-16T18:28:43.000","2014-11-06T18:28:43.000","BELAIR-EDISON","14-00780935","MD","CLOSED","2014-11-26T11:27:24.000",NA,"21213",NA,-76.4688967,39.4084423
"Dispatch Work Crew","1900  BLOOMINGDALE RD","BALTIMORE","BGESLPIN","BGE-StLight Pole Installation","2015-06-19T16:03:45.000","2015-07-10T16:03:45.000","ROSEMONT","15-00479497","MD","O-WIP","2015-06-29T13:00:22.000","2015-06-24T11:47:00.000","21216",NA,-76.6712556,39.3090738
"Cityworks SR Comments","MARBOURNE AVE & ELIZABETH AVE","BALTIMORE CITY","BGESLPIN","BGE-StLight Pole Installation","2014-09-19T18:08:17.000","2014-10-10T18:08:17.000","LAKELAND","14-00709898","MD","CLOSED","2014-11-05T12:29:22.000","2014-09-19T18:46:25.000","21230","UPDATED",-76.6481554,39.2534679
"Dispatch Work Crew","W NORTHERN PKWY & PREAKNESS WAY","BALTIMORE CITY","BGESLPIN","BGE-StLight Pole Installation","2014-09-18T12:44:33.000","2014-10-09T12:44:33.000","LEVINDALE","14-00704808","MD","CLOSED","2014-11-05T12:30:10.000","2014-09-18T12:44:00.000","21209",NA,-76.6656161,39.3557104
"Dispatch Work Crew","E PLEASANT ST & SAINT PAUL PL","BALTIMORE CITY","BGESLPIN","BGE-StLight Pole Installation","2014-11-02T17:11:50.000","2014-11-23T17:11:50.000","DOWNTOWN","14-00824459","MD","CLOSED","2014-12-24T11:43:16.000","2014-12-24T11:42:00.000","21202",NA,-92.9171025,40.6309407
"Cityworks SR Comments","1 N ANN ST","BALTIMORE","BGESLPIN","BGE-StLight Pole Installation","2015-04-13T13:35:40.000","2015-05-04T13:35:40.000","WASHINGTON HILL","15-00286620","MD","CLOSED","2015-06-01T12:21:23.000","2015-04-14T19:33:48.000","21231","UPDATED",-76.591548,39.29195
"Dispatch Work Crew","3020  GARRISON BLVD","BALTIMORE","BGESLPIN","BGE-StLight Pole Installation","2014-11-18T12:47:10.000","2014-12-09T12:47:10.000","CONCERNED CITIZENS OF FOREST PARK","14-00868358","MD","CLOSED","2015-01-14T11:46:31.000","2014-11-20T12:00:00.000","21216",NA,-76.6811619,39.3226991
"Cityworks SR Comments","4710  LOCH RAVEN BLVD","BALTIMORE CITY","BGESLPIN","BGE-StLight Pole Installation","2014-10-27T15:17:19.000","2014-11-17T15:17:19.000","NEW NORTHWOOD","14-00806915","MD","CLOSED","2014-10-29T18:56:57.000","2014-10-27T16:24:22.000","21239","UPDATED",-76.592227,39.348447
"Dispatch Work Crew","900 N FRANKLINTOWN RD","BALTIMORE CITY","BGESLPIN","BGE-StLight Pole Installation","2014-11-13T22:02:02.000","2014-12-04T22:02:02.000","FRANKLINTOWN ROAD","14-00858742","MD","CLOSED","2014-12-04T12:05:09.000","2014-11-20T12:53:00.000","21216",NA,-76.667531,39.297422
"Dispatch Work Crew","BURLEITH AVE & LIBERTY HEIGHTS AVE, BALT",NA,"BGESLPIN","BGE-StLight Pole Installation","2015-07-06T14:33:50.000","2015-07-27T14:33:50.000","BURLEITH-LEIGHTON","15-00527952","MD","O-WIP","2015-07-08T11:18:50.000","2015-07-08T11:17:00.000",NA,NA,-76.659813,39.319664
"Dispatch Work Crew","NIEMAN AVE & HARRIET AVE, BALTIMORE, MD,",NA,"BGESLPIN","BGE-StLight Pole Installation","2015-07-17T17:30:24.000","2015-08-07T17:30:24.000","LAKELAND","15-00565245","MD","O-WIP","2015-07-30T13:36:16.000","2015-07-24T11:24:00.000",NA,NA,-76.6541358,39.2560303
"Cityworks SR Comments","1307  ANGLESEA ST","BALTIMORE","BGESLPIN","BGE-StLight Pole Installation","2015-06-15T14:55:23.000","2015-07-06T14:55:23.000","MEDFORD","15-00464046","MD","CLOSED","2015-07-17T11:39:31.000","2015-06-19T19:17:27.000","21224","UPDATED",-76.545417,39.2782998
NA,"1819 E PRESTON ST","BALTIMORE","BGESLPIN","BGE-StLight Pole Installation","2015-01-30T13:36:08.000","2015-02-20T13:36:08.000","BROADWAY EAST","15-00069084","MD","CLOSED","2015-02-13T13:27:04.000",NA,"21213",NA,-76.5917443,39.3053648
"Cityworks SR Comments","2910  LOUISE AVE","BALTIMORE","BGESLPIN","BGE-StLight Pole Installation","2015-07-14T20:31:08.000","2015-08-04T20:31:08.000","WESTFIELD","15-00554808","MD","O-WIP","2015-07-27T13:21:19.000","2015-07-14T20:44:47.000","21214","UPDATED",-76.555853,39.360684
"Dispatch Work Crew","3601  ELM AVE","BALTIMORE","BGESLPIN","BGE-StLight Pole Installation","2015-05-14T14:44:39.000","2015-06-04T14:44:39.000","HAMPDEN","15-00378754","MD","CLOSED","2015-06-24T17:27:35.000","2015-05-19T11:54:00.000","21211",NA,-76.630971,39.331755
NA,"3800  LOCH RAVEN BLVD","BALTIMORE CITY","BGESLPIN","BGE-StLight Pole Installation","2014-10-07T18:40:12.000","2014-10-28T18:40:12.000","ORIGINAL NORTHWOOD","14-00756642","MD","CLOSED","2014-11-10T11:50:54.000",NA,"21218",NA,-76.5961702,39.3336108
"Dispatch Work Crew","W NORTHERN PKWY & GREENSPRING AVE","BALTIMORE","BGESLPIN","BGE-StLight Pole Installation","2015-03-10T17:26:00.000","2015-03-31T17:26:00.000","MOUNT WASHINGTON","15-00187233","MD","CLOSED","2015-03-12T18:59:17.000","2015-03-12T18:59:00.000","21209",NA,-76.6656161,39.3557104
"Cityworks SR Comments","3505  PARKSIDE DR","BALTIMORE CITY","BGESLPIN","BGE-StLight Pole Installation","2014-09-03T19:16:55.000","2014-09-24T19:16:55.000","ARCADIA","14-00664042","MD","CLOSED","2014-10-08T12:57:59.000","2014-09-03T19:36:13.000","21214","UPDATED",-76.5702079,39.33251
"Cityworks SR Comments","ORLEANS ST &N LINWOOD AVE","BALTIMORE","BGESLPIN","BGE-StLight Pole Installation","2014-12-19T17:35:41.000","2015-01-09T17:35:41.000","MCELDERRY PARK","14-00945661","MD","CLOSED","2014-12-23T11:21:51.000","2014-12-19T18:56:16.000","21224","UPDATED",-76.5939633,39.2952793
"Dispatch Work Crew","6 W NORTHERN PKWY","BALTIMORE","BGESLPIN","BGE-StLight Pole Installation","2015-01-30T10:33:51.000","2015-02-20T10:33:51.000","THE ORCHARDS","15-00068126","MD","CLOSED","2015-03-20T06:37:40.000","2015-02-03T11:22:00.000","21210",NA,-76.626116,39.362327
"Cityworks SR Comments","3918  ARBOR VIEW","BALTIMORE","BGESLPIN","BGE-StLight Pole Installation","2015-05-27T17:06:32.000","2015-06-17T17:06:32.000","CLAREMONT-FREEDOM","15-00413028","MD","O-WIP","2015-06-18T18:31:04.000","2015-05-27T17:23:19.000","21213","UPDATED",-76.5579042,39.3158228
"Dispatch Work Crew","BRIARCLIFT RD & BROOKWOOD RD","BALTIMORE","BGESLPIN","BGE-StLight Pole Installation","2015-03-17T23:08:47.000","2015-04-07T23:08:47.000","HUNTING RIDGE","15-00214039","MD","CLOSED","2015-04-17T13:02:32.000","2015-03-19T11:21:00.000","21229",NA,-76.7032006,39.2960395
"Cityworks SR Comments","912  STAMFORD RD","BALTIMORE","BGESLPIN","BGE-StLight Pole Installation","2015-01-29T20:25:16.000","2015-02-19T20:25:16.000","WEST HILLS","15-00067727","MD","CLOSED","2015-05-08T11:37:47.000","2015-01-29T20:43:00.000","21229","UPDATED",-76.70993,39.296155
"Dispatch Work Crew","700 N PACA ST","BALTIMORE","BGESLPIN","BGE-StLight Pole Installation","2015-05-28T18:24:54.000","2015-06-18T18:24:54.000","SETON HILL","15-00417492","MD","O-WIP","2015-06-18T18:33:55.000","2015-05-28T19:03:00.000","21201",NA,-76.6226779,39.2973329
"Dispatch Work Crew","1500  CHURCH ST","BALTIMORE","BGESLPIN","BGE-StLight Pole Installation","2015-05-12T12:23:54.000","2015-06-02T12:23:54.000","CURTIS BAY","15-00369886","MD","CLOSED","2015-06-03T11:37:43.000","2015-06-03T11:36:00.000","21226",NA,-76.5897584,39.2229197
"Cityworks SR Comments","3800  LOCH RAVEN BLVD","BALTIMORE","BGESLPIN","BGE-StLight Pole Installation","2015-03-15T22:15:33.000","2015-04-05T22:15:33.000","ORIGINAL NORTHWOOD","15-00204649","MD","CLOSED","2015-05-14T11:38:25.000","2015-03-15T23:53:18.000","21218","UPDATED",-76.5961702,39.3336108
"Cityworks SR Comments","1401 E FAYETTE ST","BALTIMORE","BGESLPIN","BGE-StLight Pole Installation","2015-04-14T18:31:36.000","2015-05-05T18:31:36.000","WASHINGTON HILL","15-00292082","MD","CLOSED","2015-04-17T17:26:39.000","2015-04-14T18:43:40.000","21231","UPDATED",-76.5985737,39.2926321
"Dispatch Work Crew","W 34TH ST & ROLAND AVE","BALTIMORE CITY","BGESLPIN","BGE-StLight Pole Installation","2014-11-07T17:33:11.000","2014-11-28T17:33:11.000","HAMPDEN","14-00842334","MD","O-WIP","2014-11-13T13:38:21.000","2014-11-10T12:43:00.000","21211",NA,-95.43946,29.8172752
NA,"533 E 25TH ST","BALTIMORE CITY","BGESLPIN","BGE-StLight Pole Installation","2014-10-21T12:32:12.000","2014-11-11T12:32:12.000","COLDSTREAM HOMESTEAD MONTEBELLO","14-00791454","MD","CLOSED","2015-07-16T12:05:08.000",NA,"21218",NA,-76.6068805,39.3179523
"Cityworks SR Comments","1688  DARLEY AVE","BALTIMORE","BGESLPIN","BGE-StLight Pole Installation","2015-05-13T18:22:29.000","2015-06-03T18:22:29.000","DARLEY PARK","15-00375917","MD","CLOSED","2015-06-08T17:30:10.000","2015-05-14T18:32:58.000","21213","UPDATED",-76.5939536,39.3148716
"Dispatch Work Crew","5501  PARK HEIGHTS AVE","BALTIMORE","BGESLPIN","BGE-StLight Pole Installation","2014-11-24T13:48:52.000","2014-12-15T13:48:52.000","PIMLICO GOOD NEIGHBORS","14-00883341","MD","CLOSED","2014-12-22T12:38:45.000","2014-12-22T12:38:00.000","21215",NA,-76.6833702,39.3522457
"Dispatch Work Crew","WALBROOK AVE & MCKEAN AVE","BALTIMORE","BGESLPIN","BGE-StLight Pole Installation","2015-03-16T15:12:23.000","2015-04-06T15:12:23.000","MONDAWMIN","15-00206721","MD","CLOSED","2015-05-13T12:15:06.000","2015-03-17T10:59:00.000","21217",NA,-76.6612258,39.31023
"Cityworks SR Comments","6302  FAIRDEL AVE","BALTIMORE CITY","BGESLPIN","BGE-StLight Pole Installation","2014-08-06T17:30:26.000","2014-08-27T17:30:26.000","ROSEMONT EAST","14-00586608","MD","CLOSED","2014-08-11T19:00:31.000","2014-08-06T18:05:08.000","21206","UPDATED",-76.54053,39.354106
"Dispatch Work Crew","WATERVIEW AVE & I 295","BALTIMORE","BGESLPIN","BGE-StLight Pole Installation","2015-02-10T14:21:59.000","2015-03-03T14:21:59.000","WESTPORT","15-00094758","MD","O-WIP","2015-03-02T12:42:00.000","2015-02-12T11:54:00.000","21230",NA,-76.6301974,39.2572396
"Dispatch Work Crew","W NORTHERN PKWY & CYLBURN AVE","BALTIMORE CITY","BGESLPIN","BGE-StLight Pole Installation","2014-11-06T11:43:15.000","2014-11-27T11:43:15.000","COLDSPRING","14-00836585","MD","CLOSED","2014-12-04T12:06:31.000","2014-11-10T11:32:00.000","21209",NA,-76.6656161,39.3557104
"Dispatch Work Crew","1200  SARGEANT ST","BALTIMORE","BGESLPIN","BGE-StLight Pole Installation","2015-07-22T17:14:33.000","2015-08-12T17:14:33.000","WASHINGTON VILLAGE","15-00578791","MD","O-WIP","2015-07-27T17:12:07.000","2015-07-24T11:20:00.000","21223",NA,-76.6347093,39.282119
NA,"807 N CURLEY ST","BALTIMORE","BGESLPIN","BGE-StLight Pole Installation","2015-07-20T18:03:41.000","2015-08-10T18:03:41.000","MADISON-EASTEND","15-00571212","MD","O-WIP","2015-07-27T13:12:24.000",NA,"21205",NA,-76.5758454,39.3006037
"Cityworks SR Comments","2501 E FAIRMOUNT AVE","BALTIMORE","BGESLPIN","BGE-StLight Pole Installation","2015-04-01T22:40:26.000","2015-04-22T22:40:26.000","BALTIMORE-LINWOOD","15-00257984","MD","CLOSED","2015-04-06T16:07:15.000","2015-04-02T03:22:25.000","21224","UPDATED",-76.581459,39.292923
"Dispatch Work Crew","4700 N CHARLES ST","BALTIMORE","BGESLPIN","BGE-StLight Pole Installation","2015-04-24T20:02:30.000","2015-05-15T20:02:30.000","BLYTHEWOOD","15-00323516","MD","CLOSED","2015-05-11T11:58:33.000","2015-04-28T11:15:00.000","21210",NA,-76.6235575,39.3533135
"Dispatch Work Crew","2401  CROSS COUNTRY BLVD","BALTIMORE","BGESLPIN","BGE-StLight Pole Installation","2015-04-25T11:34:11.000","2015-05-16T11:34:11.000","MOUNT WASHINGTON","15-00324036","MD","CLOSED","2015-06-08T17:33:14.000","2015-04-28T18:00:00.000","21209",NA,-76.670413,39.36503
"Dispatch Work Crew","2900  CHELSEA TER","BALTIMORE","BGESLPIN","BGE-StLight Pole Installation","2015-04-21T11:10:26.000","2015-05-12T11:10:26.000","WINDSOR HILLS","15-00309744","MD","CLOSED","2015-04-24T19:44:00.000","2015-04-24T19:43:00.000","21216",NA,-76.682176,39.3202
"Cityworks SR Comments","1000  OLDHAM ST","BALTIMORE","BGESLPIN","BGE-StLight Pole Installation","2015-05-14T12:49:21.000","2015-06-04T12:49:21.000","GREEKTOWN","15-00378097","MD","CLOSED","2015-06-30T12:24:02.000","2015-05-26T21:02:56.000","21224","UPDATED",-76.5556707,39.2818334
"Dispatch Work Crew","1910  HARMAN AVE","BALTIMORE","BGESLPIN","BGE-StLight Pole Installation","2015-03-28T18:59:08.000","2015-04-18T18:59:08.000","MORRELL PARK","15-00246341","MD","CLOSED","2015-03-31T18:54:48.000","2015-03-31T11:58:00.000","21230",NA,-76.651758,39.266314
"Cityworks SR Comments","1800  BROENING HWY","BALTIMORE","BGESLPIN","BGE-StLight Pole Installation","2015-02-10T15:25:19.000","2015-03-03T15:25:19.000","HOLABIRD INDUSTRIAL PARK","15-00095254","MD","O-WIP","2015-03-03T16:11:01.000","2015-02-10T17:15:41.000","21224","UPDATED",-76.5433534,39.2720724
"Dispatch Work Crew","3001  KESWICK RD","BALTIMORE","BGESLPIN","BGE-StLight Pole Installation","2015-04-30T13:46:31.000","2015-05-21T13:46:31.000","HAMPDEN","15-00337733","MD","CLOSED","2015-05-08T16:38:06.000","2015-05-04T11:17:00.000","21211",NA,-76.627609,39.323622
"Cityworks SR Comments","718  GRUNDY ST","BALTIMORE","BGESLPIN","BGE-StLight Pole Installation","2015-01-18T20:19:43.000","2015-02-08T20:19:43.000","BREWERS HILL","15-00039727","MD","CLOSED","2015-01-22T13:22:15.000","2015-01-18T20:56:12.000","21224","UPDATED",-76.5633933,39.2840594
"Cityworks SR Comments","6800  EASTERN AVE","BALTIMORE","BGESLPIN","BGE-StLight Pole Installation","2015-02-16T23:56:23.000","2015-03-09T23:56:23.000","EASTWOOD","15-00112477","MD","CLOSED","2015-04-10T12:28:29.000","2015-02-17T01:30:31.000","21224","UPDATED",-76.5312263,39.2884561
"Dispatch Work Crew","E HAMILTON ST & HARGROVE ALY","BALTIMORE","BGESLPIN","BGE-StLight Pole Installation","2015-03-26T16:32:58.000","2015-04-16T16:32:58.000","MOUNT VERNON","15-00240208","MD","CLOSED","2015-07-06T12:05:11.000","2015-03-30T15:24:00.000","21202",NA,-99.7944269,32.9438016
NA,"4801  WALTHER AVE","BALTIMORE CITY","BGESLPIN","BGE-StLight Pole Installation","2014-10-09T18:33:25.000","2014-10-30T18:33:25.000","WALTHERSON","14-00763547","MD","CLOSED","2014-11-12T13:16:55.000",NA,"21214",NA,-76.562357,39.342015
"Cityworks SR Comments","3500  FOSTER AVE","BALTIMORE","BGESLPIN","BGE-StLight Pole Installation","2015-05-01T21:37:59.000","2015-05-22T21:37:59.000","CANTON","15-00342287","MD","CLOSED","2015-06-05T13:29:42.000","2015-05-05T19:05:16.000","21224","UPDATED",-76.5682236,39.2850635
"Cityworks SR Comments","1511  SHADYSIDE RD","BALTIMORE","BGESLPIN","BGE-StLight Pole Installation","2015-04-20T11:54:29.000","2015-05-11T11:54:29.000","HILLEN","15-00306907","MD","CLOSED","2015-06-09T11:59:33.000","2015-04-20T12:09:01.000","21218","UPDATED",-76.5929309,39.338309
NA,"3301  BRENDAN AVE","BALTIMORE CITY","BGESLPIN","BGE-StLight Pole Installation","2014-10-15T19:06:50.000","2014-11-05T19:06:50.000","BELAIR-EDISON","14-00777771","MD","CLOSED","2014-10-31T11:43:20.000",NA,"21213",NA,-76.56886,39.3213269
"Cityworks SR Comments","3829  FOSTER AVE","BALTIMORE","BGESLPIN","BGE-StLight Pole Installation","2014-12-02T13:48:13.000","2014-12-23T13:48:13.000","BREWERS HILL","14-00902763","MD","CLOSED","2015-02-10T12:07:44.000","2014-12-02T15:13:55.000","21224","UPDATED",-76.5642693,39.2844914
"Cityworks SR Comments","3100  MCELDERRY ST","BALTIMORE CITY","BGESLPIN","BGE-StLight Pole Installation","2014-10-03T13:28:43.000","2014-10-24T13:28:43.000","ELLWOOD PARK/MONUMENT","14-00746649","MD","CLOSED","2014-10-07T19:19:09.000","2014-10-03T14:26:24.000","21205","UPDATED",-76.573614,39.298262
NA,"200  KANE ST","BALTIMORE","BGESLPIN","BGE-StLight Pole Installation","2015-01-26T03:36:16.000","2015-02-16T03:36:16.000","HOPKINS BAYVIEW","15-00056078","MD","CLOSED","2015-03-10T11:33:56.000",NA,"21224",NA,-76.5368034,39.2915725
"Dispatch Work Crew","3509  CALLAWAY AVE","BALTIMORE","BGESLPIN","BGE-StLight Pole Installation","2015-01-01T21:24:54.000","2015-01-22T21:24:54.000","ASHBURTON","15-00000656","MD","O-WIP","2015-01-16T11:39:52.000","2015-01-07T11:16:00.000","21215",NA,-76.677189,39.328862
NA,"5424  PULASKI HWY","BALTIMORE","BGESLPIN","BGE-StLight Pole Installation","2015-01-29T19:34:12.000","2015-02-19T19:34:12.000","ORANGEVILLE","15-00067614","MD","CLOSED","2015-03-25T13:12:19.000",NA,"21205",NA,-76.5525595,39.301004
"Cityworks SR Comments","E PLEASANT ST & DAVIS ST, BALTIMORE, MD,",NA,"BGESLPIN","BGE-StLight Pole Installation","2015-07-27T16:25:02.000","2015-08-17T16:25:02.000","DOWNTOWN","15-00593611","MD","O-WIP","2015-07-29T17:43:18.000","2015-07-27T16:39:04.000",NA,"UPDATED",-92.9171025,40.6309407
"Dispatch Work Crew","3415  GWYNNS FALLS PKWY","BALTIMORE","BGESLPIN","BGE-StLight Pole Installation","2015-03-17T18:24:32.000","2015-04-07T18:24:32.000","MOUNT HOLLY","15-00212894","MD","CLOSED","2015-05-11T12:01:55.000","2015-03-17T18:36:00.000","21216",NA,-76.675772,39.31383
"Dispatch Work Crew","1423 E CLEMENT ST","BALTIMORE","BGESLPIN","BGE-StLight Pole Installation","2015-06-16T10:55:45.000","2015-07-07T10:55:45.000","LOCUST POINT","15-00466572","MD","CLOSED","2015-06-25T13:56:13.000","2015-06-24T15:19:00.000","21230",NA,-76.5936129,39.2703816
"Dispatch Work Crew","1915  GWYNNS FALLS PKWY","BALTIMORE","BGESLPIN","BGE-StLight Pole Installation","2015-01-11T12:36:11.000","2015-02-01T12:36:11.000","MONDAWMIN","15-00023419","MD","CLOSED","2015-03-04T11:36:39.000","2015-01-15T11:50:00.000","21217",NA,-76.65156,39.315653
"Cityworks SR Comments","1438  WINSTON AVE","BALTIMORE","BGESLPIN","BGE-StLight Pole Installation","2015-07-10T19:50:57.000","2015-07-31T19:50:57.000","NEW NORTHWOOD","15-00544242","MD","O-WIP","2015-07-27T17:03:35.000","2015-07-13T18:24:18.000","21239","UPDATED",-76.5923141,39.3504892
"Cityworks SR Comments","698  TUNBRIDGE RD","BALTIMORE CITY","BGESLPIN","BGE-StLight Pole Installation","2014-09-30T12:05:01.000","2014-10-21T12:05:01.000","MID-GOVANS","14-00735417","MD","CLOSED","2014-10-02T18:22:25.000","2014-09-30T13:00:52.000","21212","UPDATED",-76.6042598,39.3564005
"Cityworks SR Comments","1233 S CLINTON ST","BALTIMORE","BGESLPIN","BGE-StLight Pole Installation","2015-05-13T05:33:37.000","2015-06-03T05:33:37.000","CANTON","15-00373052","MD","CLOSED","2015-06-09T11:57:03.000","2015-05-14T13:13:05.000","21224","UPDATED",-76.569164,39.278658
"Cityworks SR Comments","FAIT AVE &S ELLWOOD AVE","BALTIMORE","BGESLPIN","BGE-StLight Pole Installation","2015-05-12T16:59:03.000","2015-06-02T16:59:03.000","CANTON","15-00371328","MD","CLOSED","2015-06-30T12:24:41.000","2015-05-14T13:13:05.000","21224","UPDATED",-76.5527779,39.2841287
"Cityworks SR Comments","725 S ROSE ST","BALTIMORE CITY","BGESLPIN","BGE-StLight Pole Installation","2014-09-30T00:36:19.000","2014-10-21T00:36:19.000","CANTON","14-00735033","MD","CLOSED","2014-10-01T17:33:23.000","2014-09-30T01:07:37.000","21224","UPDATED",-76.5803668,39.283361
"Cityworks SR Comments","GOUGH ST &S HIGHLAND AVE","BALTIMORE","BGESLPIN","BGE-StLight Pole Installation","2015-04-16T15:26:07.000","2015-05-07T15:26:07.000","HIGHLANDTOWN","15-00298806","MD","CLOSED","2015-05-27T12:00:44.000","2015-04-16T17:45:49.000","21224","UPDATED",-122.4251637,37.7875918
NA,"3900  HILLEN RD","BALTIMORE","BGESLPIN","BGE-StLight Pole Installation","2014-12-17T19:05:37.000","2015-01-07T19:05:37.000","EDNOR GARDENS-LAKESIDE","14-00940012","MD","O-WIP","2014-12-29T17:51:42.000",NA,"21218",NA,-76.5884553,39.3372901
"Cityworks SR Comments","2200  CLOVILLE AVE","BALTIMORE","BGESLPIN","BGE-StLight Pole Installation","2015-04-20T16:08:42.000","2015-05-11T16:08:42.000","HARFORD-ECHODALE/PERRING PARKWAY","15-00308168","MD","CLOSED","2015-04-21T12:43:34.000","2015-04-20T16:28:55.000","21214","UPDATED",-76.5710019,39.361571
"Dispatch Work Crew","600  LAURENS ST","BALTIMORE CITY","BGESLPIN","BGE-StLight Pole Installation","2014-08-05T07:39:39.000","2014-08-26T07:39:39.000","UPTON","14-00580538","MD","CLOSED","2014-08-26T12:28:43.000","2014-08-06T11:48:00.000","21217",NA,-76.6356191,39.3043094
"Dispatch Work Crew","1215  WILDWOOD PKWY","BALTIMORE CITY","BGESLPIN","BGE-StLight Pole Installation","2014-08-06T20:02:00.000","2014-08-27T20:02:00.000","EDMONDSON VILLAGE","14-00587314","MD","CLOSED","2014-08-28T12:59:25.000","2014-08-08T11:26:00.000","21229",NA,-76.6834244,39.3005236
NA,"5675  BELAIR RD","BALTIMORE","BGESLPIN","BGE-StLight Pole Installation","2015-03-26T18:45:30.000","2015-04-16T18:45:30.000","FRANKFORD","15-00240920","MD","CLOSED","2015-04-29T12:36:16.000",NA,"21206",NA,-76.545672,39.341868
NA,"201  KANE ST","BALTIMORE","BGESLPIN","BGE-StLight Pole Installation","2015-01-26T03:40:28.000","2015-02-16T03:40:28.000","PULASKI INDUSTRIAL AREA","15-00056079","MD","CLOSED","2015-03-10T11:34:54.000",NA,"21224",NA,-76.535502,39.2910567
"Cityworks SR Comments","ECHODALE AVE & HOLDER AVE, BALTIMORE, MD",NA,"BGESLPIN","BGE-StLight Pole Installation","2015-06-22T20:55:51.000","2015-07-13T20:55:51.000","WALTHERSON","15-00486954","MD","CLOSED","2015-07-21T12:18:53.000","2015-06-23T20:40:21.000",NA,"UPDATED",-76.5611568,39.3485723
"Dispatch Work Crew","5322  WABASH AVE","BALTIMORE","BGESLPIN","BGE-StLight Pole Installation","2015-07-27T11:58:12.000","2015-08-17T11:58:12.000","WEST ARLINGTON","15-00592119","MD","O-WIP","2015-07-31T19:17:19.000","2015-07-29T12:18:00.000","21215",NA,-76.691504,39.34247
NA,"4500  LOCH RAVEN BLVD","BALTIMORE","BGESLPIN","BGE-StLight Pole Installation","2014-12-23T18:25:55.000","2015-01-13T18:25:55.000","NEW NORTHWOOD","14-00953951","MD","O-WIP","2014-12-30T17:30:24.000",NA,"21239",NA,-76.5922211,39.3462317
"Dispatch Work Crew","4025  REISTERSTOWN RD","BALTIMORE","BGESLPIN","BGE-StLight Pole Installation","2015-05-30T02:40:06.000","2015-06-20T02:40:06.000","CENTRAL PARK HEIGHTS","15-00422151","MD","CLOSED","2015-06-05T18:59:31.000","2015-06-05T12:24:00.000","21215",NA,-76.664393,39.334769
"Dispatch Work Crew","PARK HEIGHTS AVE & CLARKS LN","BALTIMORE","BGESLPIN","BGE-StLight Pole Installation","2015-05-19T12:03:25.000","2015-06-09T12:03:25.000","CROSS COUNTRY","15-00391046","MD","CLOSED","2015-05-22T12:23:59.000","2015-05-22T12:23:00.000","21215",NA,-76.7238521,39.3923803
NA,"5500  PULASKI HWY","BALTIMORE","BGESLPIN","BGE-StLight Pole Installation","2015-05-01T18:59:23.000","2015-05-22T18:59:23.000","ORANGEVILLE","15-00341857","MD","CLOSED","2015-06-08T17:31:04.000",NA,"21205",NA,-76.5525335,39.3004667
"Cityworks SR Comments","3001  BOSTON ST","BALTIMORE","BGESLPIN","BGE-StLight Pole Installation","2015-04-06T15:25:00.000","2015-04-27T15:25:00.000","CANTON INDUSTRIAL AREA","15-00267368","MD","CLOSED","2015-04-10T12:27:16.000","2015-04-06T18:06:52.000","21224","UPDATED",-76.5738862,39.2778405
"Dispatch Work Crew","326  SAINT PAUL PL","BALTIMORE","BGESLPIN","BGE-StLight Pole Installation","2015-02-20T02:22:46.000","2015-03-13T02:22:46.000","DOWNTOWN","15-00124843","MD","CLOSED","2015-04-14T13:42:18.000","2015-02-24T18:13:00.000","21202",NA,-76.6142355,39.2935669
NA,"1003  SOMERSET ST","BALTIMORE","BGESLPIN","BGE-StLight Pole Installation","2015-07-07T15:21:35.000","2015-07-28T15:21:35.000","JOHNSTON SQUARE","15-00531422","MD","O-WIP","2015-07-28T18:13:33.000",NA,"21202",NA,-76.6010105,39.3019869
NA,"E LANVALE ST & HOLBROOK ST, BALTIMORE, M",NA,"BGESLPIN","BGE-StLight Pole Installation","2015-06-10T16:26:10.000","2015-07-01T16:26:10.000","OLIVER","15-00452676","MD","CLOSED","2015-07-13T11:26:35.000",NA,NA,NA,-76.5929054,39.3096809
"Cityworks SR Comments","PERRING PKWY & ECHODALE AVE","BALTIMORE","BGESLPIN","BGE-StLight Pole Installation","2015-05-31T16:15:20.000","2015-06-21T16:15:20.000","MORGAN STATE UNIVERSITY","15-00424269","MD","CLOSED","2015-06-18T11:52:16.000","2015-06-03T12:59:50.000","21239","UPDATED",-76.562038,39.374293
"Dispatch Work Crew","401  OLD ORCHARD RD","BALTIMORE","BGESLPIN","BGE-StLight Pole Installation","2015-06-18T16:04:33.000","2015-07-09T16:04:33.000","TEN HILLS","15-00476169","MD","CLOSED","2015-07-16T12:03:14.000","2015-06-22T11:23:00.000","21229",NA,-76.699805,39.287085
"Dispatch Work Crew","5601  PULASKI HWY","BALTIMORE CITY","BGESLPIN","BGE-StLight Pole Installation","2014-08-01T21:54:09.000","2014-08-22T21:54:09.000","PULASKI INDUSTRIAL AREA","14-00574201","MD","CLOSED","2014-08-05T19:16:46.000","2014-08-05T19:14:00.000","21205",NA,-76.5498038,39.3009172
"Cityworks SR Comments","3202  ORLANDO AVE","BALTIMORE","BGESLPIN","BGE-StLight Pole Installation","2015-02-15T14:08:56.000","2015-03-08T14:08:56.000","WOODRING","15-00108104","MD","CLOSED","2015-03-12T13:32:17.000","2015-02-18T21:08:23.000","21234","UPDATED",-76.5431459,39.36568
"Cityworks SR Comments","E NORTH AVE &N CHARLES ST","BALTIMORE","BGESLPIN","BGE-StLight Pole Installation","2015-05-23T22:14:20.000","2015-06-13T22:14:20.000","CHARLES NORTH","15-00404251","MD","O-WIP","2015-06-18T18:35:50.000","2015-05-23T22:30:26.000","21202","UPDATED",-87.9735577,41.9055261
"Dispatch Work Crew","2019 W NORTH AVE","BALTIMORE","BGESLPIN","BGE-StLight Pole Installation","2015-03-27T15:54:46.000","2015-04-17T15:54:46.000","EASTERWOOD","15-00243876","MD","CLOSED","2015-05-27T12:04:39.000","2015-03-30T11:20:00.000","21217",NA,-76.650497,39.309436
"Cityworks SR Comments","2610  ERDMAN AVE","BALTIMORE CITY","BGESLPIN","BGE-StLight Pole Installation","2014-08-22T13:10:55.000","2014-09-12T13:10:55.000","CLIFTON PARK","14-00632825","MD","CLOSED","2014-09-29T13:05:58.000","2014-08-22T13:51:14.000","21213","UPDATED",-76.5774854,39.3242459
"Cityworks SR Comments","2000  ORLEANS ST","BALTIMORE","BGESLPIN","BGE-StLight Pole Installation","2015-01-27T13:38:26.000","2015-02-17T13:38:26.000","MIDDLE EAST","15-00060758","MD","CLOSED","2015-01-30T12:16:35.000","2015-01-28T20:13:13.000","21231","UPDATED",-76.589153,39.295541
"Dispatch Work Crew","RACE ST &W OSTEND ST","BALTIMORE","BGESLPIN","BGE-StLight Pole Installation","2015-04-23T18:54:56.000","2015-05-14T18:54:56.000","SHARP-LEADENHALL","15-00320305","MD","O-WIP","2015-05-13T15:09:20.000","2015-04-23T19:35:00.000","21230",NA,-99.7500021,36.6148948
"Dispatch Work Crew","PLOY ST & TYSON ST","BALTIMORE","BGESLPIN","BGE-StLight Pole Installation","2014-12-01T20:36:21.000","2014-12-22T20:36:21.000","MID-TOWN BELVEDERE","14-00901414","MD","CLOSED","2014-12-18T13:13:23.000","2014-12-03T11:28:00.000","21201",NA,-76.6177141,39.2974549
"Dispatch Work Crew","4500  FAIRFAX RD","BALTIMORE","BGESLPIN","BGE-StLight Pole Installation","2015-07-09T15:35:46.000","2015-07-30T15:35:46.000","WEST FOREST PARK","15-00539659","MD","CLOSED","2015-07-13T18:39:00.000","2015-07-13T18:38:00.000","21216",NA,-76.690789,39.319178
"Dispatch Work Crew","5000  QUEENSBERRY AVE","BALTIMORE","BGESLPIN","BGE-StLight Pole Installation","2015-02-04T14:09:05.000","2015-02-25T14:09:05.000","CENTRAL PARK HEIGHTS","15-00080715","MD","CLOSED","2015-04-07T16:41:46.000","2015-02-06T12:06:00.000","21215",NA,-76.67126,39.3488029
"Dispatch Work Crew","3300  MASSACHUSETTS AVE","BALTIMORE","BGESLPIN","BGE-StLight Pole Installation","2015-03-12T03:18:11.000","2015-04-02T03:18:11.000","SAINT JOSEPHS","15-00193323","MD","O-WIP","2015-03-17T13:53:23.000","2015-03-13T11:18:00.000","21229",NA,-76.6721937,39.2838832
"Dispatch Work Crew","YALE AVE & POTTER ST","BALTIMORE","BGESLPIN","BGE-StLight Pole Installation","2015-04-11T14:49:00.000","2015-05-02T14:49:00.000","IRVINGTON","15-00283956","MD","CLOSED","2015-05-01T12:12:07.000","2015-04-14T11:44:00.000","21229",NA,-93.5175341,43.0817089
"Dispatch Work Crew","300 N HILTON ST","BALTIMORE","BGESLPIN","BGE-StLight Pole Installation","2015-04-07T09:58:55.000","2015-04-28T09:58:55.000","ALLENDALE","15-00269385","MD","CLOSED","2015-05-21T11:38:20.000","2015-04-08T12:27:00.000","21229",NA,-76.672887,39.290693
"Cityworks SR Comments","650 S EXETER ST","BALTIMORE","BGESLPIN","BGE-StLight Pole Installation","2015-08-02T06:17:32.000","2015-08-23T06:17:32.000","INNER HARBOR","15-00609746","MD","O-WIP","2015-08-04T17:43:08.000","2015-08-02T06:32:59.000","21202","UPDATED",-76.6003226,39.283637
"Dispatch Work Crew","4104  ROCKFIELD AVE","BALTIMORE","BGESLPIN","BGE-StLight Pole Installation","2015-05-13T20:01:05.000","2015-06-03T20:01:05.000","WOODMERE","15-00376278","MD","CLOSED","2015-06-18T11:53:44.000","2015-05-18T19:00:00.000","21215",NA,-76.689419,39.346278
"Cityworks SR Comments","2406  MAYFIELD AVE","BALTIMORE CITY","BGESLPIN","BGE-StLight Pole Installation","2014-08-04T18:13:28.000","2014-08-25T18:13:28.000","MAYFIELD","14-00579487","MD","CLOSED","2014-08-22T12:40:12.000","2014-08-04T18:36:59.000","21213","UPDATED",-76.578465,39.326496
NA,"5505  CRAIG AVE","BALTIMORE","BGESLPIN","BGE-StLight Pole Installation","2014-12-09T19:18:51.000","2014-12-30T19:18:51.000","MID-GOVANS","14-00921735","MD","CLOSED","2015-01-05T11:40:50.000",NA,"21212",NA,-76.605752,39.357057
"Dispatch Work Crew","3319 W BELVEDERE AVE","BALTIMORE CITY","BGESLPIN","BGE-StLight Pole Installation","2014-11-03T12:42:05.000","2014-11-24T12:42:05.000","ARLINGTON","14-00825885","MD","CLOSED","2014-12-09T12:47:50.000","2014-11-06T12:21:00.000","21215",NA,-76.6767328,39.348022
NA,"PERRING PKWY &E BELVEDERE AVE","BALTIMORE","BGESLPIN","BGE-StLight Pole Installation","2015-03-12T12:37:16.000","2015-04-02T12:37:16.000","MORGAN STATE UNIVERSITY","15-00193980","MD","CLOSED","2015-04-22T11:45:15.000",NA,"21239",NA,-76.562038,39.374293
NA,"5400  PULASKI HWY","BALTIMORE","BGESLPIN","BGE-StLight Pole Installation","2015-02-27T18:32:15.000","2015-03-20T18:32:15.000","ORANGEVILLE","15-00154131","MD","CLOSED","2015-03-25T13:13:08.000",NA,"21205",NA,-76.5535754,39.3001368
"Cityworks SR Comments","N HOWARD ST &W NORTH AVE","BALTIMORE CITY","BGESLPIN","BGE-StLight Pole Installation","2014-09-30T02:24:11.000","2014-10-21T02:24:11.000","CHARLES NORTH","14-00735062","MD","CLOSED","2015-02-02T12:34:16.000","2014-09-30T03:10:37.000","21217","UPDATED",-82.1996942,35.180609
"Cityworks SR Comments","2908  OAKCREST AVE","BALTIMORE","BGESLPIN","BGE-StLight Pole Installation","2015-05-20T18:02:43.000","2015-06-10T18:02:43.000","NORTH HARFORD ROAD","15-00396368","MD","CLOSED","2015-06-25T12:11:08.000","2015-05-23T10:00:03.000","21234","UPDATED",-76.5463175,39.3719506
NA,"4710  LOCH RAVEN BLVD","BALTIMORE CITY","BGESLPIN","BGE-StLight Pole Installation","2014-10-07T18:50:32.000","2014-10-28T18:50:32.000","NEW NORTHWOOD","14-00756696","MD","CLOSED","2014-11-10T11:46:49.000",NA,"21239",NA,-76.592227,39.348447
"Cityworks SR Comments","1415 S HANOVER ST","BALTIMORE","BGESLPIN","BGE-StLight Pole Installation","2015-06-26T18:13:39.000","2015-07-17T18:13:39.000","SBIC","15-00502433","MD","O-WIP","2015-07-02T17:41:54.000","2015-06-26T18:32:18.000","21230","UPDATED",-76.6149379,39.2732279
"Cityworks SR Comments","N CHESTER ST & ASHLAND AVE","BALTIMORE","BGESLPIN","BGE-StLight Pole Installation","2015-03-17T19:18:47.000","2015-04-07T19:18:47.000","MIDDLE EAST","15-00213301","MD","O-WIP","2015-03-26T19:16:17.000","2015-03-17T20:04:21.000","21205","UPDATED",-81.1878355,35.2797776
"Dispatch Work Crew","DORCHESTER RD & AYRDALE AVE","BALTIMORE CITY","BGESLPIN","BGE-StLight Pole Installation","2014-10-18T19:30:48.000","2014-11-08T19:30:48.000","CALLAWAY-GARRISON","14-00786379","MD","CLOSED","2014-12-05T11:56:19.000","2014-10-21T11:32:00.000","21215",NA,-2.6738565,50.7284235
"Cityworks SR Comments","4622  ASBURY AVE","BALTIMORE","BGESLPIN","BGE-StLight Pole Installation","2015-02-13T15:14:38.000","2015-03-06T15:14:38.000","FRANKFORD","15-00105026","MD","CLOSED","2015-04-20T11:41:46.000","2015-02-18T21:08:23.000","21206","UPDATED",-76.5596844,39.3318067
"Cityworks SR Comments","BELAIR RD & SINCLAIR LN","BALTIMORE","BGESLPIN","BGE-StLight Pole Installation","2015-05-22T01:51:53.000","2015-06-12T01:51:53.000","CLIFTON PARK","15-00400346","MD","CLOSED","2015-07-01T12:59:32.000","2015-05-23T10:40:17.000","21213","UPDATED",-76.4688967,39.4084423
"Dispatch Work Crew","1447  ROLAND HEIGHTS AVE","BALTIMORE CITY","BGESLPIN","BGE-StLight Pole Installation","2014-11-04T18:12:58.000","2014-11-25T18:12:58.000","MEDFIELD","14-00831035","MD","CLOSED","2014-12-24T11:53:49.000","2014-12-24T11:53:00.000","21211",NA,-76.643158,39.3393749
"Dispatch Work Crew","2301  GWYNNS FALLS PKWY","BALTIMORE","BGESLPIN","BGE-StLight Pole Installation","2015-06-22T11:03:27.000","2015-07-13T11:03:27.000","MONDAWMIN","15-00484018","MD","O-WIP","2015-06-29T13:02:51.000","2015-06-24T11:42:00.000","21217",NA,-76.6547952,39.3148021
"Dispatch Work Crew","W LAFAYETTE AVE & POPLAR GROVE ST","BALTIMORE CITY","BGESLPIN","BGE-StLight Pole Installation","2014-10-14T17:25:42.000","2014-11-04T17:25:42.000","FRANKLINTOWN ROAD","14-00774207","MD","CLOSED","2014-12-02T12:06:12.000","2014-10-17T11:11:00.000","21216",NA,-76.6429403,39.2989043
"Dispatch Work Crew","1808  PENNSYLVANIA AVE","BALTIMORE","BGESLPIN","BGE-StLight Pole Installation","2015-07-13T15:36:58.000","2015-08-03T15:36:58.000","UPTON","15-00549578","MD","O-WIP","2015-07-22T19:03:18.000","2015-07-15T11:34:00.000","21217",NA,-76.6358822,39.3045285
NA,"5600  PULASKI HWY","BALTIMORE","BGESLPIN","BGE-StLight Pole Installation","2015-05-01T18:48:20.000","2015-05-22T18:48:20.000","ARMISTEAD GARDENS","15-00341814","MD","CLOSED","2015-06-08T17:31:58.000",NA,"21205",NA,-76.5506193,39.3011132
"Dispatch Work Crew","GWYNNS FALLS PKWY & N PULASKI ST, BALTIM",NA,"BGESLPIN","BGE-StLight Pole Installation","2015-07-29T18:32:02.000","2015-08-19T18:32:02.000","MONDAWMIN","15-00601297","MD","O-WIP","2015-07-29T18:35:18.000","2015-07-29T18:35:00.000",NA,NA,-76.6651752,39.3146693
"Dispatch Work Crew","W 34TH ST & ROLAND AVE","BALTIMORE","BGESLPIN","BGE-StLight Pole Installation","2015-04-22T12:01:52.000","2015-05-13T12:01:52.000","HAMPDEN","15-00313698","MD","CLOSED","2015-04-24T19:38:20.000","2015-04-24T19:32:00.000","21211",NA,-95.43946,29.8172752
"Dispatch Work Crew","N MOUNT ST & EDMONDSON AVE","BALTIMORE","BGESLPIN","BGE-StLight Pole Installation","2015-03-25T15:49:44.000","2015-04-15T15:49:44.000","HARLEM PARK","15-00236270","MD","CLOSED","2015-03-27T18:37:13.000","2015-03-27T18:36:00.000","21217",NA,-76.6442781,39.2976778
"Dispatch Work Crew","WABASH AVE &W COLD SPRING LN","BALTIMORE","BGESLPIN","BGE-StLight Pole Installation","2015-03-20T05:02:22.000","2015-04-10T05:02:22.000","DOLFIELD","15-00221417","MD","O-WIP","2015-04-06T12:05:40.000","2015-03-25T13:27:00.000","21215",NA,-87.3133604,39.4833563
"Dispatch Work Crew","310 W SARATOGA ST","BALTIMORE","BGESLPIN","BGE-StLight Pole Installation","2015-01-07T09:42:42.000","2015-01-28T09:42:42.000","DOWNTOWN","15-00012529","MD","CLOSED","2015-02-03T18:31:12.000","2015-01-08T11:46:00.000","21201",NA,-76.620454,39.2929588
"Dispatch Work Crew","EASTERN AVE &S HAVEN ST","BALTIMORE CITY","BGESLPIN","BGE-StLight Pole Installation","2014-11-03T13:22:29.000","2014-11-24T13:22:29.000","BREWERS HILL","14-00826273","MD","CLOSED","2014-12-11T13:13:01.000","2014-12-11T13:12:00.000","21224",NA,-71.130511,41.68958
"Cityworks SR Comments","2901 N CHARLES ST","BALTIMORE","BGESLPIN","BGE-StLight Pole Installation","2014-12-02T12:29:46.000","2014-12-23T12:29:46.000","CHARLES VILLAGE","14-00902389","MD","CLOSED","2014-12-05T18:23:16.000","2014-12-02T13:43:06.000","21218","UPDATED",-76.6169173,39.3233505
NA,"5400  PERRING PKWY","BALTIMORE","BGESLPIN","BGE-StLight Pole Installation","2015-01-14T18:54:04.000","2015-02-04T18:54:04.000","LOCH RAVEN","15-00031657","MD","CLOSED","2015-03-10T19:21:59.000",NA,"21239",NA,-76.5758423,39.3548821
"Cityworks SR Comments","BRENDAN AVE & MANNASOTA AVE","BALTIMORE CITY","BGESLPIN","BGE-StLight Pole Installation","2014-10-11T00:43:45.000","2014-11-01T00:43:45.000","BELAIR-EDISON","14-00767392","MD","CLOSED","2014-11-12T13:15:58.000","2014-10-11T00:59:48.000","21213","UPDATED",-76.5687463,39.3215215
"Cityworks SR Comments","18  CUSTOM HOUSE AVE","BALTIMORE","BGESLPIN","BGE-StLight Pole Installation","2015-01-23T16:44:58.000","2015-02-13T16:44:58.000","DOWNTOWN","15-00053249","MD","CLOSED","2015-02-10T12:04:02.000","2015-01-23T17:22:07.000","21202","UPDATED",-76.6097831,39.2893668
NA,"516 E 25TH ST","BALTIMORE","BGESLPIN","BGE-StLight Pole Installation","2015-07-09T18:49:41.000","2015-07-30T18:49:41.000","BETTER WAVERLY","15-00540527","MD","O-WIP","2015-07-09T18:54:08.000",NA,"21218",NA,-76.608374,39.31845
NA,"2139 E CHASE ST","BALTIMORE","BGESLPIN","BGE-StLight Pole Installation","2015-07-27T16:38:55.000","2015-08-17T16:38:55.000","MIDDLE EAST","15-00593690","MD","O-WIP","2015-07-30T13:36:42.000",NA,"21213",NA,-76.587143,39.303333
"Cityworks SR Comments","42 E CROSS ST","BALTIMORE","BGESLPIN","BGE-StLight Pole Installation","2015-01-15T14:45:42.000","2015-02-05T14:45:42.000","FEDERAL HILL","15-00033618","MD","CLOSED","2015-02-25T12:26:36.000","2015-01-15T15:10:25.000","21230","UPDATED",-76.6129134,39.2770899
"Dispatch Work Crew","852  POWERS ST","BALTIMORE CITY","BGESLPIN","BGE-StLight Pole Installation","2014-08-03T22:08:05.000","2014-08-24T22:08:05.000","HAMPDEN","14-00576656","MD","CLOSED","2014-08-06T12:20:56.000","2014-08-06T12:20:00.000","21211",NA,-76.6310009,39.329424
NA,"3827  PULASKI HWY","BALTIMORE","BGESLPIN","BGE-StLight Pole Installation","2015-04-10T19:16:24.000","2015-05-01T19:16:24.000","BALTIMORE HIGHLANDS","15-00282598","MD","CLOSED","2015-05-21T12:00:47.000",NA,"21224",NA,-76.564628,39.296526
"Dispatch Work Crew","1700  PRESSTMAN ST","BALTIMORE","BGESLPIN","BGE-StLight Pole Installation","2014-11-22T22:36:16.000","2014-12-13T22:36:16.000","SANDTOWN-WINCHESTER","14-00881420","MD","CLOSED","2014-12-09T13:00:05.000","2014-12-08T12:15:00.000","21217",NA,-76.6448959,39.3054909
"Cityworks SR Comments","E 20TH ST & SAINT PAUL ST","BALTIMORE","BGESLPIN","BGE-StLight Pole Installation","2015-04-06T17:35:25.000","2015-04-27T17:35:25.000","CHARLES NORTH","15-00268163","MD","CLOSED","2015-04-27T11:33:25.000","2015-04-06T18:06:52.000","21218","UPDATED",-95.9514782,35.6101149
NA,"2911  FOREST GLEN RD","BALTIMORE","BGESLPIN","BGE-StLight Pole Installation","2015-07-16T12:15:33.000","2015-08-06T12:15:33.000","WEST FOREST PARK","15-00559954","MD","O-WIP","2015-07-27T13:15:33.000",NA,"21216",NA,-76.694426,39.319383
"Cityworks SR Comments","3318  NORTHWAY DR","BALTIMORE","BGESLPIN","BGE-StLight Pole Installation","2015-03-25T22:50:05.000","2015-04-15T22:50:05.000","WOODRING","15-00237963","MD","CLOSED","2015-04-23T11:33:48.000","2015-03-26T02:27:42.000","21234","UPDATED",-76.5422528,39.360909
"Cityworks SR Comments","HARFORD RD &E COLD SPRING LN","BALTIMORE","BGESLPIN","BGE-StLight Pole Installation","2015-04-21T08:45:51.000","2015-05-12T08:45:51.000","MORAVIA-WALTHER","15-00309624","MD","CLOSED","2015-04-24T12:34:15.000","2015-04-21T08:59:12.000","21214","UPDATED",-76.4972104,39.4215075
"Cityworks SR Comments","E 33RD ST & LOCH RAVEN BLVD","BALTIMORE CITY","BGESLPIN","BGE-StLight Pole Installation","2014-11-12T09:50:38.000","2014-12-03T09:50:38.000","BETTER WAVERLY","14-00852614","MD","CLOSED","2014-11-13T11:51:51.000","2014-11-12T10:55:23.000","21218","UPDATED",-97.4291472,35.6237229
"Dispatch Work Crew","MORELLO RD &E STRATHMORE AVE","BALTIMORE CITY","BGESLPIN","BGE-StLight Pole Installation","2014-09-04T20:39:51.000","2014-09-25T20:39:51.000","LAURAVILLE","14-00668143","MD","CLOSED","2014-10-09T19:15:12.000","2014-10-09T13:14:00.000","21214",NA,-76.5689869,39.351189
"Cityworks SR Comments","500 E 21ST ST","BALTIMORE","BGESLPIN","BGE-StLight Pole Installation","2015-03-02T12:48:08.000","2015-03-23T12:48:08.000","EAST BALTIMORE MIDWAY","15-00158932","MD","CLOSED","2015-03-04T11:53:36.000","2015-03-02T15:12:32.000","21218","UPDATED",-76.6093731,39.3136948
"Cityworks SR Comments","4813  BELAIR RD","BALTIMORE","BGESLPIN","BGE-StLight Pole Installation","2015-04-09T15:48:20.000","2015-04-30T15:48:20.000","FRANKFORD","15-00278022","MD","CLOSED","2015-05-27T12:03:24.000","2015-04-09T15:59:38.000","21206","UPDATED",-76.558212,39.333118
"Dispatch Work Crew","1400 N HOWARD ST","BALTIMORE","BGESLPIN","BGE-StLight Pole Installation","2015-02-23T23:03:16.000","2015-03-16T23:03:16.000","BOLTON HILL","15-00139817","MD","CLOSED","2015-04-21T12:34:11.000","2015-02-25T11:27:00.000","21217",NA,-76.6209626,39.3073439
"Dispatch Work Crew","606 N HILTON ST","BALTIMORE","BGESLPIN","BGE-StLight Pole Installation","2015-06-01T23:01:43.000","2015-06-22T23:01:43.000","EDMONDSON VILLAGE","15-00428312","MD","O-WIP","2015-06-22T18:15:20.000","2015-06-05T12:04:00.000","21229",NA,-76.673024,39.294458
"Cityworks SR Comments","HILLEN RD & PENTWOOD RD","BALTIMORE","BGESLPIN","BGE-StLight Pole Installation","2014-12-20T13:03:21.000","2015-01-10T13:03:21.000","MORGAN STATE UNIVERSITY","14-00946610","MD","CLOSED","2015-02-06T12:31:30.000","2014-12-20T14:34:11.000","21239","UPDATED",-76.5816433,39.3595487
"Dispatch Work Crew","N HOWARD ST & DOLPHIN ST","BALTIMORE","BGESLPIN","BGE-StLight Pole Installation","2015-03-24T12:33:22.000","2015-04-14T12:33:22.000","MID-TOWN BELVEDERE","15-00231195","MD","CLOSED","2015-05-22T11:43:15.000","2015-03-26T13:30:00.000","21217",NA,-82.1996942,35.180609
"Dispatch Work Crew","W MULBERRY ST &N PULASKI ST","BALTIMORE CITY","BGESLPIN","BGE-StLight Pole Installation","2014-09-22T10:35:35.000","2014-10-13T10:35:35.000","MIDTOWN-EDMONDSON","14-00713347","MD","CLOSED","2014-12-15T11:35:51.000","2014-09-25T13:06:00.000","21223",NA,-95.4452916,29.1638541
"Cityworks SR Comments","ORLEANS ST &N WASHINGTON ST","BALTIMORE","BGESLPIN","BGE-StLight Pole Installation","2015-01-18T06:25:08.000","2015-02-08T06:25:08.000","MIDDLE EAST","15-00039023","MD","CLOSED","2015-03-03T12:14:07.000","2015-01-18T07:22:49.000","21231","UPDATED",-76.5939633,39.2952793
"Cityworks SR Comments","4099  HILLEN RD","BALTIMORE","BGESLPIN","BGE-StLight Pole Installation","2015-05-13T18:16:07.000","2015-06-03T18:16:07.000","MONTEBELLO","15-00375887","MD","CLOSED","2015-05-20T18:13:17.000","2015-05-13T18:32:10.000","21218","UPDATED",-76.5878091,39.3399254
"Dispatch Work Crew","4222  OAKFORD AVE","BALTIMORE","BGESLPIN","BGE-StLight Pole Installation","2015-05-12T15:52:35.000","2015-06-02T15:52:35.000","WEST ARLINGTON","15-00371058","MD","CLOSED","2015-06-25T12:12:04.000","2015-05-14T13:37:00.000","21215",NA,-76.69149,39.335887
"Dispatch Work Crew","POTEE ST &W PATAPSCO AVE","BALTIMORE","BGESLPIN","BGE-StLight Pole Installation","2014-11-16T10:42:32.000","2014-12-07T10:42:32.000","BROOKLYN","14-00863308","MD","O-WIP","2014-11-21T19:26:35.000","2014-11-19T11:24:00.000","21225",NA,-76.6112797,39.2451633
"Dispatch Work Crew","4400  WABASH AVE","BALTIMORE","BGESLPIN","BGE-StLight Pole Installation","2015-02-13T20:04:05.000","2015-03-06T20:04:05.000","DOLFIELD","15-00106000","MD","CLOSED","2015-04-17T13:05:30.000","2015-02-19T11:48:00.000","21215",NA,-76.6740362,39.3365531
"Dispatch Work Crew","DORCHESTER RD & AYRDALE AVE","BALTIMORE CITY","BGESLPIN","BGE-StLight Pole Installation","2014-10-28T13:07:22.000","2014-11-18T13:07:22.000","CALLAWAY-GARRISON","14-00809260","MD","CLOSED","2014-10-30T18:49:29.000","2014-10-30T18:49:00.000","21215",NA,-2.6738565,50.7284235
"Cityworks SR Comments","1500  THAMES ST","BALTIMORE","BGESLPIN","BGE-StLight Pole Installation","2014-12-15T03:43:19.000","2015-01-05T03:43:19.000","FELLS POINT","14-00932031","MD","CLOSED","2015-03-26T12:11:27.000","2014-12-15T04:05:07.000","21231","UPDATED",-76.5956538,39.2805055
"Dispatch Work Crew","6704  CROSS COUNTRY BLVD","BALTIMORE","BGESLPIN","BGE-StLight Pole Installation","2015-05-29T10:41:59.000","2015-06-19T10:41:59.000","CROSS COUNTRY","15-00418977","MD","CLOSED","2015-06-10T15:59:38.000","2015-06-05T12:26:00.000","21215",NA,-76.698244,39.364247
"Dispatch Work Crew","5707  RUBIN AVE","BALTIMORE","BGESLPIN","BGE-StLight Pole Installation","2015-07-15T15:04:05.000","2015-08-05T15:04:05.000","GLEN","15-00557227","MD","O-WIP","2015-07-27T17:04:10.000","2015-07-17T12:19:00.000","21215",NA,-76.690697,39.351801
"Dispatch Work Crew","S EXETER ST & ALICEANNA ST","BALTIMORE","BGESLPIN","BGE-StLight Pole Installation","2015-01-29T16:08:46.000","2015-02-19T16:08:46.000","INNER HARBOR","15-00066787","MD","CLOSED","2015-04-23T11:34:28.000","2015-02-02T11:33:00.000","21202",NA,-76.600776,39.28671
"Dispatch Work Crew","W NORTHERN PKWY & ST GEORGES RD","BALTIMORE CITY","BGESLPIN","BGE-StLight Pole Installation","2014-09-26T18:10:57.000","2014-10-17T18:10:57.000","NORTH ROLAND PARK/POPLAR HILL","14-00728566","MD","CLOSED","2014-10-16T11:45:02.000","2014-09-26T18:11:00.000","21210",NA,-76.6656161,39.3557104
"Dispatch Work Crew","1803 W ROGERS AVE","BALTIMORE","BGESLPIN","BGE-StLight Pole Installation","2015-03-01T13:17:29.000","2015-03-22T13:17:29.000","MOUNT WASHINGTON","15-00156901","MD","CLOSED","2015-03-04T18:18:34.000","2015-03-04T18:18:00.000","21209",NA,-76.653598,39.361745
"Cityworks SR Comments","E 42ND ST & YORK RD","BALTIMORE CITY","BGESLPIN","BGE-StLight Pole Installation","2014-10-19T14:42:03.000","2014-11-09T14:42:03.000","PEN LUCY","14-00786965","MD","CLOSED","2014-11-26T11:25:59.000","2014-10-19T15:06:38.000","21218","UPDATED",-102.3513918,31.8897092
NA,"9 E WEST ST","BALTIMORE","BGESLPIN","BGE-StLight Pole Installation","2015-07-15T13:59:06.000","2015-08-05T13:59:06.000","FEDERAL HILL","15-00556880","MD","O-WIP","2015-07-27T13:20:17.000",NA,"21230",NA,-76.6137151,39.2756466
"Dispatch Work Crew","117 N MOUNT ST","BALTIMORE","BGESLPIN","BGE-StLight Pole Installation","2015-04-22T17:33:52.000","2015-05-13T17:33:52.000","FRANKLIN SQUARE","15-00315944","MD","CLOSED","2015-06-05T13:30:33.000","2015-04-24T11:37:00.000","21223",NA,-76.6436772,39.2902906
"Dispatch Work Crew","2301  GWYNNS FALLS PKWY","BALTIMORE","BGESLPIN","BGE-StLight Pole Installation","2015-07-27T18:14:57.000","2015-08-17T18:14:57.000","MONDAWMIN","15-00594114","MD","O-WIP","2015-07-29T19:07:22.000","2015-07-29T12:24:00.000","21217",NA,-76.6547952,39.3148021
"Cityworks SR Comments","1690  DARLEY AVE","BALTIMORE","BGESLPIN","BGE-StLight Pole Installation","2015-05-26T15:53:48.000","2015-06-16T15:53:48.000","DARLEY PARK","15-00408487","MD","CLOSED","2015-05-28T11:17:12.000","2015-05-26T16:12:37.000","21213","UPDATED",-76.5939031,39.3148716
NA,"2500 W PATAPSCO AVE","BALTIMORE","BGESLPIN","BGE-StLight Pole Installation","2015-03-10T18:49:55.000","2015-03-31T18:49:55.000","LAKELAND","15-00187813","MD","CLOSED","2015-03-10T18:50:58.000",NA,"21230",NA,-76.6509926,39.2527678
NA,"W REDWOOD ST &S ARCH ST","BALTIMORE CITY","BGESLPIN","BGE-StLight Pole Installation","2014-10-27T17:42:35.000","2014-11-17T17:42:35.000","UNIVERSITY OF MARYLAND","14-00807627","MD","CLOSED","2014-12-09T12:48:49.000",NA,"21201",NA,-89.9728332,44.9198347
"Cityworks SR Comments","725 S ROSE ST","BALTIMORE","BGESLPIN","BGE-StLight Pole Installation","2014-09-07T20:24:01.000","2014-09-28T20:24:01.000","CANTON","14-00673525","MD","CLOSED","2014-10-08T11:59:49.000","2014-09-07T20:59:56.000","21224","UPDATED",-76.5803668,39.283361
"Dispatch Work Crew","2500 W PATAPSCO AVE","BALTIMORE","BGESLPIN","BGE-StLight Pole Installation","2015-03-10T18:52:11.000","2015-03-31T18:52:11.000","LAKELAND","15-00187831","MD","O-WIP","2015-03-17T13:51:53.000","2015-03-10T18:54:00.000","21230",NA,-76.6509926,39.2527678
"Dispatch Work Crew","S WICKHAM RD & WILLISTON ST","BALTIMORE","BGESLPIN","BGE-StLight Pole Installation","2015-05-15T12:35:35.000","2015-06-05T12:35:35.000","BEECHFIELD","15-00381795","MD","CLOSED","2015-06-24T17:26:46.000","2015-05-20T11:00:00.000","21229",NA,-80.6726161,28.095906
"Cityworks SR Comments","1 N ANN ST","BALTIMORE","BGESLPIN","BGE-StLight Pole Installation","2015-07-10T06:06:24.000","2015-07-31T06:06:24.000","WASHINGTON HILL","15-00541352","MD","O-WIP","2015-07-22T19:05:29.000","2015-07-11T10:32:20.000","21231","UPDATED",-76.591548,39.29195
"Cityworks SR Comments","2200  CLOVILLE AVE","BALTIMORE","BGESLPIN","BGE-StLight Pole Installation","2015-04-17T01:04:24.000","2015-05-08T01:04:24.000","HARFORD-ECHODALE/PERRING PARKWAY","15-00300482","MD","CLOSED","2015-04-20T11:51:51.000","2015-04-17T01:15:39.000","21214","UPDATED",-76.5710019,39.361571
"Dispatch Work Crew","3200  REISTERSTOWN RD","BALTIMORE","BGESLPIN","BGE-StLight Pole Installation","2015-06-28T23:29:50.000","2015-07-19T23:29:50.000","LIBERTY SQUARE","15-00505769","MD","O-WIP","2015-07-02T17:38:30.000","2015-07-01T11:32:00.000","21215",NA,-76.656957,39.323804
"Cityworks SR Comments","LOCH RAVEN RD & BARTLETT AVE","BALTIMORE","BGESLPIN","BGE-StLight Pole Installation","2015-03-03T16:45:30.000","2015-03-24T16:45:30.000","EAST BALTIMORE MIDWAY","15-00163503","MD","CLOSED","2015-03-13T19:07:11.000","2015-03-03T18:12:16.000","21218","UPDATED",-76.603584,39.3215719
"Dispatch Work Crew","1800  CLIFTON AVE","BALTIMORE","BGESLPIN","BGE-StLight Pole Installation","2015-03-27T16:20:47.000","2015-04-17T16:20:47.000","MONDAWMIN","15-00243970","MD","CLOSED","2015-03-30T18:44:33.000","2015-03-30T18:44:00.000","21217",NA,-76.647071,39.312184
NA,"2511  HERMOSA AVE","BALTIMORE CITY","BGESLPIN","BGE-StLight Pole Installation","2014-09-11T14:57:05.000","2014-10-02T14:57:05.000","LAURAVILLE","14-00686369","MD","CLOSED","2014-09-22T18:51:01.000",NA,"21214",NA,-76.572029,39.348856
"Dispatch Work Crew","1700  EDMONDSON AVE","BALTIMORE","BGESLPIN","BGE-StLight Pole Installation","2015-03-09T23:44:27.000","2015-03-30T23:44:27.000","HARLEM PARK","15-00184503","MD","CLOSED","2015-04-27T11:35:13.000","2015-03-11T11:32:00.000","21223",NA,-76.6447359,39.2954917
"Dispatch Work Crew","2600  DULANY ST","BALTIMORE","BGESLPIN","BGE-StLight Pole Installation","2015-01-05T17:21:56.000","2015-01-26T17:21:56.000","MILLHILL","15-00007933","MD","O-WIP","2015-01-16T11:41:26.000","2015-01-07T13:13:00.000","21223",NA,-76.6566926,39.2805874
"Cityworks SR Comments","HOMESTEAD ST & KIRK AVE","BALTIMORE","BGESLPIN","BGE-StLight Pole Installation","2015-03-04T16:52:49.000","2015-03-25T16:52:49.000","COLDSTREAM HOMESTEAD MONTEBELLO","15-00167153","MD","CLOSED","2015-04-01T11:57:30.000","2015-03-04T18:16:54.000","21218","UPDATED",-103.1544432,44.0768907
"Dispatch Work Crew","S MONROE ST & ANNAPOLIS RD","BALTIMORE","BGESLPIN","BGE-StLight Pole Installation","2014-11-28T23:53:40.000","2014-12-19T23:53:40.000","WESTPORT","14-00895945","MD","CLOSED","2014-12-02T18:59:42.000","2014-12-02T18:59:00.000","21230",NA,-84.2806365,30.4199201
NA,"N CHESTER ST &E OLIVER ST","BALTIMORE","BGESLPIN","BGE-StLight Pole Installation","2015-04-22T17:05:45.000","2015-05-13T17:05:45.000","BROADWAY EAST","15-00315758","MD","CLOSED","2015-06-10T16:01:40.000",NA,"21213",NA,-81.1878355,35.2797776
"Cityworks SR Comments","5515  BOWLEYS LN","BALTIMORE","BGESLPIN","BGE-StLight Pole Installation","2015-06-24T18:07:00.000","2015-07-15T18:07:00.000","FRANKFORD","15-00494327","MD","CLOSED","2015-06-26T17:41:59.000","2015-06-26T10:51:56.000","21206","UPDATED",-76.5517163,39.3191082
"Dispatch Work Crew","2000  ELGIN AVE","BALTIMORE","BGESLPIN","BGE-StLight Pole Installation","2014-11-18T21:48:14.000","2014-12-09T21:48:14.000","MONDAWMIN","14-00870523","MD","CLOSED","2014-11-20T18:55:22.000","2014-11-20T18:55:00.000","21217",NA,-76.65016,39.314545
