"address","city","code","codedescription","createddate","duedate","neighborhood","servicerequestnum","state","status","statusdate","zip","activity","outcome","updateddate","lon","lat"
"700 N COLLINGTON AVE","BALTIMORE","SIGNMISS","TRT-Sign Missing","2015-05-06T19:46:41.000","2015-06-25T19:46:41.000","MIDDLE EAST","15-00355556","MD","CLOSED","2015-05-06T19:48:49.000","21205",NA,NA,NA,-76.586926,39.299044
"1237  DIVISION ST","BALTIMORE","SIGNMISS","TRT-Sign Missing","2015-05-05T17:14:17.000","2015-06-24T17:14:17.000","UPTON","15-00350557","MD","DUPCLOSD","2015-05-07T17:34:23.000","21217",NA,NA,NA,-76.6293271,39.3011368
"4104  PARKSIDE DR","BALTIMORE","SIGNMISS","TRT-Sign Missing","2015-04-30T15:22:17.000","2015-06-19T15:22:17.000","BELAIR-PARKSIDE","15-00338229","MD","DUPCLOSD","2015-05-11T12:18:21.000","21206",NA,NA,NA,-76.566935,39.328912
"841  WASHINGTON BLVD","BALTIMORE","SIGNMISS","TRT-Sign Missing","2015-04-29T13:44:20.000","2015-06-18T13:44:20.000","WASHINGTON VILLAGE","15-00334236","MD","DUPCLOSD","2015-05-06T11:29:58.000","21230",NA,NA,NA,-76.630165,39.282745
"856  WASHINGTON BLVD","BALTIMORE","SIGNMISS","TRT-Sign Missing","2015-04-29T13:40:14.000","2015-06-18T13:40:14.000","WASHINGTON VILLAGE","15-00334221","MD","DUPCLOSD","2015-05-06T11:29:58.000","21230",NA,NA,NA,-76.6301728,39.2830702
"856  WASHINGTON BLVD","BALTIMORE","SIGNMISS","TRT-Sign Missing","2015-04-29T13:30:15.000","2015-06-18T13:30:15.000","WASHINGTON VILLAGE","15-00334184","MD","CLOSED","2015-05-06T11:29:58.000","21230",NA,NA,NA,-76.6301728,39.2830702
"500  MILLINGTON AVE","BALTIMORE","SIGNMISS","TRT-Sign Missing","2015-04-28T19:06:43.000","2015-06-17T19:06:43.000","MILLHILL","15-00332251","MD","CLOSED","2015-05-08T17:19:31.000","21223","Generate Work Order","Sign not needed / not warranted","2015-05-08T17:19:00.000",-76.6564062,39.2798984
"WYNDHURST AVE & LAWNDALE AVE","BALTIMORE","SIGNMISS","TRT-Sign Missing","2015-04-25T20:28:49.000","2015-06-14T20:28:49.000","LOYOLA/NOTRE DAME","15-00324924","MD","CLOSED","2015-05-05T15:42:11.000","21210",NA,NA,NA,-76.6290374,39.3534211
"WYNDHURST AVE & WILMSLOW RD","BALTIMORE","SIGNMISS","TRT-Sign Missing","2015-04-25T20:26:50.000","2015-06-14T20:26:50.000","WYNDHURST","15-00324921","MD","DUPCLOSD","2015-05-05T14:06:28.000","21210",NA,NA,NA,-76.6290374,39.3534211
"ROLAND AVE & UPLAND RD","BALTIMORE","SIGNMISS","TRT-Sign Missing","2015-04-25T20:23:43.000","2015-06-14T20:23:43.000","ROLAND PARK","15-00324916","MD","CLOSED","2015-05-05T15:40:08.000","21210",NA,NA,NA,-77.555151,34.4376501
"ROLAND AVE & OAKDALE RD","BALTIMORE","SIGNMISS","TRT-Sign Missing","2015-04-25T20:17:43.000","2015-06-14T20:17:43.000","ROLAND PARK","15-00324906","MD","DUPCLOSD","2015-05-05T14:04:10.000","21210",NA,NA,NA,-77.555151,34.4376501
"700 N COLLINGTON AVE","BALTIMORE","SIGNMISS","TRT-Sign Missing","2015-04-24T12:27:38.000","2015-06-13T12:27:38.000","MIDDLE EAST","15-00321455","MD","CLOSED","2015-05-06T19:48:01.000","21205","Dispatch Investigator","Sign already exists","2015-05-06T19:46:00.000",-76.586926,39.299044
"E OLIVER ST &N CHESTER ST","BALTIMORE","SIGNMISS","TRT-Sign Missing","2015-04-23T17:12:28.000","2015-06-12T17:12:28.000","BROADWAY EAST","15-00319885","MD","CLOSED","2015-04-23T17:15:16.000","21213",NA,NA,NA,-76.5926644,39.30756
"510  WASHBURN AVE","BALTIMORE","SIGNMISS","TRT-Sign Missing","2015-04-21T16:19:08.000","2015-06-10T16:19:08.000","BROOKLYN","15-00311553","MD","CLOSED","2015-04-22T16:36:36.000","21225",NA,NA,NA,-76.6038556,39.2345794
"4200  NICHOLAS AVE","BALTIMORE","SIGNMISS","TRT-Sign Missing","2015-04-20T19:49:45.000","2015-06-09T19:49:45.000","BELAIR-EDISON","15-00309029","MD","CLOSED","2015-05-06T13:47:53.000","21206","Dispatch Investigator","Sign already exists","2015-05-06T13:47:00.000",-76.5640818,39.3292254
"100 W 19_1 ST","BALTIMORE","SIGNMISS","TRT-Sign Missing","2015-04-20T18:00:04.000","2015-06-09T18:00:04.000","CHARLES NORTH","15-00308642","MD","CLOSED","2015-05-05T14:05:14.000","21218","Dispatch Investigator","Insufficent location information","2015-05-05T14:04:00.000",-76.5650627,39.2906614
"3200  ELM AVE","BALTIMORE","SIGNMISS","TRT-Sign Missing","2015-04-20T16:47:27.000","2015-06-09T16:47:27.000","HAMPDEN","15-00308323","MD","CLOSED","2015-04-27T11:24:23.000","21211","Generate Work Order","Sign not needed / not warranted","2015-04-27T11:23:00.000",-76.631495,39.3264349
"N PULASKI ST & WINDSOR AVE","BALTIMORE","SIGNMISS","TRT-Sign Missing","2015-04-20T16:15:58.000","2015-06-09T16:15:58.000","MONDAWMIN","15-00308196","MD","CLOSED","2015-04-29T20:13:36.000","21217","Dispatch Investigator","Sign already exists","2015-04-29T20:13:00.000",-87.4437384,41.6425383
"3500  EDNOR RD","BALTIMORE","SIGNMISS","TRT-Sign Missing","2015-04-18T11:12:47.000","2015-06-07T11:12:47.000","EDNOR GARDENS-LAKESIDE","15-00304581","MD","CLOSED","2015-05-06T13:51:45.000","21218",NA,NA,NA,-76.5992886,39.3309556
"4104  PARKSIDE DR","BALTIMORE","SIGNMISS","TRT-Sign Missing","2015-04-15T18:39:50.000","2015-06-04T18:39:50.000","BELAIR-PARKSIDE","15-00296095","MD","CLOSED","2015-05-11T12:18:21.000","21206","Generate Work Order","Sign erected","2015-05-11T12:18:00.000",-76.566935,39.328912
"2300 N MONROE ST","BALTIMORE","SIGNMISS","TRT-Sign Missing","2015-04-10T20:47:27.000","2015-05-30T20:47:27.000","MONDAWMIN","15-00283103","MD","CLOSED","2015-04-29T20:12:20.000","21217","Dispatch Investigator","Sign already exists","2015-04-29T20:12:00.000",-76.64965,39.3142489
"900  ASHLAND CT","BALTIMORE","SIGNMISS","TRT-Sign Missing","2015-04-09T18:18:44.000","2015-05-29T18:18:44.000","OLDTOWN","15-00278629","MD","CLOSED","2015-04-30T13:56:31.000","21202",NA,NA,NA,-76.6048929,39.3002834
"1617  NORTHBOURNE RD","BALTIMORE","SIGNMISS","TRT-Sign Missing","2015-04-09T16:44:57.000","2015-05-29T16:44:57.000","PERRING LOCH","15-00278262","MD","CLOSED","2015-04-22T18:04:00.000","21239","Dispatch Investigator","Sign already exists","2015-04-22T18:03:00.000",-76.5856845,39.3544324
"1505  RACE ST","BALTIMORE","SIGNMISS","TRT-Sign Missing","2015-04-08T18:18:06.000","2015-05-28T18:18:06.000","SBIC","15-00275421","MD","DUPCLOSD","2015-04-15T13:32:17.000","21230",NA,NA,NA,-76.6165585,39.2720973
"1505  RACE ST","BALTIMORE","SIGNMISS","TRT-Sign Missing","2015-04-08T18:16:51.000","2015-05-28T18:16:51.000","SBIC","15-00275416","MD","CLOSED","2015-04-15T13:32:17.000","21230",NA,NA,NA,-76.6165585,39.2720973
"2800  CARVER RD","BALTIMORE","SIGNMISS","TRT-Sign Missing","2015-04-08T13:45:49.000","2015-05-28T13:45:49.000","CHERRY HILL","15-00274154","MD","CLOSED","2015-04-15T13:20:25.000","21225",NA,NA,NA,-76.626075,39.2473103
"6801  HARFORD RD","BALTIMORE","SIGNMISS","TRT-Sign Missing","2015-04-07T21:20:23.000","2015-05-27T21:20:23.000","WOODRING","15-00272603","MD","CLOSED","2015-04-22T18:02:53.000","21234","Dispatch Investigator","Sign already exists","2015-04-22T18:02:00.000",-76.5509393,39.3640143
"6500  VINCENNES AVE","BALTIMORE","SIGNMISS","TRT-Sign Missing","2015-04-07T15:23:47.000","2015-05-27T15:23:47.000","REISTERSTOWN STATION","15-00270762","MD","CLOSED","2015-05-05T19:16:37.000","21215","Dispatch Investigator","Insufficent location information","2015-05-05T19:16:00.000",-76.7076961,39.3525946
"ROLAND AVE & SAINT GEORGES RD","BALTIMORE","SIGNMISS","TRT-Sign Missing","2015-04-07T00:29:38.000","2015-05-27T00:29:38.000","NORTH ROLAND PARK/POPLAR HILL","15-00269287","MD","CLOSED","2015-04-14T12:44:58.000","21210",NA,NA,NA,-77.555151,34.4376501
"800  POPLAR GROVE ST","BALTIMORE","SIGNMISS","TRT-Sign Missing","2015-04-06T20:42:42.000","2015-05-26T20:42:42.000","FRANKLINTOWN ROAD","15-00268931","MD","CLOSED","2015-04-28T18:53:03.000","21216","Dispatch Investigator","Sign already exists","2015-04-28T18:52:00.000",-76.665865,39.2976034
"1700  LINDEN AVE","BALTIMORE","SIGNMISS","TRT-Sign Missing","2015-04-06T18:44:29.000","2015-05-26T18:44:29.000","BOLTON HILL","15-00268494","MD","CLOSED","2015-05-08T09:51:45.000","21217","Generate Work Order","Sign erected","2015-05-08T09:51:00.000",-76.629239,39.307678
"W CHASE ST & MARYLAND AVE","BALTIMORE","SIGNMISS","TRT-Sign Missing","2015-04-06T16:13:55.000","2015-05-26T16:13:55.000","MID-TOWN BELVEDERE","15-00267710","MD","CLOSED","2015-04-28T18:57:39.000","21201",NA,NA,NA,-87.231655,30.4127601
"818 W PRATT ST","BALTIMORE","SIGNMISS","TRT-Sign Missing","2015-04-06T16:09:12.000","2015-05-26T16:09:12.000","HOLLINS MARKET","15-00267683","MD","CLOSED","2015-04-28T18:55:39.000","21201",NA,NA,NA,-76.6299139,39.2861065
"500  PENNSYLVANIA AVE","BALTIMORE","SIGNMISS","TRT-Sign Missing","2015-04-06T10:27:00.000","2015-05-26T10:27:00.000","SETON HILL","15-00265844","MD","O-PENDNG","2015-05-05T15:13:10.000","21201",NA,NA,NA,-76.6239702,39.2947754
"ROLAND AVE & OAKDALE RD","BALTIMORE","SIGNMISS","TRT-Sign Missing","2015-04-06T01:21:15.000","2015-05-26T01:21:15.000","ROLAND PARK","15-00265770","MD","CLOSED","2015-05-05T14:04:10.000","21210",NA,NA,NA,-77.555151,34.4376501
"WYNDHURST AVE & WILMSLOW RD","BALTIMORE","SIGNMISS","TRT-Sign Missing","2015-04-06T01:16:59.000","2015-05-26T01:16:59.000","WYNDHURST","15-00265769","MD","CLOSED","2015-05-08T10:43:00.000","21210","Generate Work Order","Sign erected","2015-05-08T10:42:00.000",-76.6290374,39.3534211
"BOSTON AVE & BETHLEHEM AVE","BALTIMORE","SIGNMISS","TRT-Sign Missing","2015-04-05T10:51:12.000","2015-05-25T10:51:12.000","GRACELAND PARK","15-00265029","MD","CLOSED","2015-05-06T11:21:06.000","21222","Generate Work Order","Insufficent location information","2015-05-06T11:20:00.000",-73.1684833,41.1934305
"308  WYNDHURST AVE","BALTIMORE","SIGNMISS","TRT-Sign Missing","2015-04-05T00:52:47.000","2015-05-25T00:52:47.000","WYNDHURST","15-00264957","MD","CLOSED","2015-05-05T14:06:28.000","21210",NA,NA,NA,-76.629554,39.353713
"WESTFIELD AVE & HARFORD RD","BALTIMORE","SIGNMISS","TRT-Sign Missing","2015-04-03T17:43:06.000","2015-05-23T17:43:06.000","WESTFIELD","15-00263107","MD","CLOSED","2015-05-11T10:02:12.000","21214","Generate Work Order","Sign erected","2015-05-11T10:01:00.000",-74.2316131,40.6661109
"E 32ND ST & HOMESTEAD ST","BALTIMORE","SIGNMISS","TRT-Sign Missing","2015-04-02T16:05:08.000","2015-05-22T16:05:08.000","BETTER WAVERLY","15-00259853","MD","CLOSED","2015-04-16T12:11:25.000","21218",NA,NA,NA,-94.4143949,37.0543275
"WOODRING AVE & HARFORD RD","BALTIMORE","SIGNMISS","TRT-Sign Missing","2015-04-02T02:04:19.000","2015-05-22T02:04:19.000","WOODRING","15-00258167","MD","DUPCLOSD","2015-04-09T13:03:44.000","21234",NA,NA,NA,-76.5436626,39.3621319
"3500  DORCHESTER RD","BALTIMORE","SIGNMISS","TRT-Sign Missing","2015-04-01T23:07:15.000","2015-05-21T23:07:15.000","ASHBURTON","15-00258018","MD","CLOSED","2015-04-29T20:14:51.000","21215",NA,NA,NA,-76.6737923,39.3268728
"KANE ST & DUNDALK AVE","BALTIMORE","SIGNMISS","TRT-Sign Missing","2015-04-01T20:59:06.000","2015-05-21T20:59:06.000","GRACELAND PARK","15-00257815","MD","CLOSED","2015-04-15T17:47:46.000","21224",NA,NA,NA,-82.5729026,36.6387382
"5100  LINDEN HEIGHTS AVE","BALTIMORE","SIGNMISS","TRT-Sign Missing","2015-04-01T19:19:02.000","2015-05-21T19:19:02.000","LANGSTON HUGHES","15-00257385","MD","CLOSED","2015-04-20T16:20:29.000","21215","Generate Work Order","Sign erected","2015-04-20T16:19:00.000",-76.6822263,39.3429161
"CHESTERFIELD AVE & BREHMS LN","BALTIMORE","SIGNMISS","TRT-Sign Missing","2015-04-01T18:55:41.000","2015-05-21T18:55:41.000","BELAIR-EDISON","15-00257256","MD","CLOSED","2015-04-16T12:10:10.000","21213",NA,NA,NA,-80.756624,34.7163768
"308 N ELLWOOD AVE","BALTIMORE","SIGNMISS","TRT-Sign Missing","2015-04-01T18:01:10.000","2015-05-21T18:01:10.000","ELLWOOD PARK/MONUMENT","15-00256999","MD","CLOSED","2015-04-20T18:47:55.000","21224",NA,NA,NA,-76.5737824,39.2956782
"5326  WINNER AVE","BALTIMORE","SIGNMISS","TRT-Sign Missing","2015-04-01T16:55:09.000","2015-05-21T16:55:09.000","PIMLICO GOOD NEIGHBORS","15-00256712","MD","CLOSED","2015-05-11T09:42:36.000","21215","Generate Work Order","Sign already exists","2015-05-11T09:42:00.000",-76.677556,39.352265
"700  ALLENDALE ST","BALTIMORE","SIGNMISS","TRT-Sign Missing","2015-04-01T14:57:26.000","2015-05-21T14:57:26.000","EDMONDSON VILLAGE","15-00256237","MD","CLOSED","2015-04-22T13:51:00.000","21229","Generate Work Order","Sign erected","2015-04-22T13:50:00.000",-76.678712,39.295307
"900 W 32ND ST","BALTIMORE","SIGNMISS","TRT-Sign Missing","2015-03-31T16:26:46.000","2015-05-20T16:26:46.000","HAMPDEN","15-00253287","MD","O-PENDNG","2015-05-05T13:39:02.000","21211",NA,NA,NA,-76.6312381,39.326263
"1301 W 42ND ST","BALTIMORE","SIGNMISS","TRT-Sign Missing","2015-03-31T16:12:34.000","2015-05-20T16:12:34.000","MEDFIELD","15-00253207","MD","CLOSED","2015-05-08T10:31:21.000","21211","Generate Work Order","Sign erected","2015-05-08T10:30:00.000",-76.639303,39.338451
"1200  UNION AVE","BALTIMORE","SIGNMISS","TRT-Sign Missing","2015-03-31T15:21:30.000","2015-05-20T15:21:30.000","HAMPDEN","15-00252874","MD","CLOSED","2015-05-11T11:27:58.000","21211","Generate Work Order","Sign erected","2015-05-11T11:26:00.000",-76.635629,39.3332148
"S POTOMAC ST & EASTERN AVE","BALTIMORE","SIGNMISS","TRT-Sign Missing","2015-03-30T19:17:11.000","2015-05-19T19:17:11.000","CANTON","15-00250521","MD","CLOSED","2015-04-15T17:46:29.000","21224",NA,NA,NA,-77.7272171,39.6258776
"3900  COLBORNE RD","BALTIMORE","SIGNMISS","TRT-Sign Missing","2015-03-30T17:33:35.000","2015-05-19T17:33:35.000","EDMONDSON VILLAGE","15-00250070","MD","CLOSED","2015-04-20T11:54:28.000","21229","Dispatch Investigator","Insufficent location information","2015-03-30T17:34:00.000",-76.681945,39.298073
"3800  FLOWERTON RD","BALTIMORE","SIGNMISS","TRT-Sign Missing","2015-03-30T17:28:30.000","2015-05-19T17:28:30.000","EDMONDSON VILLAGE","15-00250043","MD","CLOSED","2015-04-20T11:50:43.000","21229","Generate Work Order","Sign erected","2015-04-20T11:50:00.000",-76.680538,39.2988578
"800  LYNDHURST ST","BALTIMORE","SIGNMISS","TRT-Sign Missing","2015-03-30T16:51:53.000","2015-05-19T16:51:53.000","EDMONDSON VILLAGE","15-00249797","MD","CLOSED","2015-04-20T11:53:17.000","21229","Generate Work Order","Sign erected","2015-04-20T11:53:00.000",-76.681618,39.296498
"800  LYNDHURST ST","BALTIMORE","SIGNMISS","TRT-Sign Missing","2015-03-30T16:37:09.000","2015-05-19T16:37:09.000","EDMONDSON VILLAGE","15-00249685","MD","CLOSED","2015-04-22T10:32:29.000","21229","Generate Work Order","Sign erected","2015-04-22T10:32:00.000",-76.681618,39.296498
"1000  OLIVE ST","BALTIMORE","SIGNMISS","TRT-Sign Missing","2015-03-30T16:23:46.000","2015-05-19T16:23:46.000","FEDERAL HILL","15-00249611","MD","CLOSED","2015-05-11T10:05:15.000","21230","Generate Work Order","Sign erected","2015-05-11T10:04:00.000",-76.6150443,39.2778442
"5500 N CHARLES ST","BALTIMORE","SIGNMISS","TRT-Sign Missing","2015-03-27T16:10:29.000","2015-05-16T16:10:29.000","THE ORCHARDS","15-00243928","MD","CLOSED","2015-04-10T19:05:23.000","21210",NA,NA,NA,-76.625354,39.362311
"W COLD SPRING LN & CALLAWAY AVE","BALTIMORE","SIGNMISS","TRT-Sign Missing","2015-03-27T14:36:18.000","2015-05-16T14:36:18.000","DOLFIELD","15-00243512","MD","CLOSED","2015-04-15T13:52:36.000","21215",NA,NA,NA,-76.6556844,39.3417832
"MONDAWMIN AVE &N ELLAMONT ST","BALTIMORE","SIGNMISS","TRT-Sign Missing","2015-03-27T14:28:26.000","2015-05-16T14:28:26.000","HANLON-LONGWOOD","15-00243472","MD","CLOSED","2015-04-15T13:51:16.000","21216","Dispatch Investigator","Insufficent location information","2015-04-15T13:50:00.000",-76.676909,39.3151318
"2712  HUNTINGDON AVE","BALTIMORE","SIGNMISS","TRT-Sign Missing","2015-03-26T23:35:16.000","2015-05-15T23:35:16.000","REMINGTON","15-00241858","MD","CLOSED","2015-04-02T12:18:03.000","21211",NA,NA,NA,-76.622514,39.319941
"S BEECHFIELD AVE & WILLISTON ST","BALTIMORE","SIGNMISS","TRT-Sign Missing","2015-03-26T14:21:18.000","2015-05-15T14:21:18.000","BEECHFIELD","15-00239665","MD","CLOSED","2015-03-30T12:39:33.000","21229","Dispatch Investigator","Sign already exists","2015-03-30T12:39:00.000",-76.6932766,39.27342
"WOODRIDGE RD &N ATHOL AVE","BALTIMORE","SIGNMISS","TRT-Sign Missing","2015-03-25T21:39:26.000","2015-05-14T21:39:26.000","ROGNEL HEIGHTS","15-00237862","MD","CLOSED","2015-03-27T11:39:26.000","21229","Dispatch Investigator","Insufficent location information","2015-03-27T11:38:00.000",-71.3483325,42.3366012
"5807  LEITH WALK","BALTIMORE","SIGNMISS","TRT-Sign Missing","2015-03-24T16:20:08.000","2015-05-13T16:20:08.000","RAMBLEWOOD","15-00232783","MD","CLOSED","2015-04-06T18:51:13.000","21239",NA,NA,NA,-76.590568,39.362653
"1361  CROFTON RD","BALTIMORE","SIGNMISS","TRT-Sign Missing","2015-03-25T17:03:25.000","2015-05-14T17:03:25.000","NEW NORTHWOOD","15-00236507","MD","CLOSED","2015-03-25T17:10:09.000","21239",NA,NA,NA,-76.592837,39.346866
"423  SOUTHWAY","BALTIMORE","SIGNMISS","TRT-Sign Missing","2015-03-25T13:55:24.000","2015-05-14T13:55:24.000","OAKENSHAWE","15-00235674","MD","CLOSED","2015-03-31T17:57:37.000","21218",NA,NA,NA,-76.6096258,39.3306745
"1100  INTERSTATE AVE","BALTIMORE","SIGNMISS","TRT-Sign Missing","2015-03-24T23:28:25.000","2015-05-13T23:28:25.000","CANTON INDUSTRIAL AREA","15-00234368","MD","CLOSED","2015-04-14T14:31:26.000","21224","Dispatch Investigator","Sign already exists","2015-04-14T14:31:00.000",-76.5523089,39.279691
"2200  HUNTER ST","BALTIMORE","SIGNMISS","TRT-Sign Missing","2015-03-24T17:13:54.000","2015-05-13T17:13:54.000","BARCLAY","15-00233007","MD","CLOSED","2015-04-06T18:48:56.000","21218",NA,NA,NA,-76.6133137,39.3143928
"GREENSPRING AVE & LIBERTY HEIGHTS AVE","BALTIMORE","SIGNMISS","TRT-Sign Missing","2015-03-23T20:17:48.000","2015-05-12T20:17:48.000","DRUID HILL PARK","15-00230152","MD","CLOSED","2015-05-08T17:14:51.000","21215","Generate Work Order","Sign erected","2015-05-08T21:14:00.000",-76.6882923,39.3966579
"4300  ANNTANA AVE","BALTIMORE","SIGNMISS","TRT-Sign Missing","2015-03-23T15:55:55.000","2015-05-12T15:55:55.000","FRANKFORD","15-00228814","MD","CLOSED","2015-03-30T16:17:28.000","21206","Dispatch Investigator",NA,"2015-03-30T16:17:00.000",-76.547462,39.339215
"4222  FERNHILL AVE","BALTIMORE","SIGNMISS","TRT-Sign Missing","2015-03-23T14:58:30.000","2015-05-12T14:58:30.000","WEST ARLINGTON","15-00228580","MD","CLOSED","2015-04-01T19:00:07.000","21215",NA,NA,NA,-76.691498,39.337942
"LABYRINTH RD & PARK HEIGHTS AVE","BALTIMORE","SIGNMISS","TRT-Sign Missing","2015-03-22T21:20:30.000","2015-05-11T21:20:30.000","CROSS COUNTRY","15-00227150","MD","O-PENDNG","2015-05-05T14:54:59.000","21215",NA,NA,NA,-76.7010862,39.3640209
"1320  RUSSELL ST","BALTIMORE","SIGNMISS","TRT-Sign Missing","2015-03-22T13:17:32.000","2015-05-11T13:17:32.000","CARROLL - CAMDEN INDUSTRIAL AREA","15-00226579","MD","DUPCLOSD","2015-03-22T13:17:32.000","21230",NA,NA,NA,-76.6255324,39.2764098
"5900  BERTRAM AVE","BALTIMORE","SIGNMISS","TRT-Sign Missing","2015-03-20T15:51:26.000","2015-05-09T15:51:26.000","GLENHAM-BELFORD","15-00222763","MD","CLOSED","2015-05-11T12:16:33.000","21214","Generate Work Order","Sign erected","2015-05-11T12:16:00.000",-76.5518146,39.3520263
"MORELLO RD & GIBBONS AVE","BALTIMORE","SIGNMISS","TRT-Sign Missing","2015-03-20T15:48:05.000","2015-05-09T15:48:05.000","HARFORD-ECHODALE/PERRING PARKWAY","15-00222754","MD","DUPCLOSD","2015-05-08T10:26:21.000","21214",NA,NA,NA,-76.5689869,39.351189
"600  WYNDHURST AVE","BALTIMORE","SIGNMISS","TRT-Sign Missing","2015-03-19T15:05:58.000","2015-05-08T15:05:58.000","WYNDHURST","15-00219366","MD","DUPCLOSD","2015-04-01T09:54:49.000","21210",NA,NA,NA,-76.6300803,39.3536135
"702  DEBELIUS AVE","BALTIMORE","SIGNMISS","TRT-Sign Missing","2015-03-19T14:38:43.000","2015-05-08T14:38:43.000","PULASKI INDUSTRIAL AREA","15-00219162","MD","CLOSED","2015-03-29T15:08:14.000","21205",NA,NA,NA,-76.544189,39.301398
"2826  HARFORD RD","BALTIMORE","SIGNMISS","TRT-Sign Missing","2015-03-19T10:44:56.000","2015-05-08T10:44:56.000","COLDSTREAM HOMESTEAD MONTEBELLO","15-00217681","MD","CLOSED","2015-03-30T16:15:35.000","21218",NA,NA,NA,-76.5903079,39.321967
"CATHEDRAL ST &W MULBERRY ST","BALTIMORE","SIGNMISS","TRT-Sign Missing","2015-03-19T10:20:23.000","2015-05-08T10:20:23.000","DOWNTOWN","15-00217643","MD","O-PENDNG","2015-05-07T17:27:54.000","21201",NA,NA,NA,-83.2250776,42.3613753
"2811  ALLENDALE RD","BALTIMORE","SIGNMISS","TRT-Sign Missing","2015-03-17T18:37:29.000","2015-05-06T18:37:29.000","GARWYN OAKS","15-00212993","MD","OPEN","2015-03-23T14:57:42.000","21216",NA,NA,NA,-76.680398,39.319991
"5814  BELAIR RD","BALTIMORE","SIGNMISS","TRT-Sign Missing","2015-03-17T17:57:19.000","2015-05-06T17:57:19.000","GLENHAM-BELFORD","15-00212726","MD","CLOSED","2015-05-11T11:39:50.000","21206","Generate Work Order","Sign erected","2015-05-11T11:39:00.000",-76.543403,39.344145
"REISTERSTOWN RD & MORTIMER AVE","BALTIMORE","SIGNMISS","TRT-Sign Missing","2015-03-17T16:11:54.000","2015-05-06T16:11:54.000","REISTERSTOWN STATION","15-00212155","MD","CLOSED","2015-03-31T14:25:08.000","21215",NA,NA,NA,-76.7338154,39.3843237
"NOME AVE & MORTIMER AVE","BALTIMORE","SIGNMISS","TRT-Sign Missing","2015-03-17T16:08:01.000","2015-05-06T16:08:01.000","REISTERSTOWN STATION","15-00212135","MD","CLOSED","2015-03-31T14:23:03.000","21215",NA,NA,NA,-81.5705789,41.0833573
"1300  DIVISION ST","BALTIMORE","SIGNMISS","TRT-Sign Missing","2015-03-17T14:59:16.000","2015-05-06T14:59:16.000","UPTON","15-00211725","MD","CLOSED","2015-05-07T17:34:23.000","21217",NA,NA,NA,-76.629821,39.301044
"2700  GREENMOUNT AVE","BALTIMORE","SIGNMISS","TRT-Sign Missing","2015-03-17T14:19:08.000","2015-05-06T14:19:08.000","HARWOOD","15-00211321","MD","CLOSED","2015-03-30T16:14:49.000","21218",NA,NA,NA,-76.609743,39.321014
"2600  WILKENS AVE","BALTIMORE","SIGNMISS","TRT-Sign Missing","2015-03-17T14:15:42.000","2015-05-06T14:15:42.000","MILLHILL","15-00211299","MD","CLOSED","2015-03-25T12:05:54.000","21223","Generate Work Order","Sign erected","2015-03-25T12:05:00.000",-76.656858,39.279198
"2600  WILKENS AVE","BALTIMORE","SIGNMISS","TRT-Sign Missing","2015-03-17T14:06:37.000","2015-05-06T14:06:37.000","MILLHILL","15-00211191","MD","CLOSED","2015-03-26T17:33:58.000","21223","Generate Work Order","Sign erected","2015-03-26T17:33:00.000",-76.656858,39.279198
"2500  MARBOURNE AVE","BALTIMORE","SIGNMISS","TRT-Sign Missing","2015-03-17T14:00:12.000","2015-05-06T14:00:12.000","LAKELAND","15-00211132","MD","CLOSED","2015-04-16T09:45:29.000","21230","Generate Work Order","Sign erected","2015-04-16T09:45:00.000",-76.650062,39.253855
"TAMARIND RD &W COLD SPRING LN","BALTIMORE","SIGNMISS","TRT-Sign Missing","2015-03-17T13:02:37.000","2015-05-06T13:02:37.000","COLDSPRING","15-00210626","MD","CLOSED","2015-03-30T13:21:27.000","21209",NA,NA,NA,-76.6535836,39.3458525
"3838  ROLAND AVE","BALTIMORE","SIGNMISS","TRT-Sign Missing","2015-03-17T12:51:29.000","2015-05-06T12:51:29.000","HAMPDEN","15-00210543","MD","O-PENDNG","2015-05-05T13:59:53.000","21211",NA,NA,NA,-76.6336758,39.3351327
"8 W RANDALL ST","BALTIMORE","SIGNMISS","TRT-Sign Missing","2015-03-16T17:10:26.000","2015-05-05T17:10:26.000","SBIC","15-00207394","MD","CLOSED","2015-03-23T12:12:04.000","21230",NA,NA,NA,-76.6145584,39.2717245
"400 W COLD SPRING LN","BALTIMORE","SIGNMISS","TRT-Sign Missing","2015-03-16T14:40:16.000","2015-05-05T14:40:16.000","EVERGREEN","15-00206571","MD","CLOSED","2015-03-29T15:06:27.000","21210","Dispatch Investigator","Sign already exists","2015-03-29T15:06:00.000",-76.6301649,39.3448726
"669 E CLEMENT ST","BALTIMORE","SIGNMISS","TRT-Sign Missing","2015-03-14T23:11:32.000","2015-05-03T23:11:32.000","RIVERSIDE","15-00203575","MD","CLOSED","2015-05-05T18:50:55.000","21230","Dispatch Investigator","Sign not needed / not warranted","2015-05-05T18:50:00.000",-76.6037452,39.2739502
"MORELLO RD & GIBBONS AVE","BALTIMORE","SIGNMISS","TRT-Sign Missing","2015-03-13T23:37:22.000","2015-05-02T23:37:22.000","HARFORD-ECHODALE/PERRING PARKWAY","15-00202291","MD","CLOSED","2015-05-05T18:29:48.000","21214",NA,NA,NA,-76.5689869,39.351189
"MORELLO RD & GIBBONS AVE","BALTIMORE","SIGNMISS","TRT-Sign Missing","2015-03-13T23:35:04.000","2015-05-02T23:35:04.000","HARFORD-ECHODALE/PERRING PARKWAY","15-00202288","MD","CLOSED","2015-05-05T18:31:08.000","21214",NA,NA,NA,-76.5689869,39.351189
"2700  ERDMAN AVE","BALTIMORE","SIGNMISS","TRT-Sign Missing","2015-03-13T17:53:20.000","2015-05-02T17:53:20.000","BELAIR-EDISON","15-00201042","MD","CLOSED","2015-03-30T16:18:58.000","21213",NA,NA,NA,-76.577187,39.3238447
"CLUB RD & BLACKBERRY LN","BALTIMORE","SIGNMISS","TRT-Sign Missing","2015-03-13T13:45:15.000","2015-05-02T13:45:15.000","ROLAND PARK","15-00199544","MD","CLOSED","2015-03-17T16:50:42.000","21210","Dispatch Investigator","Sign erected","2015-03-17T16:50:00.000",-90.1392911,35.1507722
"5807  ROLAND AVE","BALTIMORE","SIGNMISS","TRT-Sign Missing","2015-03-13T12:17:54.000","2015-05-02T12:17:54.000","NORTH ROLAND PARK/POPLAR HILL","15-00198609","MD","DUPCLOSD","2015-05-05T12:24:56.000","21210",NA,NA,NA,-76.633661,39.3689279
"1012 W NORTHERN PKWY","BALTIMORE","SIGNMISS","TRT-Sign Missing","2015-03-13T12:01:49.000","2015-05-02T12:01:49.000","NORTH ROLAND PARK/POPLAR HILL","15-00198508","MD","CLOSED","2015-03-30T19:24:08.000","21210",NA,NA,NA,-76.642096,39.363224
"6810  BANK ST","BALTIMORE","SIGNMISS","TRT-Sign Missing","2015-03-13T11:26:10.000","2015-05-02T11:26:10.000","EASTWOOD","15-00198332","MD","CLOSED","2015-03-30T17:41:15.000","21224","Dispatch Investigator","Insufficent location information","2015-03-30T17:40:00.000",-76.5310727,39.2892514
"6300  HARFORD RD","BALTIMORE","SIGNMISS","TRT-Sign Missing","2015-03-12T14:23:29.000","2015-05-01T14:23:29.000","WESTFIELD","15-00194863","MD","CLOSED","2015-03-30T16:19:46.000","21214","Dispatch Investigator","Sign already exists","2015-03-30T16:19:00.000",-76.554975,39.360295
"UFFINGTON RD & CHILHAM RD","BALTIMORE","SIGNMISS","TRT-Sign Missing","2015-03-11T20:08:29.000","2015-04-30T20:08:29.000","MOUNT WASHINGTON","15-00192448","MD","CLOSED","2015-04-06T18:52:11.000","21209","Dispatch Investigator","Insufficent location information","2015-04-06T18:52:00.000",-0.4665448,52.6550775
"936  WASHINGTON BLVD","BALTIMORE","SIGNMISS","TRT-Sign Missing","2015-03-11T17:03:46.000","2015-04-30T17:03:46.000","WASHINGTON VILLAGE","15-00191505","MD","CLOSED","2015-04-09T12:22:22.000","21230",NA,NA,NA,-76.6322883,39.2830645
"500  NORMANDY AVE","BALTIMORE","SIGNMISS","TRT-Sign Missing","2015-03-11T16:40:22.000","2015-04-30T16:40:22.000","ALLENDALE","15-00191391","MD","CLOSED","2015-04-22T10:46:49.000","21229","Generate Work Order","Sign erected","2015-04-22T10:44:00.000",-76.681831,39.292601
"2701  EASTERN AVE","BALTIMORE","SIGNMISS","TRT-Sign Missing","2015-03-11T14:39:30.000","2015-04-30T14:39:30.000","CANTON","15-00190620","MD","CLOSED","2015-03-30T17:42:43.000","21224",NA,NA,NA,-76.578464,39.285982
"2524 E BALTIMORE ST","BALTIMORE","SIGNMISS","TRT-Sign Missing","2015-03-11T12:22:02.000","2015-04-30T12:22:02.000","BALTIMORE-LINWOOD","15-00189669","MD","DUPCLOSD","2015-03-11T12:22:02.000","21224",NA,NA,NA,-76.581037,39.292231
"2500 E FAYETTE ST","BALTIMORE","SIGNMISS","TRT-Sign Missing","2015-03-11T10:33:42.000","2015-04-30T10:33:42.000","MCELDERRY PARK","15-00189080","MD","O-PENDNG","2015-04-29T15:50:20.000","21224",NA,NA,NA,-76.581884,39.294612
"10 W NORTHERN PKWY","BALTIMORE","SIGNMISS","TRT-Sign Missing","2015-03-10T18:57:20.000","2015-04-29T18:57:20.000","THE ORCHARDS","15-00187859","MD","CLOSED","2015-03-27T14:32:24.000","21210",NA,NA,NA,-76.626749,39.362277
"LYNDALE AVE & ERDMAN AVE","BALTIMORE","SIGNMISS","TRT-Sign Missing","2015-03-10T16:05:25.000","2015-04-29T16:05:25.000","BELAIR-EDISON","15-00186727","MD","CLOSED","2015-05-05T18:20:41.000","21213","Dispatch Investigator","Sign already exists","2015-05-05T18:20:00.000",-76.5684169,39.3165904
"500 E PRATT ST","BALTIMORE","SIGNMISS","TRT-Sign Missing","2015-03-10T12:26:34.000","2015-04-29T12:26:34.000","INNER HARBOR","15-00185449","MD","CLOSED","2015-03-17T14:34:31.000","21202",NA,NA,NA,-76.608216,39.287129
"2710  JEFFERSON ST","BALTIMORE","SIGNMISS","TRT-Sign Missing","2015-03-10T11:55:22.000","2015-04-29T11:55:22.000","MCELDERRY PARK","15-00185275","MD","CLOSED","2015-03-25T17:36:55.000","21205","Generate Work Order","Sign erected","2015-03-25T17:36:00.000",-76.578542,39.29705
"2810  JEFFERSON ST","BALTIMORE","SIGNMISS","TRT-Sign Missing","2015-03-10T11:53:25.000","2015-04-29T11:53:25.000","MCELDERRY PARK","15-00185262","MD","CLOSED","2015-03-25T17:38:10.000","21205","Generate Work Order","Sign erected","2015-03-25T17:38:00.000",-76.5771047,39.2970976
"2800  MCELDERRY ST","BALTIMORE","SIGNMISS","TRT-Sign Missing","2015-03-10T11:49:52.000","2015-04-29T11:49:52.000","MCELDERRY PARK","15-00185246","MD","CLOSED","2015-04-24T09:38:01.000","21205","Generate Work Order","Sign erected","2015-04-24T09:37:00.000",-76.5779533,39.2979209
"600 E FORT AVE","BALTIMORE","SIGNMISS","TRT-Sign Missing","2015-03-09T19:43:15.000","2015-04-28T19:43:15.000","RIVERSIDE","15-00183793","MD","DUPCLOSD","2015-03-09T19:43:15.000","21230",NA,NA,NA,-76.6051198,39.273141
"240 E MONTGOMERY ST","BALTIMORE","SIGNMISS","TRT-Sign Missing","2015-03-09T19:12:00.000","2015-04-28T19:12:00.000","FEDERAL HILL","15-00183674","MD","CLOSED","2015-03-23T18:31:00.000","21230",NA,NA,NA,-76.609958,39.280276
"600  WYNDHURST AVE","BALTIMORE","SIGNMISS","TRT-Sign Missing","2015-03-09T11:32:57.000","2015-04-28T11:32:57.000","WYNDHURST","15-00180871","MD","DUPCLOSD","2015-04-01T09:54:49.000","21210",NA,NA,NA,-76.6300803,39.3536135
"10 S SCHROEDER ST","BALTIMORE","SIGNMISS","TRT-Sign Missing","2015-03-09T01:13:24.000","2015-04-28T01:13:24.000","HOLLINS MARKET","15-00180168","MD","DUPCLOSD","2015-03-23T18:32:30.000","21223",NA,NA,NA,-76.6339639,39.2881627
"10 S SCHROEDER ST","BALTIMORE","SIGNMISS","TRT-Sign Missing","2015-03-09T01:12:03.000","2015-04-28T01:12:03.000","HOLLINS MARKET","15-00180167","MD","CLOSED","2015-03-23T18:32:30.000","21223",NA,NA,NA,-76.6339639,39.2881627
"1026  FAWN ST","BALTIMORE","SIGNMISS","TRT-Sign Missing","2015-03-08T23:45:15.000","2015-04-27T23:45:15.000","LITTLE ITALY","15-00180038","MD","CLOSED","2015-04-24T09:41:41.000","21202","Generate Work Order","Sign erected","2015-04-24T09:41:00.000",-76.59975,39.287207
"336 S PATTERSON PARK AVE","BALTIMORE","SIGNMISS","TRT-Sign Missing","2015-03-07T14:33:22.000","2015-04-26T14:33:22.000","UPPER FELLS POINT","15-00177229","MD","DUPCLOSD","2015-04-20T17:44:40.000","21231",NA,NA,NA,-76.5845862,39.2870817
"600 S EXETER ST","BALTIMORE","SIGNMISS","TRT-Sign Missing","2015-03-06T18:51:26.000","2015-04-25T18:51:26.000","INNER HARBOR","15-00175192","MD","CLOSED","2015-03-20T18:38:09.000","21202",NA,NA,NA,-76.6002859,39.2842567
"5100  CORDELIA AVE","BALTIMORE","SIGNMISS","TRT-Sign Missing","2015-03-06T15:14:08.000","2015-04-25T15:14:08.000","LANGSTON HUGHES","15-00174237","MD","CLOSED","2015-03-17T14:39:18.000","21215","Dispatch Investigator","Sign already exists","2015-03-17T14:38:00.000",-76.680342,39.344436
"3809  8TH ST","BALTIMORE","SIGNMISS","TRT-Sign Missing","2015-03-05T21:32:34.000","2015-04-24T21:32:34.000","BROOKLYN","15-00171174","MD","CLOSED","2015-03-12T20:10:22.000","21225",NA,NA,NA,-76.6003021,39.2330324
"1035  ROCKHILL AVE","BALTIMORE","SIGNMISS","TRT-Sign Missing","2015-03-05T09:39:05.000","2015-04-24T09:39:05.000","VIOLETVILLE","15-00168875","MD","CLOSED","2015-04-09T12:21:04.000","21229","Dispatch Investigator","Sign already exists","2015-04-09T12:20:00.000",-76.6770192,39.269665
"4100  FREDERICK AVE","BALTIMORE","SIGNMISS","TRT-Sign Missing","2015-03-04T19:52:37.000","2015-04-23T19:52:37.000","IRVINGTON","15-00168006","MD","CLOSED","2015-05-05T18:32:55.000","21229","Dispatch Investigator","Sign not needed / not warranted","2015-05-05T18:32:00.000",-76.683443,39.281962
"764 W BALTIMORE ST","BALTIMORE","SIGNMISS","TRT-Sign Missing","2015-03-02T14:13:20.000","2015-04-21T14:13:20.000","POPPLETON","15-00159480","MD","CLOSED","2015-04-02T11:07:48.000","21201","Generate Work Order","Sign erected","2015-04-02T11:07:00.000",-76.6288128,39.289129
"400 S PATTERSON PARK AVE","BALTIMORE","SIGNMISS","TRT-Sign Missing","2015-02-28T15:53:40.000","2015-04-19T15:53:40.000","UPPER FELLS POINT","15-00155360","MD","CLOSED","2015-04-20T17:44:40.000","21231",NA,NA,NA,-76.5846509,39.286797
"PATTERSON AVE & WABASH AVE","BALTIMORE","SIGNMISS","TRT-Sign Missing","2015-02-25T15:35:54.000","2015-04-16T15:35:54.000","SETON BUSINESS PARK","15-00146329","MD","CLOSED","2015-04-02T11:05:35.000","21215","Generate Work Order","Sign erected","2015-04-02T11:05:00.000",-77.5773837,37.5952305
"1 S GREENE ST","BALTIMORE","SIGNMISS","TRT-Sign Missing","2015-02-25T06:23:31.000","2015-04-16T06:23:31.000","UNIVERSITY OF MARYLAND","15-00144484","MD","CLOSED","2015-04-20T17:46:05.000","21201",NA,NA,NA,-76.6236718,39.2886987
"E BALTIMORE ST &N LUZERNE AVE","BALTIMORE","SIGNMISS","TRT-Sign Missing","2015-02-24T20:50:13.000","2015-04-15T20:50:13.000","PATTERSON PARK","15-00143784","MD","CLOSED","2015-03-04T18:49:46.000","21224",NA,NA,NA,-88.1392461,41.3101454
"1 W 24TH ST","BALTIMORE","SIGNMISS","TRT-Sign Missing","2015-02-24T20:18:08.000","2015-04-15T20:18:08.000","CHARLES VILLAGE","15-00143622","MD","CLOSED","2015-03-04T13:25:14.000","21218","Dispatch Investigator","Sign not needed / not warranted","2015-03-04T13:24:00.000",-76.61727,39.316172
"2804  CHESWOLDE RD","BALTIMORE","SIGNMISS","TRT-Sign Missing","2015-02-24T16:45:08.000","2015-04-15T16:45:08.000","CHESWOLDE","15-00142440","MD","CLOSED","2015-03-02T12:48:35.000","21209","Dispatch Investigator","Sign not needed / not warranted","2015-03-02T12:48:00.000",-76.683722,39.369331
"W 40TH ST & BEECH AVE","BALTIMORE","SIGNMISS","TRT-Sign Missing","2015-02-24T13:21:37.000","2015-04-15T13:21:37.000","ROLAND PARK","15-00141369","MD","CLOSED","2015-04-14T17:38:33.000","21210","Dispatch Investigator","Sign already exists","2015-04-14T17:29:00.000",-85.3210154,35.0080789
"1828 E BALTIMORE ST","BALTIMORE","SIGNMISS","TRT-Sign Missing","2015-02-24T11:38:57.000","2015-04-15T11:38:57.000","WASHINGTON HILL","15-00140686","MD","CLOSED","2015-04-07T12:07:17.000","21231","Generate Work Order","Sign erected","2015-04-07T12:07:00.000",-76.5907397,39.2916664
"1800  KEY HWY","BALTIMORE","SIGNMISS","TRT-Sign Missing","2015-02-24T01:29:58.000","2015-04-15T01:29:58.000","LOCUST POINT INDUSTRIAL AREA","15-00140078","MD","CLOSED","2015-04-20T17:46:54.000","21230",NA,NA,NA,-76.6005537,39.2676267
"3001  GUILFORD AVE","BALTIMORE","SIGNMISS","TRT-Sign Missing","2015-02-23T11:46:41.000","2015-04-14T11:46:41.000","ABELL","15-00135442","MD","DUPOPEN","2015-02-23T11:46:41.000","21218",NA,NA,NA,-76.61301,39.324757
"425  SAINT PAUL PL","BALTIMORE","SIGNMISS","TRT-Sign Missing","2015-02-23T11:19:35.000","2015-04-14T11:19:35.000","MOUNT VERNON","15-00135289","MD","CLOSED","2015-03-04T13:26:43.000","21202","Dispatch Investigator","Sign already exists","2015-03-04T13:26:00.000",-76.6135243,39.2950431
"205 E 30TH ST","BALTIMORE","SIGNMISS","TRT-Sign Missing","2015-02-20T22:09:33.000","2015-04-11T22:09:33.000","CHARLES VILLAGE","15-00128706","MD","CLOSED","2015-04-14T12:01:58.000","21218",NA,NA,NA,-76.6142693,39.3244227
"2401  COLLEGE AVE","BALTIMORE","SIGNMISS","TRT-Sign Missing","2015-02-20T13:51:06.000","2015-04-11T13:51:06.000","MORGAN PARK","15-00126611","MD","CLOSED","2015-03-09T13:44:32.000","21214",NA,NA,NA,-76.579798,39.347143
"5211  STAAB TER","BALTIMORE","SIGNMISS","TRT-Sign Missing","2015-02-20T15:41:27.000","2015-04-11T15:41:27.000","FRANKFORD","15-00127176","MD","CLOSED","2015-05-06T10:04:55.000","21206","Generate Work Order","Sign not needed / not warranted","2015-05-06T10:04:00.000",-76.547458,39.3326909
"4500  WALTHER AVE","BALTIMORE","SIGNMISS","TRT-Sign Missing","2015-02-20T14:00:42.000","2015-04-11T14:00:42.000","BEVERLY HILLS","15-00126677","MD","CLOSED","2015-03-09T13:43:19.000","21214",NA,NA,NA,-76.56851,39.3388985
"GIRARD AVE & KEYSTONE AVE","BALTIMORE","SIGNMISS","TRT-Sign Missing","2015-02-18T15:17:02.000","2015-04-09T15:17:02.000","WOODBERRY","15-00118938","MD","CLOSED","2015-04-27T10:43:00.000","21211","Generate Work Order","Sign erected","2015-04-27T10:42:00.000",-81.7574338,32.9759876
"3427  NORTHWAY DR","BALTIMORE","SIGNMISS","TRT-Sign Missing","2015-02-18T14:43:12.000","2015-04-09T14:43:12.000","WOODRING","15-00118723","MD","CLOSED","2015-05-05T10:52:08.000","21234","Generate Work Order","Sign erected","2015-05-05T10:51:00.000",-76.541258,39.36015
"OLD FREDERICK RD &S LOUDON AVE","BALTIMORE","SIGNMISS","TRT-Sign Missing","2015-02-18T13:32:42.000","2015-04-09T13:32:42.000","ALLENDALE","15-00118040","MD","CLOSED","2015-02-26T11:36:37.000","21229","Generate Work Order","Sign erected","2015-02-26T11:36:00.000",-76.9653979,39.3245989
"5200  LINDEN HEIGHTS AVE","BALTIMORE","SIGNMISS","TRT-Sign Missing","2015-02-18T12:27:52.000","2015-04-09T12:27:52.000","WOODMERE","15-00117461","MD","CLOSED","2015-05-08T17:10:30.000","21215","Generate Work Order","Sign erected","2015-05-08T17:10:00.000",-76.6833628,39.3439696
"2521  WASHINGTON BLVD","BALTIMORE","SIGNMISS","TRT-Sign Missing","2015-02-17T17:56:52.000","2015-04-08T17:56:52.000","MORRELL PARK","15-00115463","MD","CLOSED","2015-03-11T11:03:43.000","21230","Generate Work Order","Sign erected","2015-03-11T11:03:00.000",-76.65249,39.266306
"2600 E BALTIMORE ST","BALTIMORE","SIGNMISS","TRT-Sign Missing","2015-02-16T15:33:44.000","2015-04-07T15:33:44.000","BALTIMORE-LINWOOD","15-00110869","MD","DUPCLOSD","2015-02-16T15:33:44.000","21224",NA,NA,NA,-76.580286,39.292279
"JANICE AVE & MARBOURNE AVE","BALTIMORE","SIGNMISS","TRT-Sign Missing","2015-02-15T22:05:19.000","2015-04-06T22:05:19.000","LAKELAND","15-00109021","MD","CLOSED","2015-04-22T09:45:03.000","21230","Generate Work Order","Sign erected","2015-04-22T09:44:00.000",-118.209849,35.565619
"714 S ELLWOOD AVE","BALTIMORE","SIGNMISS","TRT-Sign Missing","2015-02-15T12:53:45.000","2015-04-06T12:53:45.000","CANTON","15-00107884","MD","CLOSED","2015-04-01T09:50:42.000","21224","Generate Work Order","Sign erected","2015-04-01T09:50:00.000",-76.5730118,39.2839627
"2909  GOODWOOD RD","BALTIMORE","SIGNMISS","TRT-Sign Missing","2015-02-14T16:18:09.000","2015-04-05T16:18:09.000","LAURAVILLE","15-00106799","MD","CLOSED","2015-04-27T11:04:59.000","21214","Generate Work Order","Sign erected","2015-04-27T11:04:00.000",-76.5640702,39.3498646
"600 S SMALLWOOD ST","BALTIMORE","SIGNMISS","TRT-Sign Missing","2015-02-13T20:21:07.000","2015-04-04T20:21:07.000","CARROLLTON RIDGE","15-00106025","MD","O-PENDNG","2015-03-04T13:29:27.000","21223",NA,NA,NA,-76.650529,39.280289
"800  VINE ST","BALTIMORE","SIGNMISS","TRT-Sign Missing","2015-02-13T16:45:43.000","2015-04-04T16:45:43.000","POPPLETON","15-00105320","MD","CLOSED","2015-02-17T12:30:25.000","21201",NA,NA,NA,-76.6298098,39.2906051
"2800  KEYWORTH AVE","BALTIMORE","SIGNMISS","TRT-Sign Missing","2015-02-13T16:14:56.000","2015-04-04T16:14:56.000","TOWANDA-GRANTLEY","15-00105222","MD","CLOSED","2015-04-06T10:15:53.000","21215","Generate Work Order","Sign erected","2015-04-06T10:15:00.000",-76.6631249,39.3326643
"800 N CHARLES ST","BALTIMORE","SIGNMISS","TRT-Sign Missing","2015-02-13T15:38:36.000","2015-04-04T15:38:36.000","MOUNT VERNON","15-00105112","MD","CLOSED","2015-04-20T17:02:24.000","21201",NA,NA,NA,-76.6160141,39.2987476
"1400  STONEWOOD RD","BALTIMORE","SIGNMISS","TRT-Sign Missing","2015-02-13T03:20:13.000","2015-04-04T03:20:13.000","NEW NORTHWOOD","15-00103472","MD","CLOSED","2015-05-05T10:58:59.000","21239","Generate Work Order","Sign erected","2015-05-05T10:53:00.000",-76.5937958,39.3498058
"N VINCENT ST & LAURENS RIGGS","BALTIMORE","SIGNMISS","TRT-Sign Missing","2015-02-11T19:05:08.000","2015-04-02T19:05:08.000","SANDTOWN-WINCHESTER","15-00099832","MD","CLOSED","2015-04-06T10:14:36.000","21217",NA,NA,NA,-97.2579475,37.7034715
"BELLE VISTA AVE & FRANKFORD AVE","BALTIMORE","SIGNMISS","TRT-Sign Missing","2015-02-11T14:54:51.000","2015-04-02T14:54:51.000","WALTHERSON","15-00098854","MD","CLOSED","2015-04-06T18:50:15.000","21206",NA,NA,NA,-76.5457961,39.3492317
"3700  CHESTLE PL","BALTIMORE","SIGNMISS","TRT-Sign Missing","2015-02-10T17:55:09.000","2015-04-01T17:55:09.000","HIGHLANDTOWN","15-00095981","MD","CLOSED","2015-02-18T10:50:12.000","21224","Dispatch Investigator","Sign erected","2015-02-18T10:50:00.000",-76.5664066,39.288267
"3206  FERNDALE AVE","BALTIMORE","SIGNMISS","TRT-Sign Missing","2015-02-09T23:21:25.000","2015-03-31T23:21:25.000","HOWARD PARK","15-00093661","MD","CLOSED","2015-02-19T15:19:59.000","21207","Dispatch Investigator","Sign erected","2015-02-19T15:19:00.000",-76.703798,39.329206
"BRENDAN AVE & MANNASOTA AVE","BALTIMORE","SIGNMISS","TRT-Sign Missing","2015-02-09T19:11:45.000","2015-03-31T19:11:45.000","BELAIR-EDISON","15-00093207","MD","CLOSED","2015-03-09T13:46:37.000","21213",NA,NA,NA,-76.5687463,39.3215215
"FAIRLAWN AVE & FORDS LN","BALTIMORE","SIGNMISS","TRT-Sign Missing","2015-02-09T15:44:56.000","2015-03-31T15:44:56.000","REISTERSTOWN STATION","15-00092315","MD","DUPCLOSD","2015-04-20T09:50:19.000","21215",NA,NA,NA,-81.755039,38.376551
"1700  DESOTO RD","BALTIMORE","SIGNMISS","TRT-Sign Missing","2015-02-09T14:01:52.000","2015-03-31T14:01:52.000","MORRELL PARK","15-00091888","MD","CLOSED","2015-03-30T15:16:46.000","21230","Dispatch Investigator","Sign not needed / not warranted","2015-03-30T15:16:00.000",-76.656698,39.265776
"2100 N CALVERT ST","BALTIMORE","SIGNMISS","TRT-Sign Missing","2015-02-09T13:59:42.000","2015-03-31T13:59:42.000","BARCLAY","15-00091881","MD","CLOSED","2015-03-09T13:45:45.000","21218",NA,NA,NA,-76.614198,39.313446
"3900  SOUTHWESTERN BLVD","BALTIMORE","SIGNMISS","TRT-Sign Missing","2015-02-09T13:43:15.000","2015-03-31T13:43:15.000","OAKLEE","15-00091808","MD","CLOSED","2015-03-31T12:04:37.000","21229",NA,NA,NA,-76.6847706,39.266327
"2521  WASHINGTON BLVD","BALTIMORE","SIGNMISS","TRT-Sign Missing","2015-02-09T13:39:16.000","2015-03-31T13:39:16.000","MORRELL PARK","15-00091784","MD","DUPCLOSD","2015-02-09T18:55:45.000","21230",NA,NA,NA,-76.65249,39.266306
"1200  ORLEANS ST","BALTIMORE","SIGNMISS","TRT-Sign Missing","2015-02-09T13:12:41.000","2015-03-31T13:12:41.000","OLDTOWN","15-00091626","MD","CLOSED","2015-04-24T09:39:54.000","21202","Generate Work Order","Sign erected","2015-04-24T09:39:00.000",-76.6015287,39.2950056
"N ELLWOOD AVE &E FAYETTE ST","BALTIMORE","SIGNMISS","TRT-Sign Missing","2015-02-09T13:08:56.000","2015-03-31T13:08:56.000","BALTIMORE-LINWOOD","15-00091617","MD","CLOSED","2015-03-26T09:45:59.000","21224","Generate Work Order","Sign erected","2015-03-26T09:45:00.000",-76.5739416,39.3098092
"110  LONGWOOD RD","BALTIMORE","SIGNMISS","TRT-Sign Missing","2015-02-08T20:07:09.000","2015-03-30T20:07:09.000","ROLAND PARK","15-00090377","MD","CLOSED","2015-03-27T14:03:15.000","21210",NA,NA,NA,-76.637915,39.356346
"1701  PENNSYLVANIA AVE","BALTIMORE","SIGNMISS","TRT-Sign Missing","2015-02-08T16:38:29.000","2015-03-30T16:38:29.000","UPTON","15-00090152","MD","CLOSED","2015-05-08T11:59:17.000","21217","Generate Work Order","Insufficent location information","2015-05-08T11:54:00.000",-76.634566,39.303764
"300 E 33RD ST","BALTIMORE","SIGNMISS","TRT-Sign Missing","2015-02-07T02:38:22.000","2015-03-29T02:38:22.000","OAKENSHAWE","15-00088638","MD","CLOSED","2015-02-24T14:18:57.000","21218","Dispatch Investigator","Sign already exists","2015-02-24T14:18:00.000",-76.613394,39.328553
"S HANOVER ST & CHESAPEAKE AVE","BALTIMORE","SIGNMISS","TRT-Sign Missing","2015-02-06T14:07:53.000","2015-03-28T14:07:53.000","BROOKLYN","15-00087111","MD","CLOSED","2015-03-26T09:44:34.000","21225","Generate Work Order","Sign erected","2015-03-26T09:44:00.000",-73.1663411,44.4727628
"800 W LOMBARD ST","BALTIMORE","SIGNMISS","TRT-Sign Missing","2015-02-06T13:28:49.000","2015-03-28T13:28:49.000","HOLLINS MARKET","15-00086878","MD","CLOSED","2015-03-19T10:57:26.000","21201","Generate Work Order","Sign erected","2015-03-19T10:56:00.000",-76.6286998,39.2870145
"2700  GIBBONS AVE","BALTIMORE","SIGNMISS","TRT-Sign Missing","2015-02-05T21:23:23.000","2015-03-27T21:23:23.000","HARFORD-ECHODALE/PERRING PARKWAY","15-00085538","MD","CLOSED","2015-05-08T10:26:21.000","21214","Generate Work Order","Sign erected","2015-05-08T10:26:00.000",-76.565292,39.353897
"5130 N FRANKLINTOWN RD","BALTIMORE","SIGNMISS","TRT-Sign Missing","2015-02-05T19:03:35.000","2015-03-27T19:03:35.000","FRANKLINTOWN","15-00085198","MD","CLOSED","2015-02-19T13:15:32.000","21207","Dispatch Investigator","Sign already exists","2015-02-19T13:15:00.000",-76.710511,39.303652
"2400 W MOSHER ST","BALTIMORE","SIGNMISS","TRT-Sign Missing","2015-02-05T18:47:16.000","2015-03-27T18:47:16.000","BRIDGEVIEW/GREENLAWN","15-00085118","MD","CLOSED","2015-02-12T15:38:57.000",NA,"Generate Work Order","Sign erected","2015-02-12T15:38:00.000",-76.656,39.2997778
"100 S CONKLING ST","BALTIMORE","SIGNMISS","TRT-Sign Missing","2015-02-05T15:56:41.000","2015-03-27T15:56:41.000","BALTIMORE HIGHLANDS","15-00084334","MD","CLOSED","2015-02-23T17:27:06.000","21224",NA,NA,NA,-76.5676372,39.2907739
"100 N HIGHLAND AVE","BALTIMORE","SIGNMISS","TRT-Sign Missing","2015-02-05T15:56:23.000","2015-03-27T15:56:23.000","BALTIMORE-LINWOOD","15-00084333","MD","CLOSED","2015-03-12T12:40:30.000","21224","Generate Work Order","Sign erected","2015-03-12T12:19:00.000",-76.5697579,39.293711
"2100  BOYD ST","BALTIMORE","SIGNMISS","TRT-Sign Missing","2015-02-05T14:11:36.000","2015-03-27T14:11:36.000","BOOTH-BOYD","15-00083843","MD","CLOSED","2015-03-30T10:44:30.000","21223","Generate Work Order","Sign erected","2015-03-30T10:44:00.000",-76.6503242,39.2865945
"2140  BOYD ST","BALTIMORE","SIGNMISS","TRT-Sign Missing","2015-02-05T14:10:57.000","2015-03-27T14:10:57.000","BOOTH-BOYD","15-00083839","MD","CLOSED","2015-04-06T17:06:56.000","21223","Generate Work Order","Sign erected","2015-04-06T17:06:00.000",-76.6512254,39.2865788
"3100  HARFORD RD","BALTIMORE","SIGNMISS","TRT-Sign Missing","2015-02-05T13:55:56.000","2015-03-27T13:55:56.000","COLDSTREAM HOMESTEAD MONTEBELLO","15-00083767","MD","CLOSED","2015-03-26T13:13:13.000","21218","Generate Work Order","Sign erected","2015-03-26T13:13:00.000",-76.585718,39.326208
"1300 W 41ST ST","BALTIMORE","SIGNMISS","TRT-Sign Missing","2015-02-04T18:28:21.000","2015-03-26T18:28:21.000","MEDFIELD","15-00081857","MD","CLOSED","2015-04-01T11:26:49.000","21211","Generate Work Order","Sign erected","2015-04-01T11:26:00.000",-76.638499,39.33744
"1200 W PRATT ST","BALTIMORE","SIGNMISS","TRT-Sign Missing","2015-02-04T17:59:26.000","2015-03-26T17:59:26.000","HOLLINS MARKET","15-00081728","MD","CLOSED","2015-02-12T13:31:05.000","21223","Generate Work Order","Sign erected","2015-02-12T13:30:00.000",-76.6365675,39.2856666
"900 N WARWICK AVE","BALTIMORE","SIGNMISS","TRT-Sign Missing","2015-02-04T17:50:07.000","2015-03-26T17:50:07.000","BRIDGEVIEW/GREENLAWN","15-00081703","MD","CLOSED","2015-04-16T09:42:49.000","21216","Generate Work Order","Sign erected","2015-04-16T09:42:00.000",-76.656809,39.298876
"1200  EUTAW PL","BALTIMORE","SIGNMISS","TRT-Sign Missing","2015-02-04T17:38:33.000","2015-03-26T17:38:33.000","MADISON PARK","15-00081657","MD","CLOSED","2015-02-13T16:19:33.000","21217","Generate Work Order","Sign erected","2015-02-13T16:19:00.000",-76.625598,39.302949
"200 N PACA ST","BALTIMORE","SIGNMISS","TRT-Sign Missing","2015-02-04T17:29:55.000","2015-03-26T17:29:55.000","DOWNTOWN","15-00081620","MD","CLOSED","2015-03-11T10:12:06.000","21201","Generate Work Order","Sign erected","2015-03-11T10:11:00.000",-76.6226802,39.2918833
"200 S MONROE ST","BALTIMORE","SIGNMISS","TRT-Sign Missing","2015-02-04T17:25:25.000","2015-03-26T17:25:25.000","CARROLLTON RIDGE","15-00081596","MD","CLOSED","2015-03-31T10:09:28.000","21223","Generate Work Order","Sign erected","2015-03-31T10:00:00.000",-76.6467642,39.285119
"3000  HOLLINS FERRY RD","BALTIMORE","SIGNMISS","TRT-Sign Missing","2015-02-04T16:54:24.000","2015-03-26T16:54:24.000","LAKELAND","15-00081472","MD","CLOSED","2015-02-12T10:30:24.000","21230","Generate Work Order","Sign erected","2015-02-12T10:30:00.000",-76.646932,39.252768
"3539  FALLS RD","BALTIMORE","SIGNMISS","TRT-Sign Missing","2015-02-04T16:41:16.000","2015-03-26T16:41:16.000","HAMPDEN","15-00081430","MD","CLOSED","2015-02-25T14:01:11.000","21211",NA,NA,NA,-76.634586,39.330793
"2100  SAINT PAUL ST","BALTIMORE","SIGNMISS","TRT-Sign Missing","2015-02-04T15:27:01.000","2015-03-26T15:27:01.000","CHARLES NORTH","15-00081126","MD","CLOSED","2015-04-13T10:01:07.000","21218","Generate Work Order","Sign erected","2015-04-13T10:00:00.000",-76.615433,39.3134
"5400  TODD AVE","BALTIMORE","SIGNMISS","TRT-Sign Missing","2015-02-04T14:04:54.000","2015-03-26T14:04:54.000","FRANKFORD","15-00080696","MD","CLOSED","2015-04-14T09:40:04.000","21206","Generate Work Order","Sign erected","2015-04-14T09:39:00.000",-76.539562,39.330749
"HOLLINS FERRY RD & MARBOURNE AVE","BALTIMORE","SIGNMISS","TRT-Sign Missing","2015-02-03T16:27:49.000","2015-03-25T16:27:49.000","LAKELAND","15-00078090","MD","CLOSED","2015-04-01T09:52:27.000","21230","Generate Work Order","Sign erected","2015-04-01T09:52:00.000",-76.663282,39.2375785
"HILLSDALE RD & WABASH AVE","BALTIMORE","SIGNMISS","TRT-Sign Missing","2015-02-03T15:24:05.000","2015-03-25T15:24:05.000","WOODMERE","15-00077562","MD","CLOSED","2015-03-24T10:07:27.000","21215","Generate Work Order","Sign erected","2015-03-24T10:07:00.000",-73.4498074,42.1658737
"NERAK RD & BONNIE RD","BALTIMORE","SIGNMISS","TRT-Sign Missing","2015-02-03T14:33:29.000","2015-03-25T14:33:29.000","CROSS COUNTRY","15-00077144","MD","CLOSED","2015-02-19T15:05:34.000","21208","Dispatch Investigator","Sign not needed / not warranted","2015-02-19T15:05:00.000",-76.7023662,39.3708573
"300  COLVIN ST","BALTIMORE","SIGNMISS","TRT-Sign Missing","2015-02-03T13:45:53.000","2015-03-25T13:45:53.000","JONESTOWN","15-00076894","MD","CLOSED","2015-02-11T10:36:38.000","21202","Generate Work Order","Sign erected","2015-02-11T10:36:00.000",-76.6049412,39.2942273
"FAIRHAVEN AVE &E PATAPSCO AVE","BALTIMORE","SIGNMISS","TRT-Sign Missing","2015-02-03T10:53:39.000","2015-03-25T10:53:39.000","FAIRFIELD AREA","15-00076094","MD","CLOSED","2015-04-01T12:15:32.000","21225","Generate Work Order","Sign erected","2015-04-01T12:15:00.000",-117.8283967,33.7732493
"308  WYNDHURST AVE","BALTIMORE","SIGNMISS","TRT-Sign Missing","2015-02-03T02:16:28.000","2015-03-25T02:16:28.000","WYNDHURST","15-00075943","MD","CLOSED","2015-02-19T15:21:55.000","21210",NA,NA,NA,-76.629554,39.353713
"600 S CAROLINE ST","BALTIMORE","SIGNMISS","TRT-Sign Missing","2015-02-02T17:58:21.000","2015-03-24T17:58:21.000","FELLS POINT","15-00074984","MD","CLOSED","2015-03-12T12:56:18.000","21231","Generate Work Order","Sign erected","2015-03-12T12:56:00.000",-76.597101,39.283873
"2426 S CLINTON ST","BALTIMORE","SIGNMISS","TRT-Sign Missing","2015-02-02T17:37:24.000","2015-03-24T17:37:24.000","CANTON INDUSTRIAL AREA","15-00074887","MD","CLOSED","2015-02-17T16:52:42.000","21224",NA,NA,NA,-76.5685006,39.2633704
"715  SCOTT ST","BALTIMORE","SIGNMISS","TRT-Sign Missing","2015-02-02T17:33:16.000","2015-03-24T17:33:16.000","WASHINGTON VILLAGE","15-00074866","MD","DUPCLOSD","2015-02-04T13:15:20.000","21230",NA,NA,NA,-76.628494,39.281297
"4448  PARK HEIGHTS AVE","BALTIMORE","SIGNMISS","TRT-Sign Missing","2015-02-02T16:30:59.000","2015-03-24T16:30:59.000","CENTRAL PARK HEIGHTS","15-00074632","MD","CLOSED","2015-02-13T12:36:14.000","21215","Dispatch Investigator","Insufficent location information","2015-02-13T12:35:00.000",-76.6675987,39.3408802
"2200  BERLIN ST","BALTIMORE","SIGNMISS","TRT-Sign Missing","2015-02-02T15:08:41.000","2015-03-24T15:08:41.000","SAINT PAUL","15-00074297","MD","CLOSED","2015-03-20T16:17:06.000","21230","Dispatch Investigator",NA,"2015-02-09T13:50:00.000",-76.6446851,39.269177
"2540 E BALTIMORE ST","BALTIMORE","SIGNMISS","TRT-Sign Missing","2015-02-01T17:45:39.000","2015-03-23T17:45:39.000","BALTIMORE-LINWOOD","15-00072548","MD","DUPCLOSD","2015-02-05T18:07:55.000","21224",NA,NA,NA,-76.580585,39.292246
"2600 E BALTIMORE ST","BALTIMORE","SIGNMISS","TRT-Sign Missing","2015-02-01T17:45:33.000","2015-03-23T17:45:33.000","BALTIMORE-LINWOOD","15-00072547","MD","CLOSED","2015-03-04T18:48:14.000","21224",NA,NA,NA,-76.580286,39.292279
"FORDS LN & FAIRLAWN AVE","BALTIMORE","SIGNMISS","TRT-Sign Missing","2015-01-30T17:09:23.000","2015-03-21T17:09:23.000","REISTERSTOWN STATION","15-00070149","MD","CLOSED","2015-04-20T09:50:19.000","21215","Generate Work Order","Sign erected","2015-04-20T09:49:00.000",-76.7002923,39.3564998
"5807  ROLAND AVE","BALTIMORE","SIGNMISS","TRT-Sign Missing","2015-01-30T15:44:31.000","2015-03-21T15:44:31.000","NORTH ROLAND PARK/POPLAR HILL","15-00069752","MD","CLOSED","2015-05-05T12:24:56.000","21210","Generate Work Order","Sign erected","2015-05-05T12:22:00.000",-76.633661,39.3689279
"2615  EDISON HWY","BALTIMORE","SIGNMISS","TRT-Sign Missing","2015-01-30T14:35:14.000","2015-03-21T14:35:14.000","BELAIR-EDISON","15-00069470","MD","CLOSED","2015-02-17T17:26:46.000","21213","Dispatch Investigator","Insufficent location information","2015-02-17T17:26:00.000",-76.5726264,39.3154642
"2800  CLEARVIEW AVE","BALTIMORE","SIGNMISS","TRT-Sign Missing","2015-01-30T12:37:28.000","2015-03-21T12:37:28.000","NORTH HARFORD ROAD","15-00068507","MD","CLOSED","2015-02-17T16:53:47.000","21234",NA,NA,NA,-76.549269,39.371866
"3100  SAINT PAUL ST","BALTIMORE","SIGNMISS","TRT-Sign Missing","2015-01-30T00:34:43.000","2015-03-21T00:34:43.000","CHARLES VILLAGE","15-00067995","MD","CLOSED","2015-02-17T17:27:41.000","21218","Dispatch Investigator","Insufficent location information","2015-02-17T17:27:00.000",-76.6164,39.32611
"710  WILLIAM ST","BALTIMORE","SIGNMISS","TRT-Sign Missing","2015-01-30T00:30:20.000","2015-03-21T00:30:20.000","FEDERAL HILL","15-00067994","MD","CLOSED","2015-03-03T11:29:01.000","21230","Generate Work Order","Sign erected","2015-03-03T11:28:00.000",-76.6114636,39.2802982
"2800 E PRESTON ST","BALTIMORE","SIGNMISS","TRT-Sign Missing","2015-01-29T17:47:56.000","2015-03-20T17:47:56.000","BEREA","15-00067187","MD","O-PENDNG","2015-03-04T13:59:33.000","21213",NA,NA,NA,-76.578386,39.3060126
"2345  EASTERN AVE","BALTIMORE","SIGNMISS","TRT-Sign Missing","2015-01-29T14:55:37.000","2015-03-20T14:55:37.000","CANTON","15-00066428","MD","CLOSED","2015-02-18T17:12:28.000","21224",NA,NA,NA,-76.583059,39.2857879
"ARGONNE DR & THE ALAMEDA","BALTIMORE","SIGNMISS","TRT-Sign Missing","2015-01-29T14:42:53.000","2015-03-20T14:42:53.000","PEN LUCY","15-00066380","MD","CLOSED","2015-02-17T17:28:36.000","21218","Dispatch Investigator","Insufficent location information","2015-02-17T17:28:00.000",-87.8566351,42.3249501
"1800  LORMAN ST","BALTIMORE","SIGNMISS","TRT-Sign Missing","2015-01-29T12:57:12.000","2015-03-20T12:57:12.000","SANDTOWN-WINCHESTER","15-00065830","MD","CLOSED","2015-03-25T09:50:19.000","21217","Generate Work Order","Sign erected","2015-03-25T09:50:00.000",-76.646166,39.3042147
"506 N PACA ST","BALTIMORE","SIGNMISS","TRT-Sign Missing","2015-01-28T22:28:54.000","2015-03-19T22:28:54.000","SETON HILL","15-00064951","MD","CLOSED","2015-04-01T10:00:04.000","21201","Generate Work Order","Sign erected","2015-04-01T09:59:00.000",-76.6226642,39.295124
"4200  FALLS RD","BALTIMORE","SIGNMISS","TRT-Sign Missing","2015-01-28T18:46:55.000","2015-03-19T18:46:55.000","MEDFIELD","15-00064401","MD","CLOSED","2015-03-19T09:53:46.000","21211","Generate Work Order","Sign erected","2015-03-19T09:53:00.000",-76.63884,39.339324
"4200  FALLS RD","BALTIMORE","SIGNMISS","TRT-Sign Missing","2015-01-28T18:44:46.000","2015-03-19T18:44:46.000","MEDFIELD","15-00064394","MD","CLOSED","2015-01-29T13:53:39.000","21211","Dispatch Investigator","Insufficent location information","2015-01-29T13:52:00.000",-76.63884,39.339324
"N LUZERNE AVE &E BALTIMORE ST","BALTIMORE","SIGNMISS","TRT-Sign Missing","2015-01-28T18:38:14.000","2015-03-19T18:38:14.000","PATTERSON PARK","15-00064371","MD","CLOSED","2015-02-05T18:07:55.000","21224",NA,NA,NA,-76.5810239,39.301023
"5600  CLEARSPRING RD","BALTIMORE","SIGNMISS","TRT-Sign Missing","2015-01-28T17:37:58.000","2015-03-19T17:37:58.000","MID-GOVANS","15-00064166","MD","CLOSED","2015-02-19T15:02:26.000","21212",NA,NA,NA,-76.6065012,39.3583242
"4700  HILLEN RD","BALTIMORE","SIGNMISS","TRT-Sign Missing","2015-01-28T17:30:18.000","2015-03-19T17:30:18.000","STONEWOOD-PENTWOOD-WINSTON","15-00064129","MD","CLOSED","2015-04-01T10:44:44.000","21239","Generate Work Order","Sign erected","2015-04-01T10:44:00.000",-76.5855054,39.3478086
"1000  EASTERN AVE","BALTIMORE","SIGNMISS","TRT-Sign Missing","2015-01-24T09:42:55.000","2015-03-15T09:42:55.000","LITTLE ITALY","15-00054285","MD","CLOSED","2015-01-26T13:12:42.000","21202",NA,NA,NA,-76.600195,39.285516
"1500 W OLD COLD SPRING LN","BALTIMORE","SIGNMISS","TRT-Sign Missing","2015-01-27T14:23:48.000","2015-03-18T14:23:48.000","MEDFIELD","15-00060983","MD","DUPCLOSD","2015-01-27T14:23:48.000","21209",NA,NA,NA,-76.643629,39.34406
"2600 E NORTHERN PKWY","BALTIMORE","SIGNMISS","TRT-Sign Missing","2015-01-26T12:23:01.000","2015-03-17T12:23:01.000","HARFORD-ECHODALE/PERRING PARKWAY","15-00056919","MD","CLOSED","2015-02-06T15:10:37.000","21214",NA,NA,NA,-76.5615887,39.3664999
"554 E FORT AVE","BALTIMORE","SIGNMISS","TRT-Sign Missing","2015-01-25T18:38:53.000","2015-03-16T18:38:53.000","RIVERSIDE","15-00055828","MD","DUPCLOSD","2015-03-04T10:05:59.000","21230",NA,NA,NA,-76.60543,39.273191
"602 E FORT AVE","BALTIMORE","SIGNMISS","TRT-Sign Missing","2015-01-25T18:37:04.000","2015-03-16T18:37:04.000","RIVERSIDE","15-00055827","MD","CLOSED","2015-03-04T10:06:00.000","21230","Generate Work Order","Sign erected","2015-03-04T10:05:00.000",-76.605051,39.273152
"3700  CHESTLE PL","BALTIMORE","SIGNMISS","TRT-Sign Missing","2015-01-25T18:23:32.000","2015-03-16T18:23:32.000","HIGHLANDTOWN","15-00055812","MD","CLOSED","2015-03-16T09:46:46.000","21224","Generate Work Order","Sign erected","2015-03-16T09:46:00.000",-76.5664066,39.288267
"3102  KESWICK RD","BALTIMORE","SIGNMISS","TRT-Sign Missing","2015-01-24T00:07:21.000","2015-03-15T00:07:21.000","HAMPDEN","15-00054153","MD","CLOSED","2015-03-12T12:49:02.000","21211","Generate Work Order","Sign erected","2015-03-12T12:48:00.000",-76.628056,39.3247069
"2000  BANK ST","BALTIMORE","SIGNMISS","TRT-Sign Missing","2015-01-23T17:26:01.000","2015-03-14T17:26:01.000","UPPER FELLS POINT","15-00053416","MD","CLOSED","2015-02-25T16:00:13.000","21231",NA,NA,NA,-76.5887217,39.2869763
"1030  LIGHT ST","BALTIMORE","SIGNMISS","TRT-Sign Missing","2015-01-23T16:53:26.000","2015-03-14T16:53:26.000","FEDERAL HILL","15-00053291","MD","DUPCLOSD","2015-01-23T16:53:26.000","21230",NA,NA,NA,-76.612769,39.277505
"2500 W FOREST PARK AVE","BALTIMORE","SIGNMISS","TRT-Sign Missing","2015-01-23T14:02:44.000","2015-03-14T14:02:44.000","BURLEITH-LEIGHTON","15-00052629","MD","CLOSED","2015-03-16T09:52:53.000","21215","Generate Work Order","Sign erected","2015-03-16T09:52:00.000",-76.657846,39.319239
"1401  RUSSELL ST","BALTIMORE","SIGNMISS","TRT-Sign Missing","2015-01-23T01:50:23.000","2015-03-14T01:50:23.000","CARROLL - CAMDEN INDUSTRIAL AREA","15-00051316","MD","CLOSED","2015-02-19T13:17:01.000","21230",NA,NA,NA,-76.625551,39.275369
"ROCKROSE AVE & KEYSTONE AVE","BALTIMORE","SIGNMISS","TRT-Sign Missing","2015-01-22T12:54:22.000","2015-03-13T12:54:22.000","WOODBERRY","15-00048931","MD","CLOSED","2015-01-26T14:28:58.000","21211",NA,NA,NA,-76.6512959,39.3331208
"BROXTON RD & BELLONA AVE","BALTIMORE","SIGNMISS","TRT-Sign Missing","2015-01-22T16:21:31.000","2015-03-13T16:21:31.000","ROSEBANK","15-00050233","MD","CLOSED","2015-03-09T14:43:23.000","21212",NA,NA,NA,-82.7130994,31.696531
"ROLAND AVE & SAINT GEORGES RD","BALTIMORE","SIGNMISS","TRT-Sign Missing","2015-01-22T15:13:09.000","2015-03-13T15:13:09.000","NORTH ROLAND PARK/POPLAR HILL","15-00049966","MD","CLOSED","2015-03-27T09:49:08.000","21210","Generate Work Order","Sign erected","2015-03-27T09:48:00.000",-77.555151,34.4376501
"3698  KEYSTONE AVE","BALTIMORE","SIGNMISS","TRT-Sign Missing","2015-01-22T12:59:19.000","2015-03-13T12:59:19.000","WOODBERRY","15-00049002","MD","CLOSED","2015-03-11T11:58:46.000","21211","Generate Work Order","Sign erected","2015-03-11T11:58:00.000",-76.6502502,39.3333801
"1800  MARSHALL ST","BALTIMORE","SIGNMISS","TRT-Sign Missing","2015-01-22T11:45:34.000","2015-03-13T11:45:34.000","SBIC","15-00048492","MD","CLOSED","2015-02-23T14:15:04.000","21230",NA,NA,NA,-76.6123066,39.2695148
"OLD FREDERICK RD & LOUDON MONASTERY","BALTIMORE","SIGNMISS","TRT-Sign Missing","2015-01-21T13:42:49.000","2015-03-12T13:42:49.000","ALLENDALE","15-00046409","MD","CLOSED","2015-02-09T14:32:33.000","21229",NA,NA,NA,-76.9653979,39.3245989
"4905  EDGEMERE AVE","BALTIMORE","SIGNMISS","TRT-Sign Missing","2015-01-21T13:31:41.000","2015-03-12T13:31:41.000","CENTRAL PARK HEIGHTS","15-00046356","MD","CLOSED","2015-02-10T14:16:59.000","21215",NA,NA,NA,-76.67347,39.344798
"715  SCOTT ST","BALTIMORE","SIGNMISS","TRT-Sign Missing","2015-01-21T12:50:04.000","2015-03-12T12:50:04.000","WASHINGTON VILLAGE","15-00046128","MD","CLOSED","2015-02-04T13:15:20.000","21230",NA,NA,NA,-76.628494,39.281297
"4200  BELAIR RD","BALTIMORE","SIGNMISS","TRT-Sign Missing","2015-01-21T12:49:15.000","2015-03-12T12:49:15.000","BELAIR-PARKSIDE","15-00046122","MD","CLOSED","2015-02-24T11:30:36.000","21206","Generate Work Order","Sign erected","2015-02-24T11:30:00.000",-76.5661499,39.328038
"LIGHT ST &E CONWAY ST","BALTIMORE","SIGNMISS","TRT-Sign Missing","2015-01-19T00:25:27.000","2015-03-10T00:25:27.000","INNER HARBOR","15-00039849","MD","CLOSED","2015-01-29T19:49:54.000","21202",NA,NA,NA,-76.6125962,39.2785869
"5600  READY AVE","BALTIMORE","SIGNMISS","TRT-Sign Missing","2015-01-20T17:28:04.000","2015-03-11T17:28:04.000","MID-GOVANS","15-00044314","MD","CLOSED","2015-01-20T17:29:54.000","21212",NA,NA,NA,-76.609029,39.3579549
"504  WASHINGTON BLVD","BALTIMORE","SIGNMISS","TRT-Sign Missing","2015-01-20T15:34:43.000","2015-03-11T15:34:43.000","INNER HARBOR","15-00043788","MD","DUPCLOSD","2015-01-29T13:18:56.000","21230",NA,NA,NA,-76.6225867,39.2856461
"508  WASHINGTON BLVD","BALTIMORE","SIGNMISS","TRT-Sign Missing","2015-01-20T15:10:53.000","2015-03-11T15:10:53.000","INNER HARBOR","15-00043647","MD","CLOSED","2015-01-29T13:18:56.000","21230",NA,NA,NA,-76.622707,39.285611
"LAWNDALE AVE & WYNDHURST AVE","BALTIMORE","SIGNMISS","TRT-Sign Missing","2015-01-19T17:58:57.000","2015-03-10T17:58:57.000","LOYOLA/NOTRE DAME","15-00041005","MD","CLOSED","2015-04-01T09:54:49.000","21210","Generate Work Order","Sign erected","2015-04-01T09:54:00.000",-87.8253239,41.8047007
"S HIGHLAND AVE & BOSTON ST","BALTIMORE","SIGNMISS","TRT-Sign Missing","2015-01-19T17:17:17.000","2015-03-10T17:17:17.000","CANTON","15-00040924","MD","CLOSED","2015-01-28T14:45:16.000","21224",NA,NA,NA,-88.8143408,35.581296
"S CLINTON ST & BOSTON ST","BALTIMORE","SIGNMISS","TRT-Sign Missing","2015-01-19T17:16:30.000","2015-03-10T17:16:30.000","CANTON","15-00040922","MD","CLOSED","2015-02-04T12:40:25.000","21224","Dispatch Investigator","Sign already exists","2015-02-04T12:40:00.000",-73.1492686,44.4594444
"S EAST AVE & BOSTON ST","BALTIMORE","SIGNMISS","TRT-Sign Missing","2015-01-19T17:15:47.000","2015-03-10T17:15:47.000","CANTON","15-00040921","MD","CLOSED","2015-02-04T12:38:43.000","21224","Dispatch Investigator","Sign already exists","2015-02-04T12:38:00.000",-73.1902497,44.47254
"1 W SARATOGA ST","BALTIMORE","SIGNMISS","TRT-Sign Missing","2015-01-19T13:14:59.000","2015-03-10T13:14:59.000","DOWNTOWN","15-00040323","MD","CLOSED","2015-02-12T10:15:19.000","21201","Generate Work Order","Sign erected","2015-02-12T10:15:00.000",-76.6153556,39.2922822
"1200  GLENEAGLE RD","BALTIMORE","SIGNMISS","TRT-Sign Missing","2015-01-18T18:40:35.000","2015-03-09T18:40:35.000","RAMBLEWOOD","15-00039644","MD","CLOSED","2015-03-09T14:47:51.000","21239","Dispatch Investigator",NA,"2015-03-09T14:46:00.000",-76.593148,39.364322
"PRESBURY ST &N HILTON ST","BALTIMORE","SIGNMISS","TRT-Sign Missing","2015-01-17T18:08:24.000","2015-03-08T18:08:24.000","ROSEMONT","15-00038684","MD","CLOSED","2015-02-03T17:28:27.000","21216",NA,NA,NA,-76.6570628,39.307543
"1401  STEUART ST","BALTIMORE","SIGNMISS","TRT-Sign Missing","2015-01-17T13:50:40.000","2015-03-08T13:50:40.000","LOCUST POINT","15-00038279","MD","CLOSED","2015-02-11T17:22:42.000","21230",NA,NA,NA,-76.5889262,39.2688068
"E MONTGOMERY ST & WILLIAM ST","BALTIMORE","SIGNMISS","TRT-Sign Missing","2015-01-16T22:28:43.000","2015-03-07T22:28:43.000","FEDERAL HILL","15-00037788","MD","CLOSED","2015-01-26T13:44:21.000","21230",NA,NA,NA,-92.042934,32.5334012
"4712  ROLAND AVE","BALTIMORE","SIGNMISS","TRT-Sign Missing","2015-01-16T20:44:56.000","2015-03-07T20:44:56.000","ROLAND PARK","15-00037688","MD","CLOSED","2015-04-23T09:59:24.000","21210",NA,NA,NA,-76.635811,39.349942
"4615  ROLAND AVE","BALTIMORE","SIGNMISS","TRT-Sign Missing","2015-01-16T20:42:22.000","2015-03-07T20:42:22.000","ROLAND PARK","15-00037681","MD","CLOSED","2015-04-23T09:58:12.000","21210",NA,NA,NA,-76.635362,39.347432
"5600  READY AVE","BALTIMORE","SIGNMISS","TRT-Sign Missing","2015-01-16T18:15:12.000","2015-03-07T18:15:12.000","MID-GOVANS","15-00037278","MD","CLOSED","2015-01-16T18:22:24.000","21212",NA,NA,NA,-76.609029,39.3579549
"5600  READY AVE","BALTIMORE","SIGNMISS","TRT-Sign Missing","2015-01-16T17:59:40.000","2015-03-07T17:59:40.000","MID-GOVANS","15-00037223","MD","CLOSED","2015-01-20T17:29:12.000","21212",NA,NA,NA,-76.609029,39.3579549
"900 S CAREY ST","BALTIMORE","SIGNMISS","TRT-Sign Missing","2015-01-16T16:21:23.000","2015-03-07T16:21:23.000","WASHINGTON VILLAGE","15-00036940","MD","CLOSED","2015-02-05T10:53:51.000","21223",NA,NA,NA,-76.6373566,39.2819154
"E 28TH ST","BALTIMORE","SIGNMISS","TRT-Sign Missing","2015-01-16T15:18:29.000","2015-03-07T15:18:29.000","COLDSTREAM HOMESTEAD MONTEBELLO","15-00036659","MD","CLOSED","2015-02-06T15:09:19.000","21218",NA,NA,NA,-76.6046087,39.3220382
"200 N LINWOOD AVE","BALTIMORE","SIGNMISS","TRT-Sign Missing","2015-01-16T13:47:08.000","2015-03-07T13:47:08.000","MCELDERRY PARK","15-00036379","MD","CLOSED","2015-01-26T13:40:54.000","21224","Dispatch Investigator","Insufficent location information","2015-01-26T13:40:00.000",-76.5766359,39.295145
"6437  HARFORD RD","BALTIMORE","SIGNMISS","TRT-Sign Missing","2015-01-16T13:33:53.000","2015-03-07T13:33:53.000","WESTFIELD","15-00036316","MD","CLOSED","2015-02-25T11:52:27.000","21214","Generate Work Order","Sign erected","2015-02-25T11:52:00.000",-76.55329,39.3613969
"4400  THE ALAMEDA","BALTIMORE","SIGNMISS","TRT-Sign Missing","2015-01-16T13:11:31.000","2015-03-07T13:11:31.000","WILSON PARK","15-00036176","MD","CLOSED","2015-03-19T17:51:28.000","21239","Generate Work Order","Sign erected","2015-03-19T17:51:00.000",-76.6000185,39.3437321
"5300  HADDON AVE","BALTIMORE","SIGNMISS","TRT-Sign Missing","2015-01-16T00:04:48.000","2015-03-07T00:04:48.000","HOWARD PARK","15-00035333","MD","CLOSED","2015-02-23T18:32:16.000","21207",NA,NA,NA,-76.701415,39.335696
"5354  PERRING PKWY","BALTIMORE","SIGNMISS","TRT-Sign Missing","2015-01-15T15:40:52.000","2015-03-06T15:40:52.000","PERRING LOCH","15-00034052","MD","CLOSED","2015-03-19T17:50:52.000","21239","Generate Work Order","Sign erected","2015-03-19T17:50:00.000",-76.5782569,39.3537419
"100 S LINWOOD AVE","BALTIMORE","SIGNMISS","TRT-Sign Missing","2015-01-15T00:29:14.000","2015-03-06T00:29:14.000","PATTERSON PARK","15-00032253","MD","CLOSED","2015-01-16T16:29:23.000","21224",NA,NA,NA,-76.576123,39.2909954
"E 30TH ST & MATHEWS ST","BALTIMORE","SIGNMISS","TRT-Sign Missing","2015-01-14T23:30:43.000","2015-03-05T23:30:43.000","BETTER WAVERLY","15-00032210","MD","CLOSED","2015-02-18T10:45:27.000","21218","Generate Work Order","Sign erected","2015-02-18T10:45:00.000",-86.0716861,39.8110159
"1324 W LEXINGTON ST","BALTIMORE","SIGNMISS","TRT-Sign Missing","2015-01-14T15:46:45.000","2015-03-05T15:46:45.000","FRANKLIN SQUARE","15-00030891","MD","CLOSED","2015-01-29T13:17:32.000","21223","Dispatch Investigator","Sign already exists","2015-01-29T13:17:00.000",-76.6395045,39.2909472
"1003  EASTERN AVE","BALTIMORE","SIGNMISS","TRT-Sign Missing","2015-01-14T14:56:45.000","2015-03-05T14:56:45.000","LITTLE ITALY","15-00030660","MD","CLOSED","2015-01-15T13:01:52.000","21202",NA,NA,NA,-76.6002452,39.2852728
"2414 W GARRISON AVE","BALTIMORE","SIGNMISS","TRT-Sign Missing","2015-01-14T12:59:18.000","2015-03-05T12:59:18.000","CYLBURN","15-00029973","MD","CLOSED","2015-02-23T18:39:15.000","21215",NA,NA,NA,-76.6608955,39.3501117
"200 E NORTH AVE","BALTIMORE","SIGNMISS","TRT-Sign Missing","2015-01-13T19:27:19.000","2015-03-04T19:27:19.000","BARCLAY","15-00028771","MD","CLOSED","2015-03-09T13:47:28.000","21202",NA,NA,NA,-76.6132357,39.312022
"1000  EASTERN AVE","BALTIMORE","SIGNMISS","TRT-Sign Missing","2015-01-13T17:46:19.000","2015-03-04T17:46:19.000","LITTLE ITALY","15-00028268","MD","CLOSED","2015-01-23T17:18:46.000","21202",NA,NA,NA,-76.600195,39.285516
"1500 S HAVEN ST","BALTIMORE","SIGNMISS","TRT-Sign Missing","2015-01-13T10:34:08.000","2015-03-04T10:34:08.000","CANTON INDUSTRIAL AREA","15-00026762","MD","OPEN","2015-01-13T11:17:06.000","21224",NA,NA,NA,-76.5618211,39.2771817
"1507 W OLD COLD SPRING LN","BALTIMORE","SIGNMISS","TRT-Sign Missing","2015-01-13T02:37:18.000","2015-03-04T02:37:18.000","MEDFIELD","15-00026648","MD","DUPCLOSD","2015-02-03T12:44:02.000","21209",NA,NA,NA,-76.6440889,39.343775
"3045  ELLIOTT ST","BALTIMORE","SIGNMISS","TRT-Sign Missing","2015-01-12T18:40:48.000","2015-03-03T18:40:48.000","CANTON","15-00026074","MD","CLOSED","2015-03-02T11:32:13.000","21224","Generate Work Order","Sign erected","2015-03-02T11:32:00.000",-76.572604,39.279078
"2800  HEMLOCK AVE","BALTIMORE","SIGNMISS","TRT-Sign Missing","2015-01-12T17:55:59.000","2015-03-03T17:55:59.000","CHRISTOPHER","15-00025889","MD","CLOSED","2015-01-21T13:05:17.000","21214","Dispatch Investigator","Sign already exists","2015-01-21T13:05:00.000",-76.5612699,39.360883
"ORLEANS ST &N PORT ST","BALTIMORE","SIGNMISS","TRT-Sign Missing","2015-01-09T16:55:51.000","2015-02-28T16:55:51.000","MCELDERRY PARK","15-00021109","MD","CLOSED","2015-04-01T09:46:50.000","21224","Generate Work Order","Sign erected","2015-04-01T09:46:00.000",-76.5939633,39.2952793
"3317  KESWICK RD","BALTIMORE","SIGNMISS","TRT-Sign Missing","2015-01-09T15:55:49.000","2015-02-28T15:55:49.000","WYMAN PARK","15-00020869","MD","CLOSED","2015-03-30T10:00:32.000","21211","Generate Work Order","Sign erected","2015-03-30T10:00:00.000",-76.6275582,39.327693
"3100 N ROGERS AVE","BALTIMORE","SIGNMISS","TRT-Sign Missing","2015-01-09T14:55:19.000","2015-02-28T14:55:19.000","HOWARD PARK","15-00020647","MD","CLOSED","2015-02-02T14:11:33.000","21207",NA,NA,NA,-76.7079825,39.3294911
"1620 E 32ND ST","BALTIMORE","SIGNMISS","TRT-Sign Missing","2015-01-08T13:53:12.000","2015-02-27T13:53:12.000","EDNOR GARDENS-LAKESIDE","15-00016843","MD","CLOSED","2015-01-21T13:16:12.000","21218",NA,NA,NA,-76.5929532,39.3269716
"EDISON HWY & ELMLEY AVE","BALTIMORE","SIGNMISS","TRT-Sign Missing","2015-01-08T12:51:28.000","2015-02-27T12:51:28.000","BELAIR-EDISON","15-00016496","MD","CLOSED","2015-02-09T18:22:17.000","21213",NA,NA,NA,-84.9219518,31.5933289
"2800  EDISON HWY","BALTIMORE","SIGNMISS","TRT-Sign Missing","2015-01-08T10:47:50.000","2015-02-27T10:47:50.000","FOUR BY FOUR","15-00015970","MD","CLOSED","2015-02-06T15:02:02.000","21213",NA,NA,NA,-76.5735213,39.3159715
"13 W FORT AVE","BALTIMORE","SIGNMISS","TRT-Sign Missing","2015-01-07T20:49:15.000","2015-02-26T20:49:15.000","SBIC","15-00015393","MD","CLOSED","2015-03-18T09:47:45.000","21230","Generate Work Order","Sign erected","2015-03-18T09:47:00.000",-76.6146939,39.272432
"POWELL AVE & MARLUTH AVE","BALTIMORE","SIGNMISS","TRT-Sign Missing","2015-01-07T16:29:03.000","2015-02-26T16:29:03.000","CEDMONT","15-00014510","MD","CLOSED","2015-01-29T17:42:08.000","21206",NA,NA,NA,-79.940253,39.627692
"350 W NORTH AVE","BALTIMORE","SIGNMISS","TRT-Sign Missing","2015-01-07T15:16:43.000","2015-02-26T15:16:43.000","JONES FALLS AREA","15-00014279","MD","CLOSED","2015-01-08T16:03:18.000","21217",NA,NA,NA,-76.6227129,39.3109746
"LIBERTY HEIGHTS MAINE & GWYNN OAK AVE","BALTIMORE","SIGNMISS","TRT-Sign Missing","2015-01-07T15:10:14.000","2015-02-26T15:10:14.000","HOWARD PARK","15-00014248","MD","CLOSED","2015-02-05T14:19:24.000","21207","Dispatch Investigator","Sign erected","2015-02-05T14:19:00.000",-69.3645208,44.2869542
"GUSRYAN ST","BALTIMORE","SIGNMISS","TRT-Sign Missing","2015-01-07T14:30:18.000","2015-02-26T14:30:18.000","O'DONNELL HEIGHTS","15-00013971","MD","CLOSED","2015-02-12T15:40:40.000","21224","Generate Work Order","Sign erected","2015-02-12T15:40:00.000",-76.540637,39.2836255
"CHARLOTTE AVE & HOLABIRD AVE","BALTIMORE","SIGNMISS","TRT-Sign Missing","2015-01-07T14:29:41.000","2015-02-26T14:29:41.000","BROENING MANOR","15-00013965","MD","CLOSED","2015-03-19T09:57:55.000","21224","Generate Work Order","Sign erected","2015-03-19T09:57:00.000",-86.8167278,36.1542461
"300  MCMECHEN ST","BALTIMORE","SIGNMISS","TRT-Sign Missing","2015-01-07T14:22:02.000","2015-02-26T14:22:02.000","BOLTON HILL","15-00013919","MD","CLOSED","2015-01-08T14:59:49.000","21217",NA,NA,NA,-76.6272706,39.3075412
"5934  GLEN FALLS AVE","BALTIMORE","SIGNMISS","TRT-Sign Missing","2015-01-06T18:04:07.000","2015-02-25T18:04:07.000","GLENHAM-BELFORD","15-00011610","MD","CLOSED","2015-02-24T11:25:10.000","21206","Generate Work Order","Sign erected","2015-02-24T11:24:00.000",-76.542198,39.347039
"600 N CARROLLTON AVE","BALTIMORE","SIGNMISS","TRT-Sign Missing","2015-01-06T18:00:15.000","2015-02-25T18:00:15.000","HARLEM PARK","15-00011600","MD","CLOSED","2015-02-04T17:37:37.000","21217",NA,NA,NA,-76.637398,39.295597
"101 W CROMWELL ST","BALTIMORE","SIGNMISS","TRT-Sign Missing","2015-01-06T15:18:50.000","2015-02-25T15:18:50.000","SPRING GARDEN INDUSTRIAL AREA","15-00010835","MD","CLOSED","2015-03-25T09:53:38.000","21230","Generate Work Order","Sign erected","2015-03-25T09:53:00.000",-76.6139918,39.2620989
"4100  TOWNSEND AVE","BALTIMORE","SIGNMISS","TRT-Sign Missing","2015-01-06T14:41:46.000","2015-02-25T14:41:46.000","BROOKLYN","15-00010667","MD","CLOSED","2015-01-08T16:35:43.000","21225",NA,NA,NA,-76.602527,39.22909
"1700  WICKES AVE","BALTIMORE","SIGNMISS","TRT-Sign Missing","2015-01-06T14:27:12.000","2015-02-25T14:27:12.000","MORRELL PARK","15-00010593","MD","CLOSED","2015-01-15T14:10:07.000","21230",NA,NA,NA,-76.6574399,39.265188
"RAMSAY ST &S FULTON AVE","BALTIMORE","SIGNMISS","TRT-Sign Missing","2015-01-05T20:09:52.000","2015-02-24T20:09:52.000","NEW SOUTHWEST/MOUNT CLARE","15-00008714","MD","CLOSED","2015-03-18T09:43:53.000","21223","Generate Work Order","Sign erected","2015-03-18T09:43:00.000",-76.6399672,39.2833754
"MARMON AVE & BELLEVILLE AVE","BALTIMORE","SIGNMISS","TRT-Sign Missing","2015-01-05T18:04:42.000","2015-02-24T18:04:42.000","HOWARD PARK","15-00008127","MD","CLOSED","2015-03-13T09:26:15.000","21207","Generate Work Order","Sign erected","2015-03-13T09:26:00.000",-83.0106164,42.4650006
"4462  LAPLATA AVE","BALTIMORE","SIGNMISS","TRT-Sign Missing","2015-01-05T14:33:32.000","2015-02-24T14:33:32.000","MEDFIELD","15-00007120","MD","O-PENDNG","2015-01-23T14:00:44.000","21211",NA,NA,NA,-76.64453,39.344158
"CHERRYLAND ROUNDVIEW & BRIDGEVIEW RD","BALTIMORE","SIGNMISS","TRT-Sign Missing","2015-01-05T14:15:56.000","2015-02-24T14:15:56.000","CHERRY HILL","15-00007036","MD","CLOSED","2015-01-23T12:57:42.000","21225",NA,NA,NA,-76.621468,39.247236
"BREHMS LN & SHANNON DR","BALTIMORE","SIGNMISS","TRT-Sign Missing","2015-01-05T13:21:52.000","2015-02-24T13:21:52.000","BELAIR-EDISON","15-00006453","MD","CLOSED","2015-01-05T14:00:31.000","21206",NA,NA,NA,-76.5635348,39.321681
"1100  LYNDHURST ST","BALTIMORE","SIGNMISS","TRT-Sign Missing","2015-01-05T12:51:49.000","2015-02-24T12:51:49.000","EDMONDSON VILLAGE","15-00006015","MD","O-PENDNG","2015-01-05T12:53:22.000","21229",NA,NA,NA,-76.681766,39.299503
"2521  WASHINGTON BLVD","BALTIMORE","SIGNMISS","TRT-Sign Missing","2015-01-03T15:39:58.000","2015-02-22T15:39:58.000","MORRELL PARK","15-00003976","MD","CLOSED","2015-02-09T18:55:45.000","21230",NA,NA,NA,-76.65249,39.266306
"N CHAPELGATE LN & EDMONDSON AVE","BALTIMORE","SIGNMISS","TRT-Sign Missing","2015-01-03T21:30:41.000","2015-02-22T21:30:41.000","WESTGATE","15-00004316","MD","CLOSED","2015-02-05T13:49:59.000","21229",NA,NA,NA,-76.7028968,39.2898563
"1420 E FORT AVE","BALTIMORE","SIGNMISS","TRT-Sign Missing","2015-01-03T00:03:22.000","2015-02-22T00:03:22.000","LOCUST POINT","15-00003451","MD","O-PENDNG","2015-01-15T15:15:37.000","21230","Dispatch Investigator","Insufficent location information","2015-01-15T15:15:00.000",-76.59436,39.269453
"EDMONDSON AVE & EVERGREEN ST","BALTIMORE","SIGNMISS","TRT-Sign Missing","2015-01-02T23:25:22.000","2015-02-21T23:25:22.000","ROSEMONT HOMEOWNERS/TENANTS","15-00003421","MD","CLOSED","2015-01-09T19:01:43.000","21223",NA,NA,NA,-76.7051535,39.2908485
"3501  HOWARD PARK AVE","BALTIMORE","SIGNMISS","TRT-Sign Missing","2015-01-02T23:21:50.000","2015-02-21T23:21:50.000","HOWARD PARK","15-00003419","MD","CLOSED","2015-03-26T16:11:37.000","21207","Generate Work Order","Sign erected","2015-03-26T16:11:00.000",-76.6978933,39.3312457
"2400 N HILTON ST","BALTIMORE","SIGNMISS","TRT-Sign Missing","2015-01-02T23:17:11.000","2015-02-21T23:17:11.000","HANLON-LONGWOOD","15-00003414","MD","CLOSED","2015-03-11T10:14:59.000","21216","Generate Work Order","Sign erected","2015-03-11T10:14:00.000",-76.6726994,39.3143991
"EDMONDSON AVE & WALNUT AVE","BALTIMORE","SIGNMISS","TRT-Sign Missing","2015-01-02T22:41:57.000","2015-02-21T22:41:57.000","ROGNEL HEIGHTS","15-00003378","MD","CLOSED","2015-02-11T11:43:39.000","21229","Generate Work Order","Sign erected","2015-02-11T11:43:00.000",-76.7051535,39.2908485
"COLVIN ST & ENSOR ST","BALTIMORE","SIGNMISS","TRT-Sign Missing","2015-01-02T14:22:41.000","2015-02-21T14:22:41.000","OLDTOWN","15-00001943","MD","CLOSED","2015-03-30T09:59:09.000","21202","Generate Work Order","Sign erected","2015-03-30T09:58:00.000",-112.9718021,36.9923078
"4 W HEATH ST","BALTIMORE","SIGNMISS","TRT-Sign Missing","2015-01-02T11:52:56.000","2015-02-21T11:52:56.000","SBIC","15-00001139","MD","CLOSED","2015-01-08T16:34:34.000","21230",NA,NA,NA,-76.6144345,39.2706697
"200  SCOTT ST","BALTIMORE","SIGNMISS","TRT-Sign Missing","2015-01-02T11:38:49.000","2015-02-21T11:38:49.000","WASHINGTON VILLAGE","15-00001064","MD","CLOSED","2015-04-01T09:48:42.000","21230","Generate Work Order","Sign erected","2015-04-01T09:48:00.000",-76.629202,39.28586
"1811 E 33RD ST","BALTIMORE","SIGNMISS","TRT-Sign Missing","2014-12-31T17:12:48.000","2015-02-19T17:12:48.000","COLDSTREAM HOMESTEAD MONTEBELLO","14-00969489","MD","CLOSED","2015-02-11T10:33:47.000","21218","Generate Work Order","Sign erected","2015-02-11T10:33:00.000",-76.5901117,39.3280537
"100 S HAVEN ST","BALTIMORE","SIGNMISS","TRT-Sign Missing","2014-12-31T11:40:50.000","2015-02-19T11:40:50.000","BALTIMORE HIGHLANDS","14-00967804","MD","CLOSED","2015-01-12T13:39:05.000","21224",NA,NA,NA,-76.562973,39.291296
"PINEWOOD AVE & OLD HARFORD RD","BALTIMORE","SIGNMISS","TRT-Sign Missing","2014-12-30T17:09:41.000","2015-02-18T17:09:41.000","CHRISTOPHER","14-00966453","MD","CLOSED","2015-04-20T09:52:13.000","21214","Generate Work Order","Sign erected","2015-04-20T09:52:00.000",-94.4141929,41.3564986
"302  ALPINE RD","BALTIMORE","SIGNMISS","TRT-Sign Missing","2014-12-30T16:41:37.000","2015-02-18T16:41:37.000","EVERGREEN","14-00966365","MD","CLOSED","2015-03-12T10:19:29.000","21210","Generate Work Order","Sign erected","2015-03-12T10:19:00.000",-76.629264,39.34686
"2533  GREENMOUNT AVE","BALTIMORE","SIGNMISS","TRT-Sign Missing","2014-12-30T14:01:46.000","2015-02-18T14:01:46.000","BETTER WAVERLY","14-00965780","MD","CLOSED","2015-02-04T11:50:25.000","21218",NA,NA,NA,-76.609213,39.31892
"S HANOVER ST & WASHBURN AVE","BALTIMORE","SIGNMISS","TRT-Sign Missing","2014-12-30T13:22:13.000","2015-02-18T13:22:13.000","BROOKLYN","14-00965385","MD","CLOSED","2015-02-11T11:35:12.000","21225","Generate Work Order","Sign erected","2015-02-11T11:35:00.000",-73.1663411,44.4727628
"4800  REISTERSTOWN RD","BALTIMORE","SIGNMISS","TRT-Sign Missing","2014-12-30T10:34:06.000","2015-02-18T10:34:06.000","LUCILLE PARK","14-00964723","MD","CLOSED","2015-03-12T10:18:02.000","21215","Generate Work Order","Sign erected","2015-03-12T10:17:00.000",-76.676039,39.341387
"516 N CHAPEL ST","BALTIMORE","SIGNMISS","TRT-Sign Missing","2014-12-29T23:40:58.000","2015-02-17T23:40:58.000","DUNBAR-BROADWAY","14-00964619","MD","CLOSED","2015-01-14T14:57:04.000","21231","Dispatch Investigator","Sign already exists","2015-01-14T14:56:00.000",-76.5903457,39.3003723
"1700 E LOMBARD ST","BALTIMORE","SIGNMISS","TRT-Sign Missing","2014-12-29T14:47:13.000","2015-02-17T14:47:13.000","WASHINGTON HILL","14-00963280","MD","CLOSED","2015-02-03T11:52:57.000","21231",NA,NA,NA,-76.5938299,39.2903944
"410 N ROCK GLEN RD","BALTIMORE","SIGNMISS","TRT-Sign Missing","2014-12-29T16:36:05.000","2015-02-17T16:36:05.000","WESTGATE","14-00963636","MD","CLOSED","2015-02-04T11:22:20.000","21229",NA,NA,NA,-76.708259,39.28648
"ANNETTA AVE & ERDMAN AVE","BALTIMORE","SIGNMISS","TRT-Sign Missing","2014-12-29T12:51:43.000","2015-02-17T12:51:43.000","BELAIR-EDISON","14-00962634","MD","CLOSED","2015-02-25T11:58:33.000","21213","Generate Work Order","Sign erected","2015-02-25T11:58:00.000",-118.1901997,33.9386941
"123 N HOWARD ST","BALTIMORE","SIGNMISS","TRT-Sign Missing","2014-12-28T19:33:12.000","2015-02-16T19:33:12.000","DOWNTOWN","14-00961531","MD","CLOSED","2015-01-06T12:27:32.000","21201","Dispatch Investigator","Sign already exists","2015-01-06T12:26:00.000",-76.619294,39.291327
"3312  BONNIE RD","BALTIMORE","SIGNMISS","TRT-Sign Missing","2014-12-26T21:53:01.000","2015-02-14T21:53:01.000","CROSS COUNTRY","14-00960056","MD","CLOSED","2015-03-12T10:20:57.000","21208","Generate Work Order","Sign erected","2015-03-12T10:20:00.000",-76.704046,39.370147
"535 W 40TH ST","BALTIMORE","SIGNMISS","TRT-Sign Missing","2014-12-26T16:12:36.000","2015-02-14T16:12:36.000","ROLAND PARK","14-00959287","MD","CLOSED","2015-03-20T09:53:05.000","21211","Generate Work Order","Sign erected","2015-03-20T09:52:00.000",-76.626935,39.336949
"4111  BELLE AVE","BALTIMORE","SIGNMISS","TRT-Sign Missing","2014-12-26T15:06:46.000","2015-02-14T15:06:46.000","DORCHESTER","14-00959021","MD","CLOSED","2015-01-12T13:41:10.000","21215",NA,NA,NA,-76.688018,39.332881
"3600 E FAYETTE ST","BALTIMORE","SIGNMISS","TRT-Sign Missing","2014-12-24T17:59:03.000","2015-02-12T17:59:03.000","BALTIMORE HIGHLANDS","14-00956871","MD","CLOSED","2015-02-09T16:14:31.000","21224",NA,NA,NA,-76.567584,39.295188
"10  LONGWOOD RD","BALTIMORE","SIGNMISS","TRT-Sign Missing","2014-12-26T14:16:15.000","2015-02-14T14:16:15.000","ROLAND PARK","14-00958815","MD","CLOSED","2014-12-29T17:53:31.000","21210",NA,NA,NA,-76.6362142,39.3556946
"OAKFORD AVE &W COLD SPRING LN","BALTIMORE","SIGNMISS","TRT-Sign Missing","2014-12-25T19:10:19.000","2015-02-13T19:10:19.000","PARKLANE","14-00957391","MD","CLOSED","2015-02-06T20:02:22.000","21215",NA,NA,NA,-76.6753756,39.3367002
"1212  CATHEDRAL ST","BALTIMORE","SIGNMISS","TRT-Sign Missing","2014-12-24T13:28:03.000","2015-02-12T13:28:03.000","MID-TOWN BELVEDERE","14-00955807","MD","CLOSED","2014-12-24T13:35:11.000","21201",NA,NA,NA,-76.6189606,39.3039105
"511  PENNSYLVANIA AVE","BALTIMORE","SIGNMISS","TRT-Sign Missing","2014-12-23T16:07:07.000","2015-02-11T16:07:07.000","SETON HILL","14-00953333","MD","CLOSED","2015-02-09T18:57:08.000","21201",NA,NA,NA,-76.6240873,39.295176
"1624 E MONUMENT ST","BALTIMORE","SIGNMISS","TRT-Sign Missing","2014-12-22T17:55:47.000","2015-02-10T17:55:47.000","GAY STREET","14-00950578","MD","CLOSED","2015-01-07T16:05:56.000","21205",NA,NA,NA,-76.595552,39.2983428
"FOSTER AVE &S FAGLEY ST","BALTIMORE","SIGNMISS","TRT-Sign Missing","2014-12-22T13:14:40.000","2015-02-10T13:14:40.000","BREWERS HILL","14-00948757","MD","CLOSED","2015-01-07T15:33:18.000","21224",NA,NA,NA,-75.8381311,41.040547
"5532  MIDWOOD AVE","BALTIMORE","SIGNMISS","TRT-Sign Missing","2014-12-19T16:41:05.000","2015-02-07T16:41:05.000","CAMERON VILLAGE","14-00945442","MD","CLOSED","2015-02-06T14:56:44.000","21212",NA,NA,NA,-76.601169,39.356364
"W LEE ST","BALTIMORE","SIGNMISS","TRT-Sign Missing","2014-12-18T17:40:38.000","2015-02-06T17:40:38.000","STADIUM AREA","14-00942938","MD","CLOSED","2015-01-16T15:38:29.000","21230",NA,NA,NA,-76.6198368,39.2818384
"300 S NORRIS ST","BALTIMORE","SIGNMISS","TRT-Sign Missing","2014-12-18T17:36:17.000","2015-02-06T17:36:17.000","NEW SOUTHWEST/MOUNT CLARE","14-00942920","MD","CLOSED","2015-02-04T17:33:16.000","21223",NA,NA,NA,-76.6401155,39.2842047
"2700  HARFORD RD","BALTIMORE","SIGNMISS","TRT-Sign Missing","2014-12-18T13:49:31.000","2015-02-06T13:49:31.000","COLDSTREAM HOMESTEAD MONTEBELLO","14-00941934","MD","CLOSED","2015-02-03T12:34:47.000","21218",NA,NA,NA,-76.591832,39.320479
"1000 E COLD SPRING LN","BALTIMORE","SIGNMISS","TRT-Sign Missing","2014-12-17T19:31:21.000","2015-02-05T19:31:21.000","KENILWORTH PARK","14-00940121","MD","CLOSED","2015-03-11T10:07:15.000","21212","Generate Work Order","Sign erected","2015-03-11T10:06:00.000",-76.601449,39.345525
"1000  LIGHT ST","BALTIMORE","SIGNMISS","TRT-Sign Missing","2014-12-17T15:49:31.000","2015-02-05T15:49:31.000","FEDERAL HILL","14-00939347","MD","CLOSED","2015-02-06T15:52:57.000","21230",NA,NA,NA,-76.612749,39.2781548
"1714  NORMAL AVE","BALTIMORE","SIGNMISS","TRT-Sign Missing","2014-12-17T13:51:32.000","2015-02-05T13:51:32.000","DARLEY PARK","14-00938336","MD","CLOSED","2015-03-16T09:51:11.000","21213","Generate Work Order","Sign erected","2015-03-16T09:50:00.000",-76.5935345,39.3155539
"W 28TH ST &N HOWARD ST","BALTIMORE","SIGNMISS","TRT-Sign Missing","2014-12-17T12:54:28.000","2015-02-05T12:54:28.000","CHARLES VILLAGE","14-00938051","MD","CLOSED","2015-03-16T09:41:43.000","21211","Generate Work Order","Sign erected","2015-03-16T09:41:00.000",-93.3556956,44.953222
"2900  CLIFTON AVE","BALTIMORE","SIGNMISS","TRT-Sign Missing","2014-12-16T12:24:04.000","2015-02-04T12:24:04.000","WALBROOK","14-00935086","MD","CLOSED","2015-01-16T16:27:23.000","21216",NA,NA,NA,-76.666061,39.311585
"2400  WASHINGTON BLVD","BALTIMORE","SIGNMISS","TRT-Sign Missing","2014-12-16T12:04:40.000","2015-02-04T12:04:40.000","MORRELL PARK","14-00934979","MD","CLOSED","2015-01-12T17:38:46.000","21230",NA,NA,NA,-76.6505525,39.2683904
"707 N LONGWOOD ST","BALTIMORE","SIGNMISS","TRT-Sign Missing","2014-12-16T03:20:12.000","2015-02-04T03:20:12.000","FRANKLINTOWN ROAD","14-00934731","MD","DUPCLOSD","2015-02-03T23:13:14.000","21216",NA,NA,NA,-76.666482,39.295696
"707 N LONGWOOD ST","BALTIMORE","SIGNMISS","TRT-Sign Missing","2014-12-16T03:18:16.000","2015-02-04T03:18:16.000","FRANKLINTOWN ROAD","14-00934730","MD","DUPCLOSD","2015-02-03T23:13:14.000","21216",NA,NA,NA,-76.666482,39.295696
"FALLS RD &W LAFAYETTE AVE","BALTIMORE","SIGNMISS","TRT-Sign Missing","2014-12-15T16:07:28.000","2015-02-03T16:07:28.000","HAMPDEN","14-00933648","MD","CLOSED","2015-01-05T17:19:26.000","21201",NA,NA,NA,-76.7121307,39.5052964
"3300  BRENDAN AVE","BALTIMORE","SIGNMISS","TRT-Sign Missing","2014-12-15T16:03:30.000","2015-02-03T16:03:30.000","BELAIR-EDISON","14-00933636","MD","CLOSED","2015-02-12T09:50:02.000","21213","Generate Work Order","Sign erected","2015-02-12T09:49:00.000",-76.568467,39.3215324
"100 N CHARLES ST","BALTIMORE","SIGNMISS","TRT-Sign Missing","2014-12-15T11:33:00.000","2015-02-03T11:33:00.000","DOWNTOWN","14-00932221","MD","CLOSED","2015-01-06T12:43:17.000","21201",NA,NA,NA,-76.6156871,39.2907869
"101  BAYVIEW BLVD","BALTIMORE","SIGNMISS","TRT-Sign Missing","2014-12-13T08:14:27.000","2015-02-01T08:14:27.000","HOPKINS BAYVIEW","14-00930491","MD","CLOSED","2015-01-06T12:44:42.000","21224","Dispatch Investigator","Sign already exists","2015-01-06T12:44:00.000",-76.5498313,39.2899688
"100 S MONROE ST","BALTIMORE","SIGNMISS","TRT-Sign Missing","2014-12-12T18:38:55.000","2015-01-31T18:38:55.000","CARROLLTON RIDGE","14-00929890","MD","CLOSED","2015-01-29T15:47:51.000","21223",NA,NA,NA,-76.6470307,39.2860488
"INVERNESS AVE & WASHINGTON BLVD","BALTIMORE","SIGNMISS","TRT-Sign Missing","2014-12-12T16:22:19.000","2015-01-31T16:22:19.000","MORRELL PARK","14-00929501","MD","CLOSED","2015-02-03T11:49:20.000","21230",NA,NA,NA,-83.6235238,41.6507621
"ERDMAN AVE & EDISON HWY","BALTIMORE","SIGNMISS","TRT-Sign Missing","2014-12-12T13:11:09.000","2015-01-31T13:11:09.000","BELAIR-EDISON","14-00928798","MD","CLOSED","2015-01-29T15:55:16.000","21213",NA,NA,NA,-76.5621044,39.308984
"500 S CHAPELGATE LN","BALTIMORE","SIGNMISS","TRT-Sign Missing","2014-12-11T22:23:10.000","2015-01-30T22:23:10.000","BEECHFIELD","14-00927755","MD","CLOSED","2014-12-18T13:23:43.000","21229",NA,NA,NA,-76.6989918,39.2799371
"3000 N HILTON ST","BALTIMORE","SIGNMISS","TRT-Sign Missing","2014-12-11T20:46:24.000","2015-01-30T20:46:24.000","FOREST PARK","14-00927685","MD","CLOSED","2015-01-14T15:16:33.000","21216","Dispatch Investigator","Sign erected","2015-01-14T15:15:00.000",-76.673419,39.320575
"700 E COLD SPRING LN","BALTIMORE","SIGNMISS","TRT-Sign Missing","2014-12-11T19:23:30.000","2015-01-30T19:23:30.000","RICHNOR SPRINGS","14-00927530","MD","CLOSED","2015-01-14T14:37:46.000","21212","Dispatch Investigator","Sign erected","2015-01-14T14:37:00.000",-76.606902,39.346245
"4505  WALTHER AVE","BALTIMORE","SIGNMISS","TRT-Sign Missing","2014-12-11T13:17:30.000","2015-01-30T13:17:30.000","BEVERLY HILLS","14-00926059","MD","CLOSED","2015-01-15T16:32:07.000","21214",NA,NA,NA,-76.567464,39.339036
"505 S MADEIRA ST","BALTIMORE","SIGNMISS","TRT-Sign Missing","2014-12-11T11:05:26.000","2015-01-30T11:05:26.000","CANTON","14-00925244","MD","CLOSED","2015-02-11T10:50:35.000","21231","Generate Work Order","Sign erected","2015-02-11T10:50:00.000",-76.5848578,39.2855052
"500 W FAYETTE ST","BALTIMORE","SIGNMISS","TRT-Sign Missing","2014-12-11T10:38:44.000","2015-01-30T10:38:44.000","DOWNTOWN","14-00925207","MD","CLOSED","2015-01-20T10:27:51.000","21201",NA,NA,NA,-76.622782,39.29055
"1509 W OLD COLD SPRING LN","BALTIMORE","SIGNMISS","TRT-Sign Missing","2014-12-01T19:20:56.000","2015-01-20T19:20:56.000","MEDFIELD","14-00901266","MD","CLOSED","2014-12-09T15:53:59.000","21209",NA,NA,NA,-76.644154,39.343801
"FALLS RD &W NORTHERN PKWY","BALTIMORE","SIGNMISS","TRT-Sign Missing","2014-12-10T13:20:48.000","2015-01-29T13:20:48.000","SABINA-MATTFELDT","14-00922991","MD","CLOSED","2014-12-23T14:50:33.000","21209",NA,NA,NA,-76.7121307,39.5052964
"500 N HOWARD ST","BALTIMORE","SIGNMISS","TRT-Sign Missing","2014-12-09T18:46:08.000","2015-01-28T18:46:08.000","MOUNT VERNON","14-00921628","MD","O-PENDNG","2014-12-09T18:49:20.000","21201",NA,NA,NA,-76.619794,39.2950003
"1360  WINSTON AVE","BALTIMORE","SIGNMISS","TRT-Sign Missing","2014-12-09T23:01:29.000","2015-01-28T23:01:29.000","NEW NORTHWOOD","14-00922040","MD","DUPCLOSD","2015-02-02T17:52:42.000","21239",NA,NA,NA,-76.594204,39.35051
"KENWOOD AVE & BELAIR RD","RASPEBURG","SIGNMISS","TRT-Sign Missing","2014-12-09T18:56:09.000","2015-01-28T18:56:09.000","ROSEMONT EAST","14-00921667","MD","CLOSED","2015-02-11T13:13:31.000","21206","Generate Work Order","Sign erected","2015-02-11T13:12:00.000",-92.3377456,43.0741701
"2500  HOLLINS FERRY RD","BALTIMORE","SIGNMISS","TRT-Sign Missing","2014-12-09T18:55:41.000","2015-01-28T18:55:41.000","MOUNT WINANS","14-00921663","MD","CLOSED","2015-01-22T11:04:13.000","21230",NA,NA,NA,-76.6418765,39.2612731
"FRANKFORD AVE & MORAVIA PARK DR","BALTIMORE","SIGNMISS","TRT-Sign Missing","2014-12-09T18:52:09.000","2015-01-28T18:52:09.000","PULASKI INDUSTRIAL AREA","14-00921647","MD","CLOSED","2015-02-03T11:54:18.000","21206",NA,NA,NA,-75.0602607,40.0277614
"300  GWYNN AVE","BALTIMORE","SIGNMISS","TRT-Sign Missing","2014-12-09T18:40:24.000","2015-01-28T18:40:24.000","ALLENDALE","14-00921620","MD","O-PENDNG","2014-12-09T18:41:44.000","21229",NA,NA,NA,-76.6736466,39.2905421
"2900  MCELDERRY ST","BALTIMORE","SIGNMISS","TRT-Sign Missing","2014-12-09T17:47:51.000","2015-01-28T17:47:51.000","ELLWOOD PARK/MONUMENT","14-00921450","MD","CLOSED","2015-02-09T14:29:16.000","21205",NA,NA,NA,-76.5764307,39.2981341
"200 E 33RD ST","BALTIMORE","SIGNMISS","TRT-Sign Missing","2014-12-09T17:38:46.000","2015-01-28T17:38:46.000","CHARLES VILLAGE","14-00921421","MD","CLOSED","2014-12-15T16:12:29.000","21218",NA,NA,NA,-76.6144377,39.3285164
"1400  BENJAMIN ST","BALTIMORE","SIGNMISS","TRT-Sign Missing","2014-11-19T09:51:07.000","2015-01-08T09:51:07.000","LOCUST POINT","14-00871000","MD","CLOSED","2015-01-15T16:59:16.000","21230",NA,NA,NA,-76.5887149,39.268732
"4800  SINCLAIR LN","BALTIMORE","SIGNMISS","TRT-Sign Missing","2014-12-08T17:35:19.000","2015-01-27T17:35:19.000","FRANKFORD","14-00918645","MD","CLOSED","2015-01-09T15:31:28.000","21206",NA,NA,NA,-76.5521577,39.3201486
"N CALVERT ST &E 25TH ST","BALTIMORE","SIGNMISS","TRT-Sign Missing","2014-12-08T17:13:28.000","2015-01-27T17:13:28.000","BARCLAY","14-00918546","MD","CLOSED","2014-12-11T16:55:41.000","21218",NA,NA,NA,-76.6137932,39.3111317
"RAMSAY ST &S NORRIS ST","BALTIMORE","SIGNMISS","TRT-Sign Missing","2014-12-08T16:23:07.000","2015-01-27T16:23:07.000","NEW SOUTHWEST/MOUNT CLARE","14-00918280","MD","DUPOPEN","2014-12-08T16:23:07.000","21223",NA,NA,NA,-76.6399672,39.2833754
"RAMSAY ST &S NORRIS ST","BALTIMORE","SIGNMISS","TRT-Sign Missing","2014-12-08T15:28:44.000","2015-01-27T15:28:44.000","NEW SOUTHWEST/MOUNT CLARE","14-00917715","MD","CLOSED","2014-12-11T09:46:20.000","21223","Generate Work Order","Sign erected","2014-12-11T09:45:00.000",-76.6399672,39.2833754
"4100  PARKSIDE DR","BALTIMORE","SIGNMISS","TRT-Sign Missing","2014-12-08T14:38:33.000","2015-01-27T14:38:33.000","BELAIR-PARKSIDE","14-00917330","MD","CLOSED","2014-12-22T12:18:24.000","21206","Dispatch Investigator","Sign already exists","2014-12-22T12:18:00.000",-76.567023,39.329017
"3800  FOSTER AVE","BALTIMORE","SIGNMISS","TRT-Sign Missing","2014-12-08T14:34:57.000","2015-01-27T14:34:57.000","BREWERS HILL","14-00917305","MD","CLOSED","2015-02-02T17:45:08.000","21224",NA,NA,NA,-76.564995,39.284855
"1212  CATHEDRAL ST","BALTIMORE","SIGNMISS","TRT-Sign Missing","2014-12-08T14:10:08.000","2015-01-27T14:10:08.000","MID-TOWN BELVEDERE","14-00917110","MD","CLOSED","2015-01-23T12:33:00.000","21201",NA,NA,NA,-76.6189606,39.3039105
"1200  ORLEANS ST","BALTIMORE","SIGNMISS","TRT-Sign Missing","2014-12-08T13:53:01.000","2015-01-27T13:53:01.000","OLDTOWN","14-00916959","MD","DUPCLOSD","2014-12-08T13:53:01.000","21202",NA,NA,NA,-76.6015287,39.2950056
"S LUZERNE AVE & FLEET ST","BALTIMORE","SIGNMISS","TRT-Sign Missing","2014-12-08T12:50:18.000","2015-01-27T12:50:18.000","CANTON","14-00916476","MD","CLOSED","2015-02-03T12:00:08.000","21224",NA,NA,NA,-76.579917,39.28408
"1360  WINSTON AVE","BALTIMORE","SIGNMISS","TRT-Sign Missing","2014-12-08T07:44:52.000","2015-01-27T07:44:52.000","NEW NORTHWOOD","14-00915777","MD","CLOSED","2015-02-02T17:52:42.000","21239",NA,NA,NA,-76.594204,39.35051
"4800  LOCH RAVEN BLVD","BALTIMORE","SIGNMISS","TRT-Sign Missing","2014-12-08T07:40:39.000","2015-01-27T07:40:39.000","NEW NORTHWOOD","14-00915775","MD","CLOSED","2015-01-27T14:48:17.000","21239",NA,NA,NA,-76.592158,39.348699
"1332 N ELLWOOD AVE","BALTIMORE","SIGNMISS","TRT-Sign Missing","2014-12-05T17:48:15.000","2015-01-24T17:48:15.000","BEREA","14-00913278","MD","CLOSED","2015-02-09T14:58:13.000","21213",NA,NA,NA,-76.574106,39.307103
"SINCLAIR LN & BOWLEYS LN","BALTIMORE","SIGNMISS","TRT-Sign Missing","2014-12-05T16:45:28.000","2015-01-24T16:45:28.000","PARKSIDE","14-00912993","MD","CLOSED","2015-01-23T14:17:48.000","21206",NA,NA,NA,-76.5587112,39.3156267
"BELAIR RD & SHANNON DR","BALTIMORE","SIGNMISS","TRT-Sign Missing","2014-12-05T16:11:29.000","2015-01-24T16:11:29.000","HERRING RUN PARK","14-00912838","MD","O-PENDNG","2014-12-05T16:11:36.000","21206",NA,NA,NA,-76.4688967,39.4084423
"1006  LIGHT ST","BALTIMORE","SIGNMISS","TRT-Sign Missing","2014-12-04T19:25:02.000","2015-01-23T19:25:02.000","FEDERAL HILL","14-00910629","MD","CLOSED","2014-12-11T18:16:02.000","21230",NA,NA,NA,-76.612804,39.2780289
"3100  HARFORD RD","BALTIMORE","SIGNMISS","TRT-Sign Missing","2014-12-04T17:11:26.000","2015-01-23T17:11:26.000","COLDSTREAM HOMESTEAD MONTEBELLO","14-00910080","MD","CLOSED","2015-01-29T13:58:10.000","21218",NA,NA,NA,-76.585718,39.326208
"5100  NELSON AVE","BALTIMORE","SIGNMISS","TRT-Sign Missing","2014-12-04T15:44:45.000","2015-01-23T15:44:45.000","LANGSTON HUGHES","14-00909727","MD","CLOSED","2015-01-09T15:36:48.000","21215",NA,NA,NA,-76.6806919,39.343591
"LYDONLEA WAY & HILLEN RD","BALTIMORE","SIGNMISS","TRT-Sign Missing","2014-12-04T15:07:48.000","2015-01-23T15:07:48.000","LOCH RAVEN","14-00909597","MD","CLOSED","2015-01-29T15:58:18.000","21239",NA,NA,NA,-76.5782408,39.360321
"2600  TALBOT RD","BALTIMORE","SIGNMISS","TRT-Sign Missing","2014-12-03T15:52:28.000","2015-01-22T15:52:28.000","WINDSOR HILLS","14-00906651","MD","CLOSED","2015-03-12T10:22:45.000","21216","Generate Work Order","Sign erected","2015-03-12T10:22:00.000",-76.6898717,39.315207
"HOLLINS FERRY RD & GEHB AVE","SOUTH","SIGNMISS","TRT-Sign Missing","2014-12-03T13:00:43.000","2015-01-22T13:00:43.000","LAKELAND","14-00905576","MD","CLOSED","2015-01-29T17:35:57.000","21230",NA,NA,NA,-76.663282,39.2375785
"W PATAPSCO AVE & POLAR AVE","BALTIMORE","SIGNMISS","TRT-Sign Missing","2014-12-03T12:49:59.000","2015-01-22T12:49:59.000","LAKELAND","14-00905532","MD","CLOSED","2015-02-11T11:33:14.000","21230","Generate Work Order","Sign erected","2015-02-11T11:33:00.000",-76.644183,39.2510515
"1310  RUSSELL ST","BALTIMORE","SIGNMISS","TRT-Sign Missing","2014-12-03T01:44:12.000","2015-01-22T01:44:12.000","CARROLL - CAMDEN INDUSTRIAL AREA","14-00904812","MD","DUPCLOSD","2014-12-03T01:44:12.000","21230",NA,NA,NA,-76.626005,39.276309
"S HILTON ST & MASSACHUSETTS AVE","BALTIMORE","SIGNMISS","TRT-Sign Missing","2014-12-02T14:26:49.000","2015-01-21T14:26:49.000","SAINT JOSEPHS","14-00902959","MD","CLOSED","2015-02-11T13:10:37.000","21229","Generate Work Order","Sign erected","2015-02-11T13:10:00.000",-76.6721125,39.2824341
"PENTWOOD RD & LOCH RAVEN BLVD","BALTIMORE","SIGNMISS","TRT-Sign Missing","2014-12-02T14:01:31.000","2015-01-21T14:01:31.000","NEW NORTHWOOD","14-00902822","MD","DUPCLOSD","2015-01-09T15:26:26.000","21239",NA,NA,NA,-76.59045,39.3484825
"1500 W MOUNT ROYAL AVE","BALTIMORE","SIGNMISS","TRT-Sign Missing","2014-12-01T15:53:24.000","2015-01-20T15:53:24.000","BOLTON HILL","14-00900322","MD","CLOSED","2014-12-11T13:43:03.000","21217",NA,NA,NA,-76.623337,39.309064
"RAMSAY ST &S NORRIS ST","BALTIMORE","SIGNMISS","TRT-Sign Missing","2014-12-01T15:30:02.000","2015-01-20T15:30:02.000","NEW SOUTHWEST/MOUNT CLARE","14-00900221","MD","CLOSED","2014-12-08T16:27:34.000","21223",NA,NA,NA,-76.6399672,39.2833754
"2521  WASHINGTON BLVD","BALTIMORE","SIGNMISS","TRT-Sign Missing","2014-12-01T15:29:29.000","2015-01-20T15:29:29.000","MORRELL PARK","14-00900217","MD","DUPCLOSD","2014-12-01T15:29:29.000","21230",NA,NA,NA,-76.65249,39.266306
"3100  GRINDON AVE","BALTIMORE","SIGNMISS","TRT-Sign Missing","2014-12-01T13:26:26.000","2015-01-20T13:26:26.000","BEVERLY HILLS","14-00899303","MD","CLOSED","2015-01-23T13:00:23.000","21214",NA,NA,NA,-76.568288,39.340877
"2701  SAINT PAUL ST","BALTIMORE","SIGNMISS","TRT-Sign Missing","2014-11-29T20:22:43.000","2015-01-18T20:22:43.000","CHARLES VILLAGE","14-00897381","MD","CLOSED","2014-12-10T12:42:45.000","21218","Dispatch Investigator","Sign already exists","2014-12-10T12:38:00.000",-76.615244,39.320833
"1900  ELGIN AVE","BALTIMORE","SIGNMISS","TRT-Sign Missing","2014-11-29T12:19:53.000","2015-01-18T12:19:53.000","MONDAWMIN","14-00896296","MD","CLOSED","2014-12-18T13:20:08.000","21217",NA,NA,NA,-76.6495221,39.3140078
