"address","city","code","codedescription","createddate","duedate","neighborhood","servicerequestnum","state","status","statusdate","zip","activity","outcome","updateddate","i","lon","lat"
"318  KERNEWAY","BALTIMORE","STREETRE","TRM-Street Repairs","2015-05-12T00:49:36.000","2015-06-21T00:49:36.000","KERNEWOOD","15-00369367","MD","NEW","2015-05-12T00:49:36.000","21212",NA,NA,NA,1,-76.61248,39.346949
"2000  WINFORD RD","BALTIMORE","STREETRE","TRM-Street Repairs","2015-05-11T20:34:26.000","2015-06-20T20:34:26.000","PERRING LOCH","15-00368932","MD","NEW","2015-05-11T20:34:26.000","21239",NA,NA,NA,1,-76.5815444,39.3522745
"5200  GOODNOW RD","BALTIMORE","STREETRE","TRM-Street Repairs","2015-05-11T16:50:27.000","2015-06-20T16:50:27.000","FRANKFORD","15-00367960","MD","CLOSED","2015-05-11T16:51:54.000","21206","Dispatch Work Crew","Abated - Close SR","2015-05-11T16:51:00.000",1,-76.5437854,39.3258818
"3206  ORLANDO AVE","BALTIMORE","STREETRE","TRM-Street Repairs","2015-05-11T16:48:24.000","2015-06-20T16:48:24.000","WOODRING","15-00367951","MD","CLOSED","2015-05-11T16:49:20.000","21234","Dispatch Work Crew","Abated - Close SR","2015-05-11T16:49:00.000",1,-76.542703,39.365524
"3814  OVERLEA AVE","BALTIMORE","STREETRE","TRM-Street Repairs","2015-05-11T16:44:18.000","2015-06-20T16:44:18.000","OVERLEA","15-00367934","MD","CLOSED","2015-05-11T16:46:42.000","21206","Dispatch Work Crew","Abated - Close SR","2015-05-11T16:46:00.000",1,-76.5334158,39.3587952
"W COLD SPRING LN & GRAND VIEW AVE","BALTIMORE","STREETRE","TRM-Street Repairs","2015-05-11T14:48:47.000","2015-06-20T14:48:47.000","MEDFIELD","15-00367318","MD","CLOSED","2015-05-11T18:52:09.000","21209","Dispatch Work Crew","Abated - Close SR","2015-05-11T18:52:00.000",1,-76.6556844,39.3417832
"OAKMONT AVE & BEAUFORT AVE","BALTIMORE","STREETRE","TRM-Street Repairs","2015-05-11T13:49:54.000","2015-06-20T13:49:54.000","CENTRAL PARK HEIGHTS","15-00367058","MD","CLOSED","2015-05-11T18:50:32.000","21215","Dispatch Work Crew","Abated - Close SR","2015-05-11T18:50:00.000",1,-71.906629,42.572765
"2508 N CHARLES ST","BALTIMORE","STREETRE","TRM-Street Repairs","2015-05-11T11:24:17.000","2015-06-20T11:24:17.000","CHARLES VILLAGE","15-00366255","MD","CLOSED","2015-05-11T17:53:32.000","21218","Dispatch Work Crew","Abated - Close SR","2015-05-11T17:53:00.000",1,-76.6173466,39.3184623
"3011  GUILFORD AVE","BALTIMORE","STREETRE","TRM-Street Repairs","2015-05-11T11:16:24.000","2015-06-20T11:16:24.000","ABELL","15-00366230","MD","NEW","2015-05-11T11:16:24.000","21218",NA,NA,NA,1,-76.613019,39.324964
"4300  PARKSIDE DR","BALTIMORE","STREETRE","TRM-Street Repairs","2015-05-11T10:10:20.000","2015-06-20T10:10:20.000","BELAIR-EDISON","15-00366094","MD","NEW","2015-05-11T10:10:20.000","21206",NA,NA,NA,1,-76.564068,39.326598
"3700  PARKSIDE DR","BALTIMORE","STREETRE","TRM-Street Repairs","2015-05-11T10:08:38.000","2015-06-20T10:08:38.000","ARCADIA","15-00366090","MD","NEW","2015-05-11T10:08:38.000","21206",NA,NA,NA,1,-76.569021,39.33195
"3172  RAVENWOOD AVE","BALTIMORE","STREETRE","TRM-Street Repairs","2015-05-10T23:29:20.000","2015-06-19T23:29:20.000","FOUR BY FOUR","15-00365947","MD","NEW","2015-05-10T23:29:20.000","21213",NA,NA,NA,1,-76.5787288,39.3154732
"200 E MELROSE AVE","BALTIMORE","STREETRE","TRM-Street Repairs","2015-05-10T21:18:19.000","2015-06-19T21:18:19.000","LAKE EVESHAM","15-00365866","MD","NEW","2015-05-10T21:18:19.000","21212",NA,NA,NA,1,-76.6173338,39.3666898
"3716  FALLS RD","BALTIMORE","STREETRE","TRM-Street Repairs","2015-05-10T16:50:25.000","2015-06-19T16:50:25.000","HAMPDEN","15-00365623","MD","CLOSED","2015-05-11T15:48:54.000","21211","Dispatch Work Crew","Closed","2015-05-11T15:48:00.000",1,-76.6357892,39.3330755
"N ROGERS AVE & WABASH AVE","BALTIMORE","STREETRE","TRM-Street Repairs","2015-05-10T15:35:49.000","2015-06-19T15:35:49.000","WOODMERE","15-00365534","MD","CLOSED","2015-05-11T15:33:26.000","21215","Dispatch Work Crew","Closed","2015-05-11T15:33:00.000",1,-76.7017336,39.3367785
"1342  BERRY ST","BALTIMORE","STREETRE","TRM-Street Repairs","2015-05-10T12:25:19.000","2015-06-19T12:25:19.000","HAMPDEN","15-00365376","MD","CLOSED","2015-05-11T16:22:51.000","21211","Dispatch Work Crew","Abated - Close SR","2015-05-11T16:22:00.000",1,-76.638368,39.331487
"4906  BOWLAND AVE","BALTIMORE","STREETRE","TRM-Street Repairs","2015-05-09T20:59:56.000","2015-06-18T20:59:56.000","FRANKFORD","15-00365035","MD","NEW","2015-05-09T20:59:56.000","21206",NA,NA,NA,1,-76.5492208,39.3200347
"MORAVIA RD & SINCLAIR LN","BALTIMORE","STREETRE","TRM-Street Repairs","2015-05-09T20:58:55.000","2015-06-18T20:58:55.000","FRANKFORD","15-00365034","MD","NEW","2015-05-09T20:58:55.000","21206",NA,NA,NA,1,-76.5477562,39.3201996
"5510  TRAMORE RD","BALTIMORE","STREETRE","TRM-Street Repairs","2015-05-09T20:15:21.000","2015-06-18T20:15:21.000","HARFORD-ECHODALE/PERRING PARKWAY","15-00364991","MD","NEW","2015-05-09T20:15:21.000","21214",NA,NA,NA,1,-76.567456,39.3569559
"5700  THE ALAMEDA","BALTIMORE","STREETRE","TRM-Street Repairs","2015-05-09T15:47:43.000","2015-06-18T15:47:43.000","GLEN OAKS","15-00364466","MD","NEW","2015-05-09T15:47:43.000","21239",NA,NA,NA,1,-76.5944342,39.3610455
"1909  SULGRAVE AVE","BALTIMORE","STREETRE","TRM-Street Repairs","2015-05-09T00:43:52.000","2015-06-18T00:43:52.000","MOUNT WASHINGTON","15-00362742","MD","CLOSED","2015-05-11T11:53:37.000","21209","Dispatch Work Crew","Closed","2015-05-11T11:53:00.000",1,-76.657287,39.364755
"3301  FALLS CLIFF RD","BALTIMORE","STREETRE","TRM-Street Repairs","2015-05-08T17:01:19.000","2015-06-17T17:01:19.000","HAMPDEN","15-00361169","MD","CLOSED","2015-05-11T15:41:48.000","21211","Dispatch Work Crew","Closed","2015-05-11T15:41:00.000",1,-76.6319626,39.3270338
"2539 N HOWARD ST","BALTIMORE","STREETRE","TRM-Street Repairs","2015-05-08T12:52:47.000","2015-06-17T12:52:47.000","CHARLES VILLAGE","15-00359976","MD","CLOSED","2015-05-08T17:29:21.000","21218","Dispatch Work Crew","Abated - Close SR","2015-05-08T17:28:00.000",1,-76.619503,39.318633
"SINCLAIR LN & BRENDAN AVE","BALTIMORE","STREETRE","TRM-Street Repairs","2015-05-08T12:17:01.000","2015-06-17T12:17:01.000","CLAREMONT-FREEDOM","15-00359732","MD","NEW","2015-05-08T12:17:01.000","21213",NA,NA,NA,1,-76.5587112,39.3156267
"3700 W ROGERS AVE","BALTIMORE","STREETRE","TRM-Street Repairs","2015-05-08T10:41:18.000","2015-06-17T10:41:18.000","ARLINGTON","15-00359425","MD","CLOSED","2015-05-08T15:08:20.000","21215","Dispatch Work Crew","Abated - Close SR","2015-05-08T15:07:00.000",1,-76.685126,39.35111
"3600  HOOPER AVE","BALTIMORE","STREETRE","TRM-Street Repairs","2015-05-07T23:04:44.000","2015-06-16T23:04:44.000","WOODBERRY","15-00359070","MD","CLOSED","2015-05-08T17:21:07.000","21211","Dispatch Work Crew","Abated - Close SR","2015-05-08T17:19:00.000",1,-76.647359,39.332824
"2010 W 41ST ST","BALTIMORE","STREETRE","TRM-Street Repairs","2015-05-07T22:44:22.000","2015-06-16T22:44:22.000","WOODBERRY","15-00359033","MD","CLOSED","2015-05-08T17:18:11.000","21211","Dispatch Work Crew","Abated - Close SR","2015-05-08T17:17:00.000",1,-76.6471358,39.3335024
"5600  WESLEY AVE","BALTIMORE","STREETRE","TRM-Street Repairs","2015-05-07T21:03:56.000","2015-06-16T21:03:56.000","HOWARD PARK","15-00358856","MD","DUPCLOSD","2015-05-08T15:50:30.000","21207",NA,NA,NA,1,-76.7087144,39.3333889
"5600  FERNPARK AVE","BALTIMORE","STREETRE","TRM-Street Repairs","2015-05-07T21:02:14.000","2015-06-16T21:02:14.000","HOWARD PARK","15-00358850","MD","CLOSED","2015-05-08T15:53:21.000","21207","Dispatch Work Crew","Abated - Close SR","2015-05-08T15:52:00.000",1,-76.7093529,39.332448
"4300  LIBERTY HEIGHTS AVE","BALTIMORE","STREETRE","TRM-Street Repairs","2015-05-07T19:53:46.000","2015-06-16T19:53:46.000","DORCHESTER","15-00358620","MD","CLOSED","2015-05-08T15:54:27.000","21207","Dispatch Work Crew","Abated - Close SR","2015-05-08T15:54:00.000",1,-76.689884,39.3299809
"6100  EDLYNNE RD","BALTIMORE","STREETRE","TRM-Street Repairs","2015-05-07T17:42:03.000","2015-06-16T17:42:03.000","GLEN OAKS","15-00358075","MD","NEW","2015-05-07T17:42:03.000","21239",NA,NA,NA,1,-76.594652,39.367399
"12  WENDOVER RD","BALTIMORE","STREETRE","TRM-Street Repairs","2015-05-07T16:59:32.000","2015-06-16T16:59:32.000","GUILFORD","15-00357903","MD","NEW","2015-05-07T16:59:32.000","21218",NA,NA,NA,1,-76.61677,39.337936
"2900  LIBERTY HEIGHTS AVE","BALTIMORE","STREETRE","TRM-Street Repairs","2015-05-07T16:25:31.000","2015-06-16T16:25:31.000","PARK CIRCLE","15-00357763","MD","CLOSED","2015-05-08T15:55:35.000","21215","Dispatch Work Crew","Abated - Close SR","2015-05-08T15:55:00.000",1,-76.6632486,39.3231882
"E 29TH ST &N CHARLES ST","BALTIMORE","STREETRE","TRM-Street Repairs","2015-05-07T13:11:37.000","2015-06-16T13:11:37.000","CHARLES VILLAGE","15-00356917","MD","NEW","2015-05-07T13:11:37.000","21218",NA,NA,NA,1,-79.3424056,37.7448579
"1600  COLE ST","BALTIMORE","STREETRE","TRM-Street Repairs","2015-05-06T20:24:50.000","2015-06-15T20:24:50.000","NEW SOUTHWEST/MOUNT CLARE","15-00355663","MD","CLOSED","2015-05-06T20:26:20.000","21223",NA,NA,NA,1,-76.6423985,39.2823533
"6900  PARK HEIGHTS AVE","BALTIMORE","STREETRE","TRM-Street Repairs","2015-05-06T19:53:49.000","2015-06-15T19:53:49.000","FALLSTAFF","15-00355581","MD","CLOSED","2015-05-07T14:32:01.000",NA,"Dispatch Work Crew","Abated - Close SR","2015-05-07T14:31:00.000",1,-76.7043095,39.3645245
"500  NORTH POINT RD","BALTIMORE","STREETRE","TRM-Street Repairs","2015-05-06T19:35:54.000","2015-06-15T19:35:54.000","PULASKI INDUSTRIAL AREA","15-00355498","MD","CLOSED","2015-05-11T13:07:00.000","21237","Dispatch Work Crew","Abated - Close SR","2015-05-11T13:05:00.000",1,-76.5184951,39.2924815
"5902  ROLAND AVE","BALTIMORE","STREETRE","TRM-Street Repairs","2015-05-06T19:24:55.000","2015-06-15T19:24:55.000","NORTH ROLAND PARK/POPLAR HILL","15-00355391","MD","CLOSED","2015-05-07T18:26:03.000","21210","Dispatch Work Crew","Abated - Close SR","2015-05-07T18:26:00.000",1,-76.6340309,39.37003
"4400 N ROGERS AVE","BALTIMORE","STREETRE","TRM-Street Repairs","2015-05-06T18:49:35.000","2015-06-15T18:49:35.000","GROVE PARK","15-00355276","MD","CLOSED","2015-05-07T14:47:11.000","21215","Dispatch Work Crew","Abated - Close SR","2015-05-07T14:46:00.000",1,-76.6950307,39.3425436
"W NORTHERN PKWY & PARK HEIGHTS AVE","BALTIMORE","STREETRE","TRM-Street Repairs","2015-05-06T13:23:22.000","2015-06-15T13:23:22.000","ARLINGTON","15-00353644","MD","CLOSED","2015-05-06T17:18:10.000","21215","Dispatch Work Crew","Abated - Close SR","2015-05-06T17:18:00.000",1,-76.6656161,39.3557104
"2808  STEELE RD","BALTIMORE","STREETRE","TRM-Street Repairs","2015-05-06T11:23:10.000","2015-06-15T11:23:10.000","CHESWOLDE","15-00352858","MD","DUPCLOSD","2015-05-06T15:33:46.000","21209",NA,NA,NA,1,-76.681101,39.363294
"1700 W SARATOGA ST","BALTIMORE","STREETRE","TRM-Street Repairs","2015-05-06T10:55:34.000","2015-06-15T10:55:34.000","FRANKLIN SQUARE","15-00352778","MD","CLOSED","2015-05-06T19:02:17.000","21223","Dispatch Work Crew","Abated - Close SR","2015-05-06T19:01:00.000",1,-76.6446683,39.292091
"2901  ROSALIND AVE","BALTIMORE","STREETRE","TRM-Street Repairs","2015-05-06T00:03:31.000","2015-06-15T00:03:31.000","CYLBURN","15-00352079","MD","CLOSED","2015-05-06T16:17:00.000","21215","Dispatch Work Crew","Closed","2015-05-06T16:16:00.000",1,-76.663901,39.345645
"3300  OAKFIELD AVE","BALTIMORE","STREETRE","TRM-Street Repairs","2015-05-05T16:12:43.000","2015-06-14T16:12:43.000","CENTRAL FOREST PARK","15-00350339","MD","CLOSED","2015-05-06T15:36:38.000","21207","Dispatch Work Crew","Abated - Close SR","2015-05-06T15:36:00.000",1,-76.687217,39.3249489
"3305  MARY AVE","BALTIMORE","STREETRE","TRM-Street Repairs","2015-05-05T14:43:41.000","2015-06-14T14:43:41.000","GLENHAM-BELFORD","15-00349978","MD","NEW","2015-05-05T14:43:41.000","21214",NA,NA,NA,1,-76.552947,39.3523799
"DRUID HILL AVE & CLOVERDALE RD","BALTIMORE","STREETRE","TRM-Street Repairs","2015-05-05T14:21:36.000","2015-06-14T14:21:36.000","PENN NORTH","15-00349861","MD","CLOSED","2015-05-05T18:14:56.000","21217","Dispatch Work Crew","Abated - Close SR","2015-05-05T18:14:00.000",1,-76.6333944,39.3059281
"5500  CEDONIA AVE","BALTIMORE","STREETRE","TRM-Street Repairs","2015-05-04T12:42:28.000","2015-06-13T12:42:28.000","CEDONIA","15-00345649","MD","NEW","2015-05-04T12:42:28.000","21206",NA,NA,NA,1,-76.532955,39.333654
"4501  HAMPNETT AVE","BALTIMORE","STREETRE","TRM-Street Repairs","2015-05-04T20:42:07.000","2015-06-13T20:42:07.000","LAURAVILLE","15-00348277","MD","NEW","2015-05-05T00:39:17.000","21214",NA,NA,NA,1,-76.572693,39.3409059
"1802 N SMALLWOOD ST","BALTIMORE","STREETRE","TRM-Street Repairs","2015-05-04T19:36:50.000","2015-06-13T19:36:50.000","COPPIN HEIGHTS/ASH-CO-EAST","15-00348099","MD","CLOSED","2015-05-11T18:21:24.000","21216","Dispatch Inspector","Abated - Close SR","2015-05-11T18:21:00.000",1,-76.652944,39.308769
"4300  FAIRVIEW AVE","BALTIMORE","STREETRE","TRM-Street Repairs","2015-05-04T18:33:29.000","2015-06-13T18:33:29.000","WEST FOREST PARK","15-00347800","MD","CLOSED","2015-05-05T14:27:26.000","21216","Dispatch Work Crew","Abated - Close SR","2015-05-05T14:27:00.000",1,-76.689507,39.322182
"3100  BOWERS AVE","BALTIMORE","STREETRE","TRM-Street Repairs","2015-05-04T17:43:01.000","2015-06-13T17:43:01.000","HOWARD PARK","15-00347567","MD","CLOSED","2015-05-05T15:56:07.000","21207","Dispatch Work Crew","Abated - Close SR","2015-05-05T15:55:00.000",1,-76.7091035,39.3298281
"HILLSDALE RD & CARLEVIEW RD","BALTIMORE","STREETRE","TRM-Street Repairs","2015-05-04T15:59:29.000","2015-06-13T15:59:29.000","FOREST PARK GOLF COURSE","15-00347048","MD","CLOSED","2015-05-04T16:44:00.000","21207","Dispatch Work Crew","Abated - Close SR","2015-05-04T16:43:00.000",1,-73.4498074,42.1658737
"2500  LINDEN AVE","BALTIMORE","STREETRE","TRM-Street Repairs","2015-05-04T14:47:00.000","2015-06-13T14:47:00.000","RESERVOIR HILL","15-00346582","MD","CLOSED","2015-05-04T16:52:56.000","21217","Dispatch Work Crew","Abated - Close SR","2015-05-04T16:52:00.000",1,-76.636463,39.315412
"SMITH AVE & FALLS RD","BALTIMORE","STREETRE","TRM-Street Repairs","2015-05-04T14:39:29.000","2015-06-13T14:39:29.000","SABINA-MATTFELDT","15-00346519","MD","DUPCLOSD","2015-05-04T17:58:02.000","21209",NA,NA,NA,1,-99.8614074,40.5906869
"1500  UPSHIRE RD","BALTIMORE","STREETRE","TRM-Street Repairs","2015-05-04T13:10:40.000","2015-06-13T13:10:40.000","EDNOR GARDENS-LAKESIDE","15-00345799","MD","NEW","2015-05-04T13:10:40.000","21218",NA,NA,NA,1,-76.5951256,39.3339161
"6100  MACBETH DR","BALTIMORE","STREETRE","TRM-Street Repairs","2015-05-04T12:26:48.000","2015-06-13T12:26:48.000","GLEN OAKS","15-00345532","MD","NEW","2015-05-04T12:26:48.000","21239",NA,NA,NA,1,-76.5987006,39.3678228
"6000  PERRING PKWY","BALTIMORE","STREETRE","TRM-Street Repairs","2015-05-04T11:37:29.000","2015-06-13T11:37:29.000","MT PLEASANT PARK","15-00345311","MD","NEW","2015-05-04T11:37:29.000","21239",NA,NA,NA,1,-76.573328,39.3634749
"5505  STUART AVE","BALTIMORE","STREETRE","TRM-Street Repairs","2015-05-03T22:21:55.000","2015-06-12T22:21:55.000","MOUNT WASHINGTON","15-00344787","MD","CLOSED","2015-05-04T16:18:54.000","21215","Dispatch Work Crew","Abated - Close SR","2015-05-04T16:18:00.000",1,-76.673079,39.357267
"2100 N HILTON ST","BALTIMORE","STREETRE","TRM-Street Repairs","2015-05-03T20:18:40.000","2015-06-12T20:18:40.000","WALBROOK","15-00344692","MD","CLOSED","2015-05-04T15:12:39.000","21216","Dispatch Work Crew","Abated - Close SR","2015-05-04T15:11:00.000",1,-76.6725376,39.3110814
"HILLSDALE RD & CARLEVIEW RD","BALTIMORE","STREETRE","TRM-Street Repairs","2015-05-03T15:35:34.000","2015-06-12T15:35:34.000","FOREST PARK GOLF COURSE","15-00344384","MD","CLOSED","2015-05-04T15:17:15.000","21207","Dispatch Work Crew","Abated - Close SR","2015-05-04T15:16:00.000",1,-73.4498074,42.1658737
"1700  WINFORD RD","BALTIMORE","STREETRE","TRM-Street Repairs","2015-05-02T19:34:33.000","2015-06-11T19:34:33.000","PERRING LOCH","15-00343492","MD","NEW","2015-05-02T19:34:33.000","21239",NA,NA,NA,1,-76.58339,39.352886
"WINDSOR MILL RD & WHEATLEY DR","BALTIMORE","STREETRE","TRM-Street Repairs","2015-05-02T19:15:45.000","2015-06-11T19:15:45.000","WAKEFIELD","15-00343469","MD","CLOSED","2015-05-06T17:24:54.000","21207","Dispatch Work Crew","Abated - Close SR","2015-05-06T17:24:00.000",1,-72.3750834,43.5193237
"3609  DENNLYN RD","BALTIMORE","STREETRE","TRM-Street Repairs","2015-05-01T21:26:46.000","2015-06-10T21:26:46.000","ASHBURTON","15-00342268","MD","CLOSED","2015-05-04T15:19:26.000","21215","Dispatch Work Crew","Abated - Close SR","2015-05-04T15:18:00.000",1,-76.66658,39.326624
"PINKNEY RD & WIRT AVE","BALTIMORE","STREETRE","TRM-Street Repairs","2015-05-01T21:02:21.000","2015-06-10T21:02:21.000","CROSS COUNTRY","15-00342224","MD","CLOSED","2015-05-04T16:17:04.000","21215","Dispatch Work Crew","Abated - Close SR","2015-05-04T16:16:00.000",1,-78.0751703,35.5248383
"6713  DANVILLE AVE","BALTIMORE","STREETRE","TRM-Street Repairs","2015-05-01T19:50:19.000","2015-06-10T19:50:19.000","GRACELAND PARK","15-00342084","MD","DUPCLOSD","2015-05-06T19:03:46.000","21222",NA,NA,NA,1,-76.530878,39.276275
"3800 W BELVEDERE AVE","BALTIMORE","STREETRE","TRM-Street Repairs","2015-05-01T17:39:19.000","2015-06-10T17:39:19.000","ARLINGTON","15-00341619","MD","CLOSED","2015-05-04T18:00:18.000","21215","Dispatch Work Crew","Abated - Close SR","2015-05-04T18:00:00.000",1,-76.682542,39.345213
"4300  NORFOLK AVE","BALTIMORE","STREETRE","TRM-Street Repairs","2015-05-01T16:32:22.000","2015-06-10T16:32:22.000","WEST FOREST PARK","15-00341399","MD","CLOSED","2015-05-04T16:48:35.000","21216","Dispatch Work Crew","Abated - Close SR","2015-05-04T16:48:00.000",1,-76.689886,39.3229169
"2300  CHELSEA TER","BALTIMORE","STREETRE","TRM-Street Repairs","2015-05-01T13:51:57.000","2015-06-10T13:51:57.000","WINDSOR HILLS","15-00340829","MD","CLOSED","2015-05-01T17:49:04.000","21216","Dispatch Work Crew","Abated - Close SR","2015-05-01T17:48:00.000",1,-76.681502,39.314213
"3600  DENNLYN RD","BALTIMORE","STREETRE","TRM-Street Repairs","2015-05-01T12:54:09.000","2015-06-10T12:54:09.000","ASHBURTON","15-00340553","MD","CLOSED","2015-05-01T15:55:56.000","21215","Dispatch Work Crew","Abated - Close SR","2015-05-01T15:55:00.000",1,-76.6673859,39.326258
"3201  FALLS CLIFF RD","BALTIMORE","STREETRE","TRM-Street Repairs","2015-04-30T18:09:59.000","2015-06-09T18:09:59.000","HAMPDEN","15-00338852","MD","CLOSED","2015-05-01T17:55:27.000","21211","Dispatch Work Crew","Abated - Close SR","2015-05-01T17:54:00.000",1,-76.6318566,39.3263953
"3100  FALLS CLIFF RD","BALTIMORE","STREETRE","TRM-Street Repairs","2015-04-30T18:09:31.000","2015-06-09T18:09:31.000","HAMPDEN","15-00338849","MD","CLOSED","2015-05-01T17:52:59.000","21211","Dispatch Work Crew","Abated - Close SR","2015-05-01T17:52:00.000",1,-76.632314,39.3259877
"2600  QUANTICO AVE","BALTIMORE","STREETRE","TRM-Street Repairs","2015-04-30T14:55:38.000","2015-06-09T14:55:38.000","GREENSPRING","15-00338095","MD","CLOSED","2015-04-30T17:17:12.000","21215","Dispatch Work Crew","Abated - Close SR","2015-04-30T17:17:00.000",1,-76.661273,39.338125
"1806  SOUTH RD","BALTIMORE","STREETRE","TRM-Street Repairs","2015-04-30T10:58:11.000","2015-06-09T10:58:11.000","MOUNT WASHINGTON","15-00336892","MD","CLOSED","2015-04-30T18:00:38.000","21209","Dispatch Work Crew","Abated - Close SR","2015-04-30T18:00:00.000",1,-76.654818,39.365365
"5324  LIBERTY HEIGHTS AVE","BALTIMORE","STREETRE","TRM-Street Repairs","2015-04-29T19:52:14.000","2015-06-08T19:52:14.000","HOWARD PARK","15-00336019","MD","DUPCLOSD","2015-04-30T16:23:20.000","21207",NA,NA,NA,1,-76.703804,39.334262
"5700  RUSK AVE","BALTIMORE","STREETRE","TRM-Street Repairs","2015-04-29T15:53:54.000","2015-06-08T15:53:54.000","MOUNT WASHINGTON","15-00334835","MD","DUPCLOSD","2015-04-30T15:48:20.000","21215",NA,NA,NA,1,-76.673224,39.360088
"2404  LARRYVALE RD","BALTIMORE","STREETRE","TRM-Street Repairs","2015-04-29T12:53:01.000","2015-06-08T12:53:01.000","CHESWOLDE","15-00333997","MD","DUPCLOSD","2015-04-30T18:02:59.000","21209",NA,NA,NA,1,-76.680058,39.371469
"W STRATHMORE AVE & HOPETON AVE","BALTIMORE","STREETRE","TRM-Street Repairs","2015-04-29T12:31:24.000","2015-06-08T12:31:24.000","GLEN","15-00333901","MD","CLOSED","2015-04-29T17:44:29.000","21215","Dispatch Work Crew","Abated - Close SR","2015-04-29T17:44:00.000",1,-76.69253,39.3609649
"2522 W COLD SPRING LN","BALTIMORE","STREETRE","TRM-Street Repairs","2015-04-29T09:50:03.000","2015-06-08T09:50:03.000","PARKLANE","15-00333396","MD","CLOSED","2015-04-29T13:44:57.000","21215","Dispatch Work Crew","Abated - Close SR","2015-04-29T13:44:00.000",1,-76.662544,39.340943
"SEVEN MILE LN & BONFIELD RD","BALTIMORE","STREETRE","TRM-Street Repairs","2015-04-28T22:52:18.000","2015-06-07T22:52:18.000","CROSS COUNTRY","15-00332956","MD","CLOSED","2015-04-30T11:57:29.000","21208","Dispatch Work Crew","Abated - Close SR","2015-04-30T11:56:00.000",1,0.3668365,51.2590388
"5200  SAINT CHARLES AVE","BALTIMORE","STREETRE","TRM-Street Repairs","2015-04-28T21:44:49.000","2015-06-07T21:44:49.000","WOODMERE","15-00332789","MD","CLOSED","2015-04-30T11:55:29.000","21215","Dispatch Work Crew","Abated - Close SR","2015-04-30T11:55:00.000",1,-76.6830007,39.3443779
"3926  EDGEWOOD RD","BALTIMORE","STREETRE","TRM-Street Repairs","2015-04-28T20:34:59.000","2015-06-07T20:34:59.000","EAST ARLINGTON","15-00332623","MD","CLOSED","2015-04-29T14:43:55.000","21215","Dispatch Work Crew","Abated - Close SR","2015-04-29T14:43:00.000",1,-76.669562,39.331807
"400  YALE AVE","BALTIMORE","STREETRE","TRM-Street Repairs","2015-04-28T20:25:12.000","2015-06-07T20:25:12.000","IRVINGTON","15-00332605","MD","CLOSED","2015-05-05T17:16:32.000","21229","Dispatch Inspector","Abated - Close SR","2015-05-05T17:16:00.000",1,-76.6855225,39.2798272
"4001  PRIMROSE AVE","BALTIMORE","STREETRE","TRM-Street Repairs","2015-04-28T14:47:20.000","2015-06-07T14:47:20.000","GLEN","15-00331125","MD","CLOSED","2015-04-28T15:21:13.000","21215","Dispatch Work Crew","Abated - Close SR","2015-04-28T15:20:00.000",1,-76.692623,39.351148
"1532  RALWORTH RD","BALTIMORE","STREETRE","TRM-Street Repairs","2015-04-27T18:02:50.000","2015-06-06T18:02:50.000","HILLEN","15-00328882","MD","NEW","2015-04-27T18:03:25.000","21218",NA,NA,NA,1,-76.5917829,39.3395061
"W NORTHERN PKWY &W BELVEDERE AVE","BALTIMORE","STREETRE","TRM-Street Repairs","2015-04-27T15:13:00.000","2015-06-06T15:13:00.000","COLDSPRING","15-00327952","MD","CLOSED","2015-04-27T18:21:32.000","21209","Dispatch Work Crew","Abated - Close SR","2015-04-27T18:21:00.000",1,-76.6656161,39.3557104
"300 S BRUCE ST","BALTIMORE","STREETRE","TRM-Street Repairs","2015-04-27T14:27:32.000","2015-06-06T14:27:32.000","NEW SOUTHWEST/MOUNT CLARE","15-00327720","MD","CLOSED","2015-05-07T17:33:24.000","21223","Dispatch Inspector","Abated - Close SR","2015-05-07T17:33:00.000",1,-76.6442809,39.2843303
"2100 N SMALLWOOD ST","BALTIMORE","STREETRE","TRM-Street Repairs","2015-04-27T12:10:23.000","2015-06-06T12:10:23.000","MONDAWMIN","15-00326591","MD","DUPCLOSD","2015-04-27T18:24:20.000","21216",NA,NA,NA,1,-76.65312,39.311869
"3721  HILLSDALE RD","BALTIMORE","STREETRE","TRM-Street Repairs","2015-04-27T11:50:58.000","2015-06-06T11:50:58.000","HOWARD PARK","15-00326498","MD","CLOSED","2015-04-28T15:05:10.000","21207","Dispatch Work Crew","Abated - Close SR","2015-04-28T15:04:00.000",1,-76.692265,39.334035
"2400 W COLD SPRING LN","BALTIMORE","STREETRE","TRM-Street Repairs","2015-04-27T11:05:53.000","2015-06-06T11:05:53.000","PARKLANE","15-00326323","MD","CLOSED","2015-04-27T14:40:58.000","21215","Dispatch Work Crew","Abated - Close SR","2015-04-27T14:40:00.000",1,-76.65909,39.340984
"3700  GRANADA AVE","BALTIMORE","STREETRE","TRM-Street Repairs","2015-04-26T19:38:26.000","2015-06-05T19:38:26.000","DORCHESTER","15-00325900","MD","CLOSED","2015-04-27T14:11:44.000","21207","Dispatch Work Crew","Abated - Close SR","2015-04-27T14:11:00.000",1,-76.6870336,39.3309181
"3400  OAKFIELD AVE","BALTIMORE","STREETRE","TRM-Street Repairs","2015-04-26T19:38:02.000","2015-06-05T19:38:02.000","CENTRAL FOREST PARK","15-00325898","MD","CLOSED","2015-04-27T14:08:38.000","21207","Dispatch Work Crew","Abated - Close SR","2015-04-27T14:00:00.000",1,-76.686723,39.326125
"309  CATHEDRAL ST","BALTIMORE","STREETRE","TRM-Street Repairs","2015-04-25T20:53:45.000","2015-06-04T20:53:45.000","DOWNTOWN","15-00324952","MD","CLOSED","2015-05-08T18:49:57.000","21201","Generate Work Order","Abated - Close SR","2015-05-08T18:49:00.000",1,-76.616478,39.293462
"100  WYNDHURST AVE","BALTIMORE","STREETRE","TRM-Street Repairs","2015-04-25T17:13:13.000","2015-06-04T17:13:13.000","WYNDHURST","15-00324691","MD","CLOSED","2015-04-27T16:20:51.000","21210","Dispatch Work Crew","Abated - Close SR","2015-04-27T16:20:00.000",1,-76.6256499,39.353923
"100 W NORTHERN PKWY","BALTIMORE","STREETRE","TRM-Street Repairs","2015-04-25T15:35:50.000","2015-06-04T15:35:50.000","THE ORCHARDS","15-00324513","MD","CLOSED","2015-04-28T18:55:20.000","21210","Dispatch Work Crew","Abated - Close SR","2015-04-28T18:55:00.000",1,-76.62775,39.362204
"W PATAPSCO AVE & POTEE ST","BALTIMORE","STREETRE","TRM-Street Repairs","2015-04-25T11:31:37.000","2015-06-04T11:31:37.000","BROOKLYN","15-00324033","MD","DUPCLOSD","2015-05-06T18:57:05.000","21225",NA,NA,NA,1,-76.644183,39.2510515
"3300  SEVEN MILE LN","BALTIMORE","STREETRE","TRM-Street Repairs","2015-04-24T20:37:20.000","2015-06-03T20:37:20.000","CROSS COUNTRY","15-00323589","MD","CLOSED","2015-04-27T16:54:21.000","21208","Dispatch Work Crew","Abated - Close SR","2015-04-27T16:54:00.000",1,-76.7050692,39.3715659
"I 83 N &W NORTHERN PKWY","BALTIMORE","STREETRE","TRM-Street Repairs","2015-04-24T20:15:48.000","2015-06-03T20:15:48.000","CROSS KEYS","15-00323544","MD","CLOSED","2015-04-28T18:54:05.000","21210","Dispatch Work Crew","Abated - Close SR","2015-04-28T18:54:00.000",1,-100.7876126,50.2258272
"BONFIELD RD & SEVEN MILE LN","BALTIMORE","STREETRE","TRM-Street Repairs","2015-04-24T19:43:20.000","2015-06-03T19:43:20.000","CROSS COUNTRY","15-00323464","MD","CLOSED","2015-04-27T16:55:39.000","21208","Dispatch Work Crew","Abated - Close SR","2015-04-27T16:55:00.000",1,-76.7058612,39.3703569
"1348  KITMORE RD","BALTIMORE","STREETRE","TRM-Street Repairs","2015-04-24T18:19:03.000","2015-06-03T18:19:03.000","NEW NORTHWOOD","15-00323120","MD","NEW","2015-04-24T18:19:03.000","21239",NA,NA,NA,1,-76.5947702,39.3511889
"3724  ROLAND AVE","BALTIMORE","STREETRE","TRM-Street Repairs","2015-04-24T17:38:00.000","2015-06-03T17:38:00.000","HAMPDEN","15-00322984","MD","CLOSED","2015-04-27T16:22:26.000","21211","Dispatch Work Crew","Abated - Close SR","2015-04-27T16:22:00.000",1,-76.6331117,39.3336561
"POTEE ST &W PATAPSCO AVE","BALTIMORE","STREETRE","TRM-Street Repairs","2015-04-24T17:28:52.000","2015-06-03T17:28:52.000","BROOKLYN","15-00322951","MD","CLOSED","2015-05-06T18:57:05.000","21225","Dispatch Inspector","Abated - Close SR","2015-05-06T18:57:00.000",1,-76.6112797,39.2451633
"3500  WABASH AVE","BALTIMORE","STREETRE","TRM-Street Repairs","2015-04-24T16:27:53.000","2015-06-03T16:27:53.000","ASHBURTON","15-00322641","MD","CLOSED","2015-04-24T18:30:14.000","21215","Dispatch Work Crew","Abated - Close SR","2015-04-24T18:30:00.000",1,-76.665949,39.324745
"3200 E NORTHERN PKWY","BALTIMORE","STREETRE","TRM-Street Repairs","2015-04-24T14:12:47.000","2015-06-03T14:12:47.000","WOODRING","15-00322022","MD","NEW","2015-04-24T14:12:47.000","21214",NA,NA,NA,1,-76.546209,39.361598
"POTTER ST & YALE AVE","BALTIMORE","STREETRE","TRM-Street Repairs","2015-04-24T13:55:49.000","2015-06-03T13:55:49.000","IRVINGTON","15-00321929","MD","CLOSED","2015-05-06T19:14:23.000","21229","Dispatch Inspector","Abated - Close SR","2015-05-06T19:14:00.000",1,-123.0764425,44.0256498
"3700  SPAULDING AVE","BALTIMORE","STREETRE","TRM-Street Repairs","2015-04-24T13:14:22.000","2015-06-03T13:14:22.000","LANGSTON HUGHES","15-00321722","MD","CLOSED","2015-04-24T17:42:45.000","21215","Dispatch Work Crew","Abated - Close SR","2015-04-24T17:42:00.000",1,-76.679632,39.345523
"0  HAMLET AVE","PARKVILLE","STREETRE","TRM-Street Repairs","2015-04-24T11:29:36.000","2015-06-03T11:29:36.000","HARFORD-ECHODALE/PERRING PARKWAY","15-00321200","MD","NEW","2015-04-24T11:29:36.000","21234",NA,NA,NA,1,-76.561461,39.36148
"5301  LIBERTY HEIGHTS AVE","BALTIMORE","STREETRE","TRM-Street Repairs","2015-04-23T23:38:03.000","2015-06-02T23:38:03.000","HOWARD PARK","15-00320812","MD","CLOSED","2015-04-30T16:23:20.000","21207","Dispatch Work Crew","Abated - Close SR","2015-04-30T16:23:00.000",1,-76.703334,39.333549
"2100 N SMALLWOOD ST","BALTIMORE","STREETRE","TRM-Street Repairs","2015-04-23T19:54:16.000","2015-06-02T19:54:16.000","MONDAWMIN","15-00320510","MD","DUPCLOSD","2015-04-27T18:24:20.000","21216",NA,NA,NA,1,-76.65312,39.311869
"MENLO DR & REISTERSTOWN RD","BALTIMORE","STREETRE","TRM-Street Repairs","2015-04-23T19:30:08.000","2015-06-02T19:30:08.000","GLEN","15-00320450","MD","CLOSED","2015-04-24T16:44:02.000","21215","Dispatch Work Crew","Abated - Close SR","2015-04-24T16:44:00.000",1,-91.1399212,30.3852097
"1203  LEADENHALL ST","BALTIMORE","STREETRE","TRM-Street Repairs","2015-04-23T18:42:12.000","2015-06-02T18:42:12.000","SHARP-LEADENHALL","15-00320258","MD","CLOSED","2015-05-08T19:11:02.000","21230","Dispatch Inspector","Abated - Close SR","2015-05-08T19:11:00.000",1,-76.618134,39.275394
"LABYRINTH RD & REISTERSTOWN RD","BALTIMORE","STREETRE","TRM-Street Repairs","2015-04-23T18:23:16.000","2015-06-02T18:23:16.000","REISTERSTOWN STATION","15-00320162","MD","CLOSED","2015-04-24T18:32:35.000","21215","Dispatch Work Crew","Abated - Close SR","2015-04-24T18:32:00.000",1,-76.7010862,39.3640209
"3800  MILFORD AVE","BALTIMORE","STREETRE","TRM-Street Repairs","2015-04-23T16:03:53.000","2015-06-02T16:03:53.000","HOWARD PARK","15-00319586","MD","CLOSED","2015-04-24T13:45:30.000","21207","Dispatch Work Crew","Abated - Close SR","2015-04-24T13:45:00.000",1,-76.6977226,39.3359969
"RALWORTH RD & HILLEN RD","BALTIMORE","STREETRE","TRM-Street Repairs","2015-04-23T12:55:43.000","2015-06-02T12:55:43.000","HILLEN","15-00317859","MD","NEW","2015-04-23T12:55:43.000","21218",NA,NA,NA,1,-76.5910686,39.3393868
"4100  WINDSOR MILL RD","BALTIMORE","STREETRE","TRM-Street Repairs","2015-04-23T12:17:11.000","2015-06-02T12:17:11.000","WINDSOR HILLS","15-00317547","MD","CLOSED","2015-04-23T18:31:45.000","21216","Dispatch Work Crew","Abated - Close SR","2015-04-23T18:31:00.000",1,-76.6847926,39.313287
"3107 W STRATHMORE AVE","BALTIMORE","STREETRE","TRM-Street Repairs","2015-04-23T12:01:13.000","2015-06-02T12:01:13.000","CROSS COUNTRY","15-00317481","MD","CLOSED","2015-04-23T17:27:58.000","21215","Dispatch Work Crew","Abated - Close SR","2015-04-23T17:27:00.000",1,-76.690084,39.363254
"WINDSOR MILL RD & GWYNNS FALLS PKWY","BALTIMORE","STREETRE","TRM-Street Repairs","2015-04-23T11:12:58.000","2015-06-02T11:12:58.000","WINDSOR HILLS","15-00317309","MD","CLOSED","2015-04-24T13:09:56.000","21216","Dispatch Work Crew","Abated - Close SR","2015-04-24T13:00:00.000",1,-72.3750834,43.5193237
"520  HARWOOD AVE","BALTIMORE","STREETRE","TRM-Street Repairs","2015-04-22T11:33:58.000","2015-06-01T11:33:58.000","MID-GOVANS","15-00313445","MD","NEW","2015-04-22T11:33:58.000","21212",NA,NA,NA,1,-76.607482,39.357747
"5103  FALLS ROAD TER","BALTIMORE","STREETRE","TRM-Street Repairs","2015-04-23T00:06:46.000","2015-06-02T00:06:46.000","ROLAND PARK","15-00316963","MD","CLOSED","2015-04-23T14:02:18.000","21210","Dispatch Work Crew","Abated - Close SR","2015-04-23T14:02:00.000",1,-76.643604,39.355761
"400 W UNIVERSITY PKWY","BALTIMORE","STREETRE","TRM-Street Repairs","2015-04-22T21:01:03.000","2015-06-01T21:01:03.000","TUSCANY-CANTERBURY","15-00316736","MD","CLOSED","2015-04-23T14:52:50.000","21210","Dispatch Work Crew","Abated - Close SR","2015-04-23T14:52:00.000",1,-76.6233544,39.3361861
"3601  COPLEY RD","BALTIMORE","STREETRE","TRM-Street Repairs","2015-04-22T19:43:41.000","2015-06-01T19:43:41.000","ASHBURTON","15-00316572","MD","CLOSED","2015-04-23T15:54:22.000","21215","Dispatch Work Crew","Abated - Close SR","2015-04-23T15:53:00.000",1,-76.675878,39.32881
"4200 N FRISBY ST","BALTIMORE","STREETRE","TRM-Street Repairs","2015-04-22T18:10:57.000","2015-06-01T18:10:57.000","PEN LUCY","15-00316217","MD","NEW","2015-04-22T18:10:57.000","21212",NA,NA,NA,1,-76.6063924,39.3401051
"1922  SOUTH RD","BALTIMORE","STREETRE","TRM-Street Repairs","2015-04-22T16:37:06.000","2015-06-01T16:37:06.000","MOUNT WASHINGTON","15-00315562","MD","CLOSED","2015-04-23T17:30:17.000","21209","Dispatch Work Crew","Abated - Close SR","2015-04-23T17:30:00.000",1,-76.657804,39.3640029
"502  TUNBRIDGE RD","BALTIMORE","STREETRE","TRM-Street Repairs","2015-04-22T15:00:24.000","2015-06-01T15:00:24.000","MID-GOVANS","15-00315123","MD","CLOSED","2015-04-22T15:02:18.000","21212","Dispatch Work Crew","Abated - Close SR","2015-04-22T15:00:00.000",1,-76.609375,39.356747
"4600  PATTERSON AVE","BALTIMORE","STREETRE","TRM-Street Repairs","2015-04-22T14:51:16.000","2015-06-01T14:51:16.000","REISTERSTOWN STATION","15-00315060","MD","CLOSED","2015-04-22T17:17:05.000","21215","Dispatch Work Crew","Abated - Close SR","2015-04-22T17:16:00.000",1,-76.70925,39.3512709
"2500  LARRYVALE RD","BALTIMORE","STREETRE","TRM-Street Repairs","2015-04-22T14:00:04.000","2015-06-01T14:00:04.000","CHESWOLDE","15-00314610","MD","CLOSED","2015-04-30T18:02:59.000","21209","Dispatch Work Crew","Abated - Close SR","2015-04-30T18:02:00.000",1,-76.680555,39.371468
"3000  PARKSIDE DR","BALTIMORE","STREETRE","TRM-Street Repairs","2015-04-22T13:10:11.000","2015-06-01T13:10:11.000","ARCADIA","15-00314230","MD","NEW","2015-04-22T13:10:11.000","21214",NA,NA,NA,1,-76.5742727,39.3370985
"106 W 39TH ST","BALTIMORE","STREETRE","TRM-Street Repairs","2015-04-22T12:15:06.000","2015-06-01T12:15:06.000","TUSCANY-CANTERBURY","15-00313786","MD","CLOSED","2015-04-22T17:50:06.000","21210","Dispatch Work Crew","Abated - Close SR","2015-04-22T17:49:00.000",1,-76.6210665,39.3363535
"3107 W STRATHMORE AVE","BALTIMORE","STREETRE","TRM-Street Repairs","2015-04-22T12:04:05.000","2015-06-01T12:04:05.000","CROSS COUNTRY","15-00313711","MD","CLOSED","2015-04-22T17:19:47.000","21215","Dispatch Work Crew","Abated - Close SR","2015-04-22T17:19:00.000",1,-76.690084,39.363254
"KELLY AVE & FALLS RD","BALTIMORE","STREETRE","TRM-Street Repairs","2015-04-22T11:27:37.000","2015-06-01T11:27:37.000","SABINA-MATTFELDT","15-00313408","MD","CLOSED","2015-05-04T17:58:02.000","21209","Dispatch Work Crew","Abated - Close SR","2015-05-04T17:58:00.000",1,-85.4929452,31.3192876
"MORAVIA RD & MANNASOTA AVE","BALTIMORE","STREETRE","TRM-Street Repairs","2015-04-21T22:57:03.000","2015-05-31T22:57:03.000","FRANKFORD","15-00312774","MD","NEW","2015-04-21T22:57:03.000","21206",NA,NA,NA,1,-76.5477562,39.3201996
"GREENSPRING AVE & CROSS COUNTRY BLVD","BALTIMORE","STREETRE","TRM-Street Repairs","2015-04-21T22:35:28.000","2015-05-31T22:35:28.000","MOUNT WASHINGTON","15-00312742","MD","CLOSED","2015-04-22T14:38:09.000","21209","Dispatch Work Crew","Abated - Close SR","2015-04-22T14:37:00.000",1,-76.6882923,39.3966579
"211  STONY RUN LN","BALTIMORE","STREETRE","TRM-Street Repairs","2015-04-21T22:18:03.000","2015-05-31T22:18:03.000","TUSCANY-CANTERBURY","15-00312711","MD","CLOSED","2015-04-22T18:13:48.000","21210","Dispatch Work Crew","Abated - Close SR","2015-04-22T18:13:00.000",1,-76.623266,39.3374529
"5200  SAINT CHARLES AVE","BALTIMORE","STREETRE","TRM-Street Repairs","2015-04-21T22:15:36.000","2015-05-31T22:15:36.000","WOODMERE","15-00312707","MD","CLOSED","2015-04-22T17:21:12.000","21215","Dispatch Work Crew","Abated - Close SR","2015-04-22T17:20:00.000",1,-76.6830007,39.3443779
"5222  BEAUFORT AVE","BALTIMORE","STREETRE","TRM-Street Repairs","2015-04-21T20:25:00.000","2015-05-31T20:25:00.000","ARLINGTON","15-00312502","MD","CLOSED","2015-04-22T17:24:25.000","21215","Dispatch Work Crew","Abated - Close SR","2015-04-22T17:24:00.000",1,-76.681192,39.347495
"2515 W COLD SPRING LN","BALTIMORE","STREETRE","TRM-Street Repairs","2015-04-21T19:25:50.000","2015-05-31T19:25:50.000","GREENSPRING","15-00312370","MD","DUPCLOSD","2015-04-22T17:27:29.000","21215",NA,NA,NA,1,-76.662677,39.340545
"2626  ROCKWOOD AVE","BALTIMORE","STREETRE","TRM-Street Repairs","2015-04-21T17:42:10.000","2015-05-31T17:42:10.000","MOUNT WASHINGTON","15-00311925","MD","CLOSED","2015-04-22T14:42:24.000","21215","Dispatch Work Crew","Abated - Close SR","2015-04-22T14:42:00.000",1,-76.675028,39.361901
"4100  KESWICK RD","BALTIMORE","STREETRE","TRM-Street Repairs","2015-04-21T15:40:41.000","2015-05-31T15:40:41.000","ROLAND PARK","15-00311392","MD","CLOSED","2015-05-06T18:39:10.000","21210","Dispatch Work Crew","Closed","2015-05-06T18:39:00.000",1,-76.629744,39.3397967
"3133  CRITTENTON PL","BALTIMORE","STREETRE","TRM-Street Repairs","2015-04-21T14:25:14.000","2015-05-31T14:25:14.000","HAMPDEN","15-00311051","MD","CLOSED","2015-04-22T17:45:11.000","21211","Dispatch Work Crew","Abated - Close SR","2015-04-22T17:44:00.000",1,-76.629762,39.325925
"4100  GRANADA AVE","BALTIMORE","STREETRE","TRM-Street Repairs","2015-04-21T14:04:54.000","2015-05-31T14:04:54.000","DORCHESTER","15-00310823","MD","CLOSED","2015-04-22T17:31:59.000","21215","Dispatch Work Crew","Abated - Close SR","2015-04-22T17:29:00.000",1,-76.6870445,39.3340814
"3008  GLEN AVE","BALTIMORE","STREETRE","TRM-Street Repairs","2015-04-21T13:44:37.000","2015-05-31T13:44:37.000","GLEN","15-00310680","MD","CLOSED","2015-04-21T17:55:12.000","21215","Dispatch Work Crew","Abated - Close SR","2015-04-21T17:54:00.000",1,-76.68159,39.359541
"3400  RAMONA AVE","BALTIMORE","STREETRE","TRM-Street Repairs","2015-04-21T13:40:58.000","2015-05-31T13:40:58.000","BELAIR-EDISON","15-00310657","MD","NEW","2015-04-21T13:40:58.000","21213",NA,NA,NA,1,-76.5632904,39.3231816
"CYLBURN AVE &W NORTHERN PKWY","BALTIMORE","STREETRE","TRM-Street Repairs","2015-04-21T13:00:07.000","2015-05-31T13:00:07.000","COLDSPRING","15-00310348","MD","CLOSED","2015-04-21T18:48:10.000","21209","Dispatch Work Crew","Abated - Close SR","2015-04-21T18:47:00.000",1,-76.6619949,39.3507981
"REISTERSTOWN RD &W NORTHERN PKWY","BALTIMORE","STREETRE","TRM-Street Repairs","2015-04-21T12:27:11.000","2015-05-31T12:27:11.000","WOODMERE","15-00310137","MD","CLOSED","2015-04-21T17:53:22.000","21215","Dispatch Work Crew","Abated - Close SR","2015-04-21T17:52:00.000",1,-76.7338154,39.3843237
"2200 N DUKELAND ST","BALTIMORE","STREETRE","TRM-Street Repairs","2015-04-21T12:21:11.000","2015-05-31T12:21:11.000","PANWAY/BRADDISH AVENUE","15-00310092","MD","CLOSED","2015-04-21T15:30:21.000","21216","Dispatch Work Crew","Abated - Close SR","2015-04-21T15:30:00.000",1,-76.6645209,39.312833
"300  LIGHT ST","BALTIMORE","STREETRE","TRM-Street Repairs","2015-04-21T11:49:23.000","2015-05-31T11:49:23.000","INNER HARBOR","15-00309895","MD","CLOSED","2015-05-04T19:10:03.000","21202","Dispatch Inspector","Abated - Close SR","2015-05-04T19:00:00.000",1,-76.6140638,39.2851556
"4  WYNDHURST AVE","BALTIMORE","STREETRE","TRM-Street Repairs","2015-04-21T01:41:07.000","2015-05-31T01:41:07.000","WYNDHURST","15-00309598","MD","CLOSED","2015-04-21T17:57:53.000","21210","Dispatch Work Crew","Abated - Close SR","2015-04-21T17:57:00.000",1,-76.624951,39.3540909
"2500  KEN OAK RD","BALTIMORE","STREETRE","TRM-Street Repairs","2015-04-20T23:31:00.000","2015-05-30T23:31:00.000","MOUNT WASHINGTON","15-00309509","MD","CLOSED","2015-04-21T17:08:38.000","21215","Dispatch Work Crew","Abated - Close SR","2015-04-21T17:00:00.000",1,-76.671903,39.357988
"2400  SAINT LO DR","BALTIMORE","STREETRE","TRM-Street Repairs","2015-04-20T23:13:24.000","2015-05-30T23:13:24.000","CLIFTON PARK","15-00309489","MD","NEW","2015-04-20T23:13:24.000","21213",NA,NA,NA,1,-76.5871623,39.3187818
"S GILMOR ST &W LOMBARD ST","BALTIMORE","STREETRE","TRM-Street Repairs","2015-04-20T20:27:27.000","2015-05-30T20:27:27.000","UNION SQUARE","15-00309140","MD","CLOSED","2015-05-06T19:26:14.000","21223","Dispatch Inspector","Abated - Close SR","2015-05-06T19:26:00.000",1,-76.6422117,39.2853859
"4000  FAIRFAX RD","BALTIMORE","STREETRE","TRM-Street Repairs","2015-04-20T17:37:26.000","2015-05-30T17:37:26.000","CONCERNED CITIZENS OF FOREST PARK","15-00308535","MD","DUPCLOSD","2015-04-21T14:47:46.000","21216",NA,NA,NA,1,-76.684098,39.321849
"3401  GARRISON BLVD","BALTIMORE","STREETRE","TRM-Street Repairs","2015-04-20T17:07:21.000","2015-05-30T17:07:21.000","CALLAWAY-GARRISON","15-00308406","MD","CLOSED","2015-04-21T14:52:03.000","21215","Dispatch Work Crew","Abated - Close SR","2015-04-21T14:51:00.000",1,-76.682156,39.3275
"3401  THE ALAMEDA","BALTIMORE","STREETRE","TRM-Street Repairs","2015-04-20T17:03:10.000","2015-05-30T17:03:10.000","EDNOR GARDENS-LAKESIDE","15-00308388","MD","NEW","2015-04-20T17:03:10.000","21218",NA,NA,NA,1,-76.594817,39.330287
"2502 W COLD SPRING LN","BALTIMORE","STREETRE","TRM-Street Repairs","2015-04-20T15:31:30.000","2015-05-30T15:31:30.000","PARKLANE","15-00308005","MD","CLOSED","2015-04-22T17:27:29.000","21215","Dispatch Work Crew","Abated - Close SR","2015-04-22T17:27:00.000",1,-76.661879,39.340862
"5720  LEITH WALK","BALTIMORE","STREETRE","TRM-Street Repairs","2015-04-20T15:11:07.000","2015-05-30T15:11:07.000","RAMBLEWOOD","15-00307920","MD","NEW","2015-04-20T15:11:07.000","21239",NA,NA,NA,1,-76.5916755,39.3618952
"6721  DANVILLE AVE","BALTIMORE","STREETRE","TRM-Street Repairs","2015-04-20T14:06:32.000","2015-05-30T14:06:32.000","GRACELAND PARK","15-00307569","MD","CLOSED","2015-05-06T19:04:08.000","21222",NA,NA,NA,1,-76.530173,39.276477
"4001  FALLS RD","BALTIMORE","STREETRE","TRM-Street Repairs","2015-04-20T14:06:32.000","2015-05-30T14:06:32.000","HAMPDEN","15-00307570","MD","CLOSED","2015-04-20T17:48:42.000","21211","Dispatch Work Crew","Abated - Close SR","2015-04-20T17:47:00.000",1,-76.6364578,39.3365701
"3800  HARFORD RD","BALTIMORE","STREETRE","TRM-Street Repairs","2015-04-20T13:09:29.000","2015-05-30T13:09:29.000","MONTEBELLO","15-00307284","MD","NEW","2015-04-20T13:09:29.000","21214",NA,NA,NA,1,-76.5788654,39.3318584
"5600  FERNPARK AVE","BALTIMORE","STREETRE","TRM-Street Repairs","2015-04-18T22:41:23.000","2015-05-28T22:41:23.000","HOWARD PARK","15-00305516","MD","CLOSED","2015-04-20T18:23:08.000","21207","Dispatch Work Crew","Abated - Close SR","2015-04-20T18:22:00.000",1,-76.7093529,39.332448
"770  MCHENRY ST","BALTIMORE","STREETRE","TRM-Street Repairs","2015-04-18T17:13:02.000","2015-05-28T17:13:02.000","BARRE CIRCLE","15-00305182","MD","DUPCLOSD","2015-05-06T19:24:31.000","21230",NA,NA,NA,1,-76.628574,39.285083
"5241  LINDEN HEIGHTS AVE","BALTIMORE","STREETRE","TRM-Street Repairs","2015-04-18T14:47:17.000","2015-05-28T14:47:17.000","WOODMERE","15-00304953","MD","CLOSED","2015-04-20T14:58:04.000","21215","Dispatch Work Crew","Closed","2015-04-20T14:57:00.000",1,-76.684359,39.344838
"THE ALAMEDA &E NORTHERN PKWY","BALTIMORE","STREETRE","TRM-Street Repairs","2015-04-18T13:16:08.000","2015-05-28T13:16:08.000","GLEN OAKS","15-00304782","MD","NEW","2015-04-18T13:16:08.000","21239",NA,NA,NA,1,-122.2416355,37.7652065
"2200  WOODBOURNE AVE","BALTIMORE","STREETRE","TRM-Street Repairs","2015-04-17T20:29:22.000","2015-05-27T20:29:22.000","HARFORD-ECHODALE/PERRING PARKWAY","15-00304039","MD","NEW","2015-04-17T20:29:22.000","21214",NA,NA,NA,1,-76.571204,39.35618
"2100  WOODBOURNE AVE","BALTIMORE","STREETRE","TRM-Street Repairs","2015-04-17T20:28:12.000","2015-05-27T20:28:12.000","HARFORD-ECHODALE/PERRING PARKWAY","15-00304021","MD","NEW","2015-04-17T20:28:12.000","21214",NA,NA,NA,1,-76.572597,39.3559849
"770  MCHENRY ST","BALTIMORE","STREETRE","TRM-Street Repairs","2015-04-17T17:45:25.000","2015-05-27T17:45:25.000","BARRE CIRCLE","15-00303317","MD","CLOSED","2015-05-06T19:25:15.000","21230","Dispatch Work Crew","Abated - Close SR","2015-05-06T19:25:00.000",1,-76.628574,39.285083
"311  SOMERSET RD","BALTIMORE","STREETRE","TRM-Street Repairs","2015-04-17T10:31:40.000","2015-05-27T10:31:40.000","ROLAND PARK","15-00300626","MD","DUPCLOSD","2015-04-17T18:15:58.000","21210",NA,NA,NA,1,-76.629588,39.341554
"2900  WYMAN PKWY","BALTIMORE","STREETRE","TRM-Street Repairs","2015-04-17T15:10:27.000","2015-05-27T15:10:27.000","REMINGTON","15-00302357","MD","CLOSED","2015-04-17T17:58:21.000","21211","Dispatch Work Crew","Abated - Close SR","2015-04-17T17:58:00.000",1,-76.620435,39.323166
"GREENBRIER AVE & PARKSIDE DR","BALTIMORE","STREETRE","TRM-Street Repairs","2015-04-17T14:21:47.000","2015-05-27T14:21:47.000","ARCADIA","15-00301993","MD","NEW","2015-04-17T14:21:47.000","21206",NA,NA,NA,1,-117.0840045,32.7957154
"2500 W COLD SPRING LN","BALTIMORE","STREETRE","TRM-Street Repairs","2015-04-17T11:13:19.000","2015-05-27T11:13:19.000","PARKLANE","15-00300714","MD","DUPCLOSD","2015-04-17T16:04:03.000","21215",NA,NA,NA,1,-76.6617551,39.340805
"MENLO DR & REISTERSTOWN RD","BALTIMORE","STREETRE","TRM-Street Repairs","2015-04-17T11:06:45.000","2015-05-27T11:06:45.000","GLEN","15-00300700","MD","CLOSED","2015-04-17T14:10:40.000","21215","Dispatch Work Crew","Abated - Close SR","2015-04-17T14:10:00.000",1,-91.1399212,30.3852097
"2128  SAINT PAUL ST","BALTIMORE","STREETRE","TRM-Street Repairs","2015-04-16T23:12:24.000","2015-05-26T23:12:24.000","CHARLES NORTH","15-00300337","MD","NEW","2015-04-16T23:12:24.000","21218",NA,NA,NA,1,-76.615476,39.314168
"HARFORD RD & ECHODALE AVE","BALTIMORE","STREETRE","TRM-Street Repairs","2015-04-16T20:47:46.000","2015-05-26T20:47:46.000","WALTHERSON","15-00299981","MD","NEW","2015-04-16T20:47:46.000","21214",NA,NA,NA,1,-76.4972104,39.4215075
"MADISON AVE & DRUID PARK LAKE DR","BALTIMORE","STREETRE","TRM-Street Repairs","2015-04-16T18:40:04.000","2015-05-26T18:40:04.000","RESERVOIR HILL","15-00299580","MD","CLOSED","2015-04-17T17:29:57.000","21217","Dispatch Work Crew","Abated - Close SR","2015-04-17T17:29:00.000",1,-73.7720937,42.6549492
"4400  FOREST VIEW AVE","BALTIMORE","STREETRE","TRM-Street Repairs","2015-04-16T17:53:59.000","2015-05-26T17:53:59.000","CEDMONT","15-00299406","MD","NEW","2015-04-16T17:53:59.000","21206",NA,NA,NA,1,-76.533246,39.35028
"6812  REISTERSTOWN RD","BALTIMORE","STREETRE","TRM-Street Repairs","2015-04-16T15:21:42.000","2015-05-26T15:21:42.000","REISTERSTOWN STATION","15-00298786","MD","CLOSED","2015-04-17T14:12:38.000","21215","Dispatch Work Crew","Abated - Close SR","2015-04-17T14:12:00.000",1,-76.7085125,39.3592446
"6503  DEANCROFT RD","BALTIMORE","STREETRE","TRM-Street Repairs","2015-04-16T14:51:53.000","2015-05-26T14:51:53.000","CHESWOLDE","15-00298656","MD","CLOSED","2015-04-17T15:12:16.000","21209","Dispatch Work Crew","Closed","2015-04-17T15:12:00.000",1,-76.672937,39.371589
"101  KANE ST","BALTIMORE","STREETRE","TRM-Street Repairs","2015-04-16T14:48:07.000","2015-05-26T14:48:07.000","PULASKI INDUSTRIAL AREA","15-00298640","MD","CLOSED","2015-05-06T19:20:43.000","21224","Dispatch Inspector","Abated - Close SR","2015-05-06T19:17:00.000",1,-76.533388,39.294146
"1338 N FREMONT AVE","BALTIMORE","STREETRE","TRM-Street Repairs","2015-04-16T14:44:11.000","2015-05-26T14:44:11.000","SANDTOWN-WINCHESTER","15-00298616","MD","CLOSED","2015-05-11T18:25:04.000","21217","Dispatch Work Crew","Abated - Close SR","2015-05-11T18:24:00.000",1,-76.637673,39.3043938
"1400  WINCHESTER ST","BALTIMORE","STREETRE","TRM-Street Repairs","2015-04-16T12:58:54.000","2015-05-26T12:58:54.000","SANDTOWN-WINCHESTER","15-00298052","MD","CLOSED","2015-05-11T18:26:50.000","21217","Dispatch Inspector","Abated - Close SR","2015-05-11T18:26:00.000",1,-76.6405015,39.3024805
"900  ARGYLE AVE","BALTIMORE","STREETRE","TRM-Street Repairs","2015-04-16T12:51:34.000","2015-05-26T12:51:34.000","HERITAGE CROSSING","15-00298015","MD","CLOSED","2015-05-11T18:25:31.000","21201","Dispatch Inspector","Abated - Close SR","2015-05-11T18:25:00.000",1,-76.6277123,39.2961919
"2602  BUNGALOW AVE","BALTIMORE","STREETRE","TRM-Street Repairs","2015-04-16T12:28:35.000","2015-05-26T12:28:35.000","HAWKINS POINT","15-00297848","MD","CLOSED","2015-04-23T19:10:32.000","21226","Dispatch Work Crew","Closed","2015-04-23T19:00:00.000",1,-76.56616,39.203338
"SPRINGDALE AVE & HILLSDALE RD","BALTIMORE","STREETRE","TRM-Street Repairs","2015-04-16T09:52:25.000","2015-05-26T09:52:25.000","HOWARD PARK","15-00297171","MD","CLOSED","2015-04-16T15:11:32.000","21207","Dispatch Work Crew","Abated - Close SR","2015-04-16T15:10:00.000",1,-71.2892636,42.2454453
"1267  WASHINGTON BLVD","BALTIMORE","STREETRE","TRM-Street Repairs","2015-04-15T20:02:25.000","2015-05-25T20:02:25.000","WASHINGTON VILLAGE","15-00296554","MD","DUPCLOSD","2015-05-11T12:47:05.000","21230",NA,NA,NA,1,-76.635008,39.280685
"3306  OAKFIELD AVE","BALTIMORE","STREETRE","TRM-Street Repairs","2015-04-15T19:22:54.000","2015-05-25T19:22:54.000","CENTRAL FOREST PARK","15-00296366","MD","DUPCLOSD","2015-04-16T16:40:35.000","21207",NA,NA,NA,1,-76.687028,39.325334
"4600  FALLS RD","BALTIMORE","STREETRE","TRM-Street Repairs","2015-04-15T18:43:02.000","2015-05-25T18:43:02.000","CROSS KEYS","15-00296114","MD","DUPCLOSD","2015-04-17T13:42:44.000","21209",NA,NA,NA,1,-76.6439336,39.3471462
"5500  THE ALAMEDA","BALTIMORE","STREETRE","TRM-Street Repairs","2015-04-15T18:37:07.000","2015-05-25T18:37:07.000","CAMERON VILLAGE","15-00296084","MD","NEW","2015-04-15T18:37:07.000","21239",NA,NA,NA,1,-76.59699,39.35582
"4600  FALLS RD","BALTIMORE","STREETRE","TRM-Street Repairs","2015-04-15T18:31:07.000","2015-05-25T18:31:07.000","CROSS KEYS","15-00296056","MD","DUPCLOSD","2015-04-17T13:42:44.000","21209",NA,NA,NA,1,-76.6439336,39.3471462
"4600  FALLS RD","BALTIMORE","STREETRE","TRM-Street Repairs","2015-04-15T18:30:21.000","2015-05-25T18:30:21.000","CROSS KEYS","15-00296051","MD","DUPCLOSD","2015-04-17T13:42:44.000","21209",NA,NA,NA,1,-76.6439336,39.3471462
"4600  FALLS RD","BALTIMORE","STREETRE","TRM-Street Repairs","2015-04-15T18:26:24.000","2015-05-25T18:26:24.000","CROSS KEYS","15-00296020","MD","DUPCLOSD","2015-04-17T13:42:44.000","21209",NA,NA,NA,1,-76.6439336,39.3471462
"4600  FALLS RD","BALTIMORE","STREETRE","TRM-Street Repairs","2015-04-15T18:25:43.000","2015-05-25T18:25:43.000","CROSS KEYS","15-00296015","MD","DUPCLOSD","2015-04-17T13:42:44.000","21209",NA,NA,NA,1,-76.6439336,39.3471462
"1400 W COLD SPRING LN","BALTIMORE","STREETRE","TRM-Street Repairs","2015-04-15T18:03:12.000","2015-05-25T18:03:12.000","CROSS KEYS","15-00295868","MD","DUPCLOSD","2015-04-17T13:42:44.000",NA,NA,NA,NA,1,-76.6441229,39.346923
"1700  FALLS RD","BALTIMORE","STREETRE","TRM-Street Repairs","2015-04-15T18:24:07.000","2015-05-25T18:24:07.000","CHARLES NORTH","15-00296006","MD","DUPCLOSD","2015-05-08T19:20:14.000","21201",NA,NA,NA,1,-76.6178144,39.3090615
"1700  FALLS RD","BALTIMORE","STREETRE","TRM-Street Repairs","2015-04-15T18:21:35.000","2015-05-25T18:21:35.000","CHARLES NORTH","15-00295992","MD","DUPCLOSD","2015-05-08T19:20:14.000","21201",NA,NA,NA,1,-76.6178144,39.3090615
"1700  FALLS RD","BALTIMORE","STREETRE","TRM-Street Repairs","2015-04-15T18:20:53.000","2015-05-25T18:20:53.000","CHARLES NORTH","15-00295986","MD","CLOSED","2015-05-08T19:20:14.000","21201","Dispatch Inspector","Abated - Close SR","2015-05-08T19:19:00.000",1,-76.6178144,39.3090615
"3709  FALLS RD","BALTIMORE","STREETRE","TRM-Street Repairs","2015-04-15T18:19:29.000","2015-05-25T18:19:29.000","HAMPDEN","15-00295977","MD","DUPCLOSD","2015-04-17T14:04:38.000","21211",NA,NA,NA,1,-76.6352,39.332999
"3709  FALLS RD","BALTIMORE","STREETRE","TRM-Street Repairs","2015-04-15T18:18:36.000","2015-05-25T18:18:36.000","HAMPDEN","15-00295970","MD","DUPCLOSD","2015-04-17T14:04:38.000","21211",NA,NA,NA,1,-76.6352,39.332999
"3709  FALLS RD","BALTIMORE","STREETRE","TRM-Street Repairs","2015-04-15T18:17:46.000","2015-05-25T18:17:46.000","HAMPDEN","15-00295965","MD","DUPCLOSD","2015-04-17T14:04:38.000","21211",NA,NA,NA,1,-76.6352,39.332999
"3709  FALLS RD","BALTIMORE","STREETRE","TRM-Street Repairs","2015-04-15T18:16:58.000","2015-05-25T18:16:58.000","HAMPDEN","15-00295964","MD","DUPCLOSD","2015-04-17T14:04:38.000","21211",NA,NA,NA,1,-76.6352,39.332999
"3100  GWYNNS FALLS PKWY","BALTIMORE","STREETRE","TRM-Street Repairs","2015-04-15T18:16:14.000","2015-05-25T18:16:14.000","HANLON-LONGWOOD","15-00295962","MD","CLOSED","2015-04-16T14:35:34.000","21216","Dispatch Work Crew","Abated - Close SR","2015-04-16T14:34:00.000",1,-76.669773,39.314703
"3709  FALLS RD","BALTIMORE","STREETRE","TRM-Street Repairs","2015-04-15T18:16:05.000","2015-05-25T18:16:05.000","HAMPDEN","15-00295959","MD","CLOSED","2015-04-17T14:04:38.000","21211","Dispatch Work Crew","Abated - Close SR","2015-04-17T14:04:00.000",1,-76.6352,39.332999
"4329  FALLS RD","BALTIMORE","STREETRE","TRM-Street Repairs","2015-04-15T18:15:00.000","2015-05-25T18:15:00.000","HOES HEIGHTS","15-00295949","MD","DUPCLOSD","2015-04-17T13:47:46.000","21211",NA,NA,NA,1,-76.639445,39.341831
"4329  FALLS RD","BALTIMORE","STREETRE","TRM-Street Repairs","2015-04-15T18:12:07.000","2015-05-25T18:12:07.000","HOES HEIGHTS","15-00295927","MD","DUPCLOSD","2015-04-17T13:47:46.000","21211",NA,NA,NA,1,-76.639445,39.341831
"4329  FALLS RD","BALTIMORE","STREETRE","TRM-Street Repairs","2015-04-15T18:11:23.000","2015-05-25T18:11:23.000","HOES HEIGHTS","15-00295922","MD","DUPCLOSD","2015-04-17T13:47:46.000","21211",NA,NA,NA,1,-76.639445,39.341831
"4329  FALLS RD","BALTIMORE","STREETRE","TRM-Street Repairs","2015-04-15T18:10:00.000","2015-05-25T18:10:00.000","HOES HEIGHTS","15-00295909","MD","DUPCLOSD","2015-04-17T13:47:46.000","21211",NA,NA,NA,1,-76.639445,39.341831
"4329  FALLS RD","BALTIMORE","STREETRE","TRM-Street Repairs","2015-04-15T18:09:16.000","2015-05-25T18:09:16.000","HOES HEIGHTS","15-00295906","MD","DUPCLOSD","2015-04-17T13:47:46.000","21211",NA,NA,NA,1,-76.639445,39.341831
"1400 W COLD SPRING LN","BALTIMORE","STREETRE","TRM-Street Repairs","2015-04-15T18:03:53.000","2015-05-25T18:03:53.000","CROSS KEYS","15-00295874","MD","DUPCLOSD","2015-04-17T13:42:44.000",NA,NA,NA,NA,1,-76.6441229,39.346923
"1400 W COLD SPRING LN","BALTIMORE","STREETRE","TRM-Street Repairs","2015-04-15T18:02:40.000","2015-05-25T18:02:40.000","CROSS KEYS","15-00295862","MD","DUPCLOSD","2015-04-17T13:42:44.000",NA,NA,NA,NA,1,-76.6441229,39.346923
"1400 W COLD SPRING LN","BALTIMORE","STREETRE","TRM-Street Repairs","2015-04-15T18:02:10.000","2015-05-25T18:02:10.000","CROSS KEYS","15-00295858","MD","DUPCLOSD","2015-04-17T13:42:44.000",NA,NA,NA,NA,1,-76.6441229,39.346923
"1400 W COLD SPRING LN","BALTIMORE","STREETRE","TRM-Street Repairs","2015-04-15T18:01:34.000","2015-05-25T18:01:34.000","CROSS KEYS","15-00295854","MD","CLOSED","2015-04-17T13:42:44.000",NA,"Dispatch Work Crew","Abated - Close SR","2015-04-17T13:42:00.000",1,-76.6441229,39.346923
"3807  FERNHILL AVE","BALTIMORE","STREETRE","TRM-Street Repairs","2015-04-15T17:57:54.000","2015-05-25T17:57:54.000","DOLFIELD","15-00295836","MD","CLOSED","2015-04-16T17:40:05.000","21215","Dispatch Work Crew","Abated - Close SR","2015-04-16T17:39:00.000",1,-76.6796899,39.336987
"4319  FALLS RD","BALTIMORE","STREETRE","TRM-Street Repairs","2015-04-15T17:54:10.000","2015-05-25T17:54:10.000","HOES HEIGHTS","15-00295818","MD","CLOSED","2015-04-17T13:47:46.000","21211","Dispatch Work Crew","Abated - Close SR","2015-04-17T13:47:00.000",1,-76.6393872,39.3416451
"2818  LOCH RAVEN RD","BALTIMORE","STREETRE","TRM-Street Repairs","2015-04-15T17:42:01.000","2015-05-25T17:42:01.000","BETTER WAVERLY","15-00295755","MD","NEW","2015-04-15T17:42:01.000","21218",NA,NA,NA,1,-76.603775,39.321941
"2500  PURNELL DR","GWYNN OAK","STREETRE","TRM-Street Repairs","2015-04-15T16:09:04.000","2015-05-25T16:09:04.000","DICKEYVILLE","15-00295280","MD","CLOSED","2015-04-16T16:30:50.000","21207","Dispatch Work Crew","Abated - Close SR","2015-04-16T16:30:00.000",1,-76.7036226,39.3187868
"GWYNNS FALLS PKWY &N ELLAMONT ST","BALTIMORE","STREETRE","TRM-Street Repairs","2015-04-15T14:26:26.000","2015-05-25T14:26:26.000","HANLON-LONGWOOD","15-00294684","MD","CLOSED","2015-04-16T14:38:14.000","21216","Dispatch Work Crew","Abated - Close SR","2015-04-16T14:37:00.000",1,-76.6651752,39.3146693
"2000  ASHBURTON ST","BALTIMORE","STREETRE","TRM-Street Repairs","2015-04-15T14:22:19.000","2015-05-25T14:22:19.000","WALBROOK","15-00294663","MD","DUPCLOSD","2015-04-16T16:42:54.000","21216",NA,NA,NA,1,-76.662477,39.3103225
"PURNELL DR &W FOREST PARK AVE","GWYNN OAK","STREETRE","TRM-Street Repairs","2015-04-15T13:29:37.000","2015-05-25T13:29:37.000","PURNELL","15-00294314","MD","CLOSED","2015-04-16T16:29:36.000","21207","Dispatch Work Crew","Abated - Close SR","2015-04-16T16:29:00.000",1,-76.7084142,39.320239
"1801  MCKEAN AVE","BALTIMORE","STREETRE","TRM-Street Repairs","2015-04-15T12:40:27.000","2015-05-25T12:40:27.000","SANDTOWN-WINCHESTER","15-00293962","MD","CLOSED","2015-05-11T18:17:43.000","21217","Dispatch Work Crew","Abated - Close SR","2015-05-11T18:17:00.000",1,-76.6470231,39.3089382
"1625 N MOUNT ST","BALTIMORE","STREETRE","TRM-Street Repairs","2015-04-15T12:36:07.000","2015-05-25T12:36:07.000","SANDTOWN-WINCHESTER","15-00293942","MD","CLOSED","2015-05-08T19:44:00.000","21217","Dispatch Inspector","Abated - Close SR","2015-05-08T19:43:00.000",1,-76.6448004,39.3069124
"1400  ETTING ST","BALTIMORE","STREETRE","TRM-Street Repairs","2015-04-15T12:34:40.000","2015-05-25T12:34:40.000","UPTON","15-00293922","MD","CLOSED","2015-05-11T18:28:54.000","21217","Dispatch Inspector","Abated - Close SR","2015-05-11T18:28:00.000",1,-76.6300795,39.3023862
"1125 N MOUNT ST","BALTIMORE","STREETRE","TRM-Street Repairs","2015-04-15T12:31:41.000","2015-05-25T12:31:41.000","SANDTOWN-WINCHESTER","15-00293897","MD","CLOSED","2015-05-11T18:27:44.000","21217","Dispatch Inspector","Abated - Close SR","2015-05-11T18:27:00.000",1,-76.644256,39.301541
"323 N FREMONT AVE","BALTIMORE","STREETRE","TRM-Street Repairs","2015-04-15T11:55:11.000","2015-05-25T11:55:11.000","POPPLETON","15-00293574","MD","CLOSED","2015-04-21T12:20:10.000","21201","Dispatch Inspector","Abated - Close SR","2015-04-21T12:20:00.000",1,-76.631062,39.293367
"731  DEEPDENE RD","BALTIMORE","STREETRE","TRM-Street Repairs","2015-04-15T11:10:27.000","2015-05-25T11:10:27.000","WYNDHURST","15-00293326","MD","CLOSED","2015-04-15T18:05:34.000","21210","Dispatch Work Crew","Abated - Close SR","2015-04-15T18:05:00.000",1,-76.633844,39.356278
"3000  ROSELAWN AVE","BALTIMORE","STREETRE","TRM-Street Repairs","2015-04-15T10:50:46.000","2015-05-25T10:50:46.000","WESTFIELD","15-00293274","MD","NEW","2015-04-15T10:50:46.000","21214",NA,NA,NA,1,-76.5571273,39.3572621
"RETREAT ST & DRUID HILL AVE","BALTIMORE","STREETRE","TRM-Street Repairs","2015-04-15T10:06:13.000","2015-05-25T10:06:13.000","PENN NORTH","15-00293147","MD","CLOSED","2015-04-15T14:41:57.000","21217","Dispatch Work Crew","Abated - Close SR","2015-04-15T14:41:00.000",1,-83.0998925,34.6619586
"2301  KEN OAK RD","BALTIMORE","STREETRE","TRM-Street Repairs","2015-04-14T20:23:52.000","2015-05-24T20:23:52.000","MOUNT WASHINGTON","15-00292477","MD","CLOSED","2015-04-15T17:48:48.000","21209","Dispatch Work Crew","Abated - Close SR","2015-04-15T17:48:00.000",1,-76.664143,39.359366
"3304  ELM AVE","BALTIMORE","STREETRE","TRM-Street Repairs","2015-04-14T19:26:31.000","2015-05-24T19:26:31.000","HAMPDEN","15-00292304","MD","CLOSED","2015-04-15T18:37:37.000","21211","Dispatch Work Crew","Abated - Close SR","2015-04-15T18:37:00.000",1,-76.6316973,39.327107
"SEVEN MILE LN & PARK HEIGHTS AVE","BALTIMORE","STREETRE","TRM-Street Repairs","2015-04-14T19:23:29.000","2015-05-24T19:23:29.000","CROSS COUNTRY","15-00292282","MD","CLOSED","2015-04-15T17:44:32.000","21208","Dispatch Work Crew","Abated - Close SR","2015-04-15T17:43:00.000",1,0.3668365,51.2590388
"2700  PENNSYLVANIA AVE","BALTIMORE","STREETRE","TRM-Street Repairs","2015-04-14T19:00:43.000","2015-05-24T19:00:43.000","PENN NORTH","15-00292194","MD","CLOSED","2015-04-15T14:02:07.000","21217","Dispatch Work Crew","Abated - Close SR","2015-04-15T14:01:00.000",1,-76.64566,39.3124449
"5712  CROSS COUNTRY BLVD","BALTIMORE","STREETRE","TRM-Street Repairs","2015-04-14T18:14:52.000","2015-05-24T18:14:52.000","MOUNT WASHINGTON","15-00291996","MD","CLOSED","2015-04-15T17:47:30.000","21209","Dispatch Work Crew","Abated - Close SR","2015-04-15T17:46:00.000",1,-76.665089,39.362892
"2507  DRUID HILL AVE","BALTIMORE","STREETRE","TRM-Street Repairs","2015-04-14T17:33:27.000","2015-05-24T17:33:27.000","PENN NORTH","15-00291828","MD","CLOSED","2015-04-16T14:41:59.000","21217","Dispatch Work Crew","Abated - Close SR","2015-04-16T14:40:00.000",1,-76.640793,39.313359
"5615  BELLEVILLE AVE","BALTIMORE","STREETRE","TRM-Street Repairs","2015-04-14T17:24:37.000","2015-05-24T17:24:37.000","HOWARD PARK","15-00291785","MD","CLOSED","2015-05-08T15:50:30.000","21207","Dispatch Work Crew","Abated - Close SR","2015-05-08T15:50:00.000",1,-76.709108,39.334002
"SINCLAIR LN & ERDMAN AVE","BALTIMORE","STREETRE","TRM-Street Repairs","2015-04-14T17:20:30.000","2015-05-24T17:20:30.000","ORANGEVILLE INDUSTRIAL AREA","15-00291756","MD","CLOSED","2015-04-27T13:25:26.000","21213","Dispatch Inspector","Abated - Close SR","2015-04-27T13:24:00.000",1,-76.5587112,39.3156267
"6611  WESTERN RUN DR","BALTIMORE","STREETRE","TRM-Street Repairs","2015-04-14T15:51:02.000","2015-05-24T15:51:02.000","CROSS COUNTRY","15-00291288","MD","CLOSED","2015-04-14T18:55:16.000","21215","Dispatch Work Crew","Abated - Close SR","2015-04-14T18:55:00.000",1,-76.696382,39.365286
"2880 W BALTIMORE ST","BALTIMORE","STREETRE","TRM-Street Repairs","2015-04-14T15:44:26.000","2015-05-24T15:44:26.000","SHIPLEY HILL","15-00291244","MD","CLOSED","2015-05-08T19:46:43.000","21223","Dispatch Inspector","Abated - Close SR","2015-05-08T19:46:00.000",1,-76.662161,39.28773
"701  RAPPOLLA ST","BALTIMORE","STREETRE","TRM-Street Repairs","2015-04-14T15:35:26.000","2015-05-24T15:35:26.000","GREEKTOWN","15-00291187","MD","DUPCLOSD","2015-04-23T19:02:44.000","21224",NA,NA,NA,1,-76.5520079,39.284355
"2433  CYLBURN AVE","BALTIMORE","STREETRE","TRM-Street Repairs","2015-04-14T14:36:24.000","2015-05-24T14:36:24.000","CYLBURN","15-00290896","MD","CLOSED","2015-04-15T14:46:29.000","21215","Dispatch Work Crew","Abated - Close SR","2015-04-15T14:46:00.000",1,-76.6610181,39.3508103
"2603  BEETHOVEN AVE","BALTIMORE","STREETRE","TRM-Street Repairs","2015-04-14T14:18:06.000","2015-05-24T14:18:06.000","HOWARD PARK","15-00290840","MD","CLOSED","2015-04-15T18:39:37.000","21207","Dispatch Work Crew","Abated - Close SR","2015-04-15T18:39:00.000",1,-76.709616,39.3253119
"2600 W COLD SPRING LN","BALTIMORE","STREETRE","TRM-Street Repairs","2015-04-14T14:03:12.000","2015-05-24T14:03:12.000","CENTRAL PARK HEIGHTS","15-00290788","MD","CLOSED","2015-04-14T18:32:43.000","21215","Dispatch Work Crew","Abated - Close SR","2015-04-14T18:32:00.000",1,-76.6654779,39.340356
"N FRANKLINTOWN RD","BALTIMORE","STREETRE","TRM-Street Repairs","2015-04-14T13:24:44.000","2015-05-24T13:24:44.000","PENROSE/FAYETTE STREET OUTREACH","15-00290606","MD","CLOSED","2015-05-11T14:14:03.000","21223","Dispatch Inspector","Abated - Close SR","2015-05-11T14:13:00.000",1,-76.6869435,39.3047184
"HAMILTON AVE & HAMLET AVE","BALTIMORE","STREETRE","TRM-Street Repairs","2015-04-14T13:22:37.000","2015-05-24T13:22:37.000","HARFORD-ECHODALE/PERRING PARKWAY","15-00290590","MD","NEW","2015-04-14T13:22:37.000","21214",NA,NA,NA,1,-84.5480957,39.2335285
"W BALTIMORE ST &N EUTAW ST","BALTIMORE","STREETRE","TRM-Street Repairs","2015-04-13T19:41:13.000","2015-05-23T19:41:13.000","DOWNTOWN","15-00288743","MD","CLOSED","2015-05-05T13:41:36.000","21201","Dispatch Inspector","Abated - Close SR","2015-05-05T13:41:00.000",1,-88.1542236,41.3052771
"3016  EVERGREEN AVE","BALTIMORE","STREETRE","TRM-Street Repairs","2015-04-13T16:32:53.000","2015-05-23T16:32:53.000","GLENHAM-BELFORD","15-00287611","MD","NEW","2015-04-13T16:32:53.000","21214",NA,NA,NA,1,-76.55884,39.352687
"6500  EBERLE DR","BALTIMORE","STREETRE","TRM-Street Repairs","2015-04-13T19:20:43.000","2015-05-23T19:20:43.000","REISTERSTOWN STATION","15-00288587","MD","CLOSED","2015-04-14T16:45:20.000","21215","Dispatch Work Crew","Abated - Close SR","2015-04-14T16:45:00.000",1,-76.7060145,39.3533439
"6600  VINCENT LN","BALTIMORE","STREETRE","TRM-Street Repairs","2015-04-13T19:20:06.000","2015-05-23T19:20:06.000","REISTERSTOWN STATION","15-00288583","MD","CLOSED","2015-04-14T16:43:12.000","21215","Dispatch Work Crew","Abated - Close SR","2015-04-14T16:43:00.000",1,-76.7081136,39.3547252
"PIMLICO RD & THORNDALE AVE","BALTIMORE","STREETRE","TRM-Street Repairs","2015-04-13T18:34:11.000","2015-05-23T18:34:11.000","CYLBURN","15-00288361","MD","DUPCLOSD","2015-04-14T16:39:32.000","21215",NA,NA,NA,1,-76.6708003,39.3567506
"1500  NORTHWICK RD","BALTIMORE","STREETRE","TRM-Street Repairs","2015-04-13T18:08:20.000","2015-05-23T18:08:20.000","HILLEN","15-00288213","MD","NEW","2015-04-13T18:08:20.000","21218",NA,NA,NA,1,-76.591738,39.34379
"1201  WINDEMERE AVE","BALTIMORE","STREETRE","TRM-Street Repairs","2015-04-13T17:56:11.000","2015-05-23T17:56:11.000","EDNOR GARDENS-LAKESIDE","15-00288153","MD","NEW","2015-04-13T17:56:11.000","21218",NA,NA,NA,1,-76.599079,39.329897
"1600  RALWORTH RD","BALTIMORE","STREETRE","TRM-Street Repairs","2015-04-13T17:17:36.000","2015-05-23T17:17:36.000","HILLEN","15-00287907","MD","NEW","2015-04-13T17:17:36.000","21218",NA,NA,NA,1,-76.591278,39.3395595
"2007  CLIPPER PARK RD","BALTIMORE","STREETRE","TRM-Street Repairs","2015-04-13T17:13:32.000","2015-05-23T17:13:32.000","WOODBERRY","15-00287872","MD","CLOSED","2015-04-14T14:28:39.000","21211","Dispatch Work Crew","Abated - Close SR","2015-04-14T14:28:00.000",1,-76.6446849,39.3317527
"1  MERRYMOUNT RD","BALTIMORE","STREETRE","TRM-Street Repairs","2015-04-13T16:36:23.000","2015-05-23T16:36:23.000","ROLAND PARK","15-00287627","MD","CLOSED","2015-04-14T15:18:50.000","21210","Dispatch Work Crew","Abated - Close SR","2015-04-14T15:18:00.000",1,-76.642581,39.359522
"1920  MOUNT ROYAL TER","BALTIMORE","STREETRE","TRM-Street Repairs","2015-04-13T15:52:31.000","2015-05-23T15:52:31.000","RESERVOIR HILL","15-00287415","MD","CLOSED","2015-04-14T13:43:21.000","21217","Dispatch Work Crew","Abated - Close SR","2015-04-14T13:43:00.000",1,-76.6268407,39.3116117
"2600  SEVILLE AVE","BALTIMORE","STREETRE","TRM-Street Repairs","2015-04-13T15:16:21.000","2015-05-23T15:16:21.000","LEVINDALE","15-00287244","MD","CLOSED","2015-04-13T18:10:34.000","21215","Dispatch Work Crew","Abated - Close SR","2015-04-13T18:10:00.000",1,-76.6668465,39.351886
"6500  WALTHER AVE","BALTIMORE","STREETRE","TRM-Street Repairs","2015-04-09T23:37:16.000","2015-05-19T23:37:16.000","ROSEMONT EAST","15-00279595","MD","NEW","2015-04-09T23:37:16.000","21206",NA,NA,NA,1,-76.540246,39.3568752
"3000  THORNDALE AVE","BALTIMORE","STREETRE","TRM-Street Repairs","2015-04-13T13:15:37.000","2015-05-23T13:15:37.000","CENTRAL PARK HEIGHTS","15-00286413","MD","DUPCLOSD","2015-04-14T16:39:32.000","21215",NA,NA,NA,1,-76.6689257,39.3471991
"3400  DORITHAN RD","BALTIMORE","STREETRE","TRM-Street Repairs","2015-04-13T11:04:56.000","2015-05-23T11:04:56.000","EAST ARLINGTON","15-00285602","MD","CLOSED","2015-04-13T14:29:06.000","21215","Dispatch Work Crew","Abated - Close SR","2015-04-13T14:29:00.000",1,-76.6691462,39.3317486
"5200  WABASH AVE","BALTIMORE","STREETRE","TRM-Street Repairs","2015-04-13T10:57:38.000","2015-05-23T10:57:38.000","WEST ARLINGTON","15-00285592","MD","CLOSED","2015-04-13T14:27:06.000","21215","Dispatch Work Crew","Abated - Close SR","2015-04-13T14:27:00.000",1,-76.6866063,39.3419882
"REISTERSTOWN RD &W ROGERS AVE","BALTIMORE","STREETRE","TRM-Street Repairs","2015-04-13T10:55:31.000","2015-05-23T10:55:31.000","WOODMERE","15-00285587","MD","CLOSED","2015-04-13T15:04:51.000","21215","Dispatch Work Crew","Abated - Close SR","2015-04-13T15:04:00.000",1,-76.7338154,39.3843237
"623  RAPPOLLA ST","BALTIMORE","STREETRE","TRM-Street Repairs","2015-04-12T20:50:40.000","2015-05-22T20:50:40.000","GREEKTOWN","15-00285222","MD","CLOSED","2015-04-27T13:41:13.000","21224","Dispatch Work Crew","Abated - Close SR","2015-04-27T13:34:00.000",1,-76.5526108,39.2856126
"4800  BELLE AVE","BALTIMORE","STREETRE","TRM-Street Repairs","2015-04-12T19:19:02.000","2015-05-22T19:19:02.000","HOWARD PARK","15-00285129","MD","CLOSED","2015-04-13T18:11:54.000","21207","Dispatch Work Crew","Abated - Close SR","2015-04-13T18:11:00.000",1,-76.6954232,39.3352077
"2900 W BALTIMORE ST","BALTIMORE","STREETRE","TRM-Street Repairs","2015-04-12T14:52:10.000","2015-05-22T14:52:10.000","CARROLL-SOUTH HILTON","15-00284890","MD","CLOSED","2015-05-08T12:59:57.000","21229","Dispatch Inspector","Abated - Close SR","2015-05-08T12:59:00.000",1,-76.665303,39.2871101
"3200  WYLIE AVE","BALTIMORE","STREETRE","TRM-Street Repairs","2015-04-11T21:46:52.000","2015-05-21T21:46:52.000","CENTRAL PARK HEIGHTS","15-00284425","MD","CLOSED","2015-04-13T14:33:54.000","21215","Dispatch Work Crew","Abated - Close SR","2015-04-13T14:33:00.000",1,-76.6675986,39.3411287
"4137  FAIRFAX RD","BALTIMORE","STREETRE","TRM-Street Repairs","2015-04-11T18:33:23.000","2015-05-21T18:33:23.000","WINDSOR HILLS","15-00284248","MD","CLOSED","2015-04-13T15:23:43.000","21216","Dispatch Work Crew","Abated - Close SR","2015-04-13T15:23:00.000",1,-76.6864345,39.3204252
"6327  PIONEER DR","BALTIMORE","STREETRE","TRM-Street Repairs","2015-04-11T17:31:50.000","2015-05-21T17:31:50.000","HARFORD-ECHODALE/PERRING PARKWAY","15-00284177","MD","DUPOPEN","2015-04-11T19:32:37.000","21214",NA,NA,NA,1,-76.5719962,39.3644067
"800  VENABLE AVE","BALTIMORE","STREETRE","TRM-Street Repairs","2015-04-11T12:55:04.000","2015-05-21T12:55:04.000","WAVERLY","15-00283678","MD","NEW","2015-04-11T12:55:04.000","21218",NA,NA,NA,1,-76.604557,39.329365
"3700  RAVENWOOD AVE","BALTIMORE","STREETRE","TRM-Street Repairs","2015-04-11T12:47:20.000","2015-05-21T12:47:20.000","BELAIR-EDISON","15-00283669","MD","NEW","2015-04-11T12:47:20.000","21213",NA,NA,NA,1,-76.5666418,39.3155122
"4111  LIBERTY HEIGHTS AVE","BALTIMORE","STREETRE","TRM-Street Repairs","2015-04-11T10:49:06.000","2015-05-21T10:49:06.000","CENTRAL FOREST PARK","15-00283510","MD","CLOSED","2015-04-14T17:21:50.000","21207","Dispatch Work Crew","Abated - Close SR","2015-04-14T17:20:00.000",1,-76.688602,39.328801
"1900  ASHBURTON ST","BALTIMORE","STREETRE","TRM-Street Repairs","2015-04-11T09:56:06.000","2015-05-21T09:56:06.000","WALBROOK","15-00283476","MD","CLOSED","2015-04-16T16:42:54.000","21216","Dispatch Work Crew","Abated - Close SR","2015-04-16T16:42:00.000",1,-76.6622596,39.3093203
"3400  BENSON AVE","BALTIMORE","STREETRE","TRM-Street Repairs","2015-04-11T07:14:54.000","2015-05-21T07:14:54.000","VIOLETVILLE","15-00283452","MD","CLOSED","2015-05-06T19:17:02.000","21227","Dispatch Inspector","Abated - Close SR","2015-05-06T19:17:00.000",1,-76.671783,39.26753
"BENSON AVE & PINE HEIGHTS AVE","BALTIMORE","STREETRE","TRM-Street Repairs","2015-04-10T20:00:55.000","2015-05-20T20:00:55.000","VIOLETVILLE","15-00282911","MD","CLOSED","2015-05-08T19:38:59.000","21227","Dispatch Inspector","Abated - Close SR","2015-05-08T19:38:00.000",1,-117.6805312,34.0155625
"4241  BROOKHILL RD","BALTIMORE","STREETRE","TRM-Street Repairs","2015-04-10T17:54:17.000","2015-05-20T17:54:17.000","REISTERSTOWN STATION","15-00282048","MD","CLOSED","2015-04-13T18:05:49.000","21215","Dispatch Work Crew","Abated - Close SR","2015-04-13T18:05:00.000",1,-76.709441,39.356616
"2229  VAN DEMAN ST","BALTIMORE","STREETRE","TRM-Street Repairs","2015-04-10T17:39:01.000","2015-05-20T17:39:01.000","HOLABIRD INDUSTRIAL PARK","15-00281981","MD","CLOSED","2015-04-27T13:29:53.000","21224","Dispatch Work Crew","Abated - Close SR","2015-04-27T13:26:00.000",1,-76.535298,39.2625375
"3500  HILLSDALE RD","BALTIMORE","STREETRE","TRM-Street Repairs","2015-04-10T17:12:56.000","2015-05-20T17:12:56.000","HOWARD PARK","15-00281850","MD","CLOSED","2015-04-13T13:51:07.000","21207","Dispatch Work Crew","Abated - Close SR","2015-04-13T13:51:00.000",1,-76.6947562,39.3299902
"3300  HILLSDALE RD","BALTIMORE","STREETRE","TRM-Street Repairs","2015-04-10T17:12:11.000","2015-05-20T17:12:11.000","HOWARD PARK","15-00281846","MD","CLOSED","2015-04-13T16:59:57.000","21207","Dispatch Work Crew","Abated - Close SR","2015-04-13T16:59:00.000",1,-76.6958648,39.3277671
"1201  LAKESIDE AVE","BALTIMORE","STREETRE","TRM-Street Repairs","2015-04-10T16:57:33.000","2015-05-20T16:57:33.000","EDNOR GARDENS-LAKESIDE","15-00281765","MD","NEW","2015-04-10T16:57:33.000","21218",NA,NA,NA,1,-76.599085,39.329091
"2200  CHILHAM RD","BALTIMORE","STREETRE","TRM-Street Repairs","2015-04-10T16:50:35.000","2015-05-20T16:50:35.000","MOUNT WASHINGTON","15-00281723","MD","CLOSED","2015-04-13T13:49:48.000","21209","Dispatch Work Crew","Abated - Close SR","2015-04-13T13:49:00.000",1,-76.662836,39.364247
"5300  REISTERSTOWN RD","BALTIMORE","STREETRE","TRM-Street Repairs","2015-04-10T16:19:44.000","2015-05-20T16:19:44.000","WOODMERE","15-00281563","MD","CLOSED","2015-04-13T18:08:38.000","21215","Dispatch Work Crew","Abated - Close SR","2015-04-13T18:00:00.000",1,-76.686847,39.344809
"3400  MILFORD AVE","BALTIMORE","STREETRE","TRM-Street Repairs","2015-04-10T16:05:59.000","2015-05-20T16:05:59.000","HOWARD PARK","15-00281497","MD","CLOSED","2015-04-13T14:25:17.000","21207","Dispatch Work Crew","Abated - Close SR","2015-04-13T14:25:00.000",1,-76.70207,39.331135
"N CHARLES ST &E FAYETTE ST","BALTIMORE","STREETRE","TRM-Street Repairs","2015-04-10T11:24:14.000","2015-05-20T11:24:14.000","DOWNTOWN","15-00280008","MD","CLOSED","2015-04-20T16:28:19.000","21201","Dispatch Work Crew","Work Completed","2015-04-20T16:28:00.000",1,-76.624156,39.3561528
"4109  LIBERTY HEIGHTS AVE","BALTIMORE","STREETRE","TRM-Street Repairs","2015-04-10T07:25:17.000","2015-05-20T07:25:17.000","CENTRAL FOREST PARK","15-00279749","MD","DUPCLOSD","2015-04-14T17:21:50.000","21207",NA,NA,NA,1,-76.6884369,39.328752
"3000 N HILTON ST","BALTIMORE","STREETRE","TRM-Street Repairs","2015-04-09T21:44:37.000","2015-05-19T21:44:37.000","FOREST PARK","15-00279467","MD","CLOSED","2015-04-10T17:20:38.000","21216","Dispatch Work Crew","Abated - Close SR","2015-04-10T17:20:00.000",1,-76.673419,39.320575
"2500 N HILTON ST","BALTIMORE","STREETRE","TRM-Street Repairs","2015-04-09T21:43:43.000","2015-05-19T21:43:43.000","HANLON-LONGWOOD","15-00279464","MD","DUPCLOSD","2015-04-10T15:24:52.000","21216",NA,NA,NA,1,-76.6727432,39.3152965
"ANNAPOLIS RD &W PATAPSCO AVE","BALTIMORE","STREETRE","TRM-Street Repairs","2015-04-09T20:56:48.000","2015-05-19T20:56:48.000","CHERRY HILL","15-00279404","MD","CLOSED","2015-05-05T17:18:53.000","21230","Dispatch Inspector","Abated - Close SR","2015-05-05T17:18:00.000",1,-76.8261738,38.9586401
"4600  PARKWOOD AVE","BALTIMORE","STREETRE","TRM-Street Repairs","2015-04-09T16:03:40.000","2015-05-19T16:03:40.000","FRANKFORD","15-00278106","MD","NEW","2015-04-09T16:03:40.000","21206",NA,NA,NA,1,-76.5507779,39.331923
"LIBERTY HEIGHTS AVE & GRANADA AVE","BALTIMORE","STREETRE","TRM-Street Repairs","2015-04-09T13:19:18.000","2015-05-19T13:19:18.000","DORCHESTER","15-00277449","MD","DUPCLOSD","2015-04-10T15:31:45.000","21207",NA,NA,NA,1,-76.6824045,39.3273606
"1900 N ELLAMONT ST","BALTIMORE","STREETRE","TRM-Street Repairs","2015-04-09T12:27:59.000","2015-05-19T12:27:59.000","WALBROOK","15-00277149","MD","CLOSED","2015-04-09T18:00:39.000","21216","Dispatch Work Crew","Abated - Close SR","2015-04-09T18:00:00.000",1,-76.6709429,39.3090436
"1900  BEECHWOOD AVE","BALTIMORE","STREETRE","TRM-Street Repairs","2015-04-09T11:45:13.000","2015-05-19T11:45:13.000","FRANKLINTOWN","15-00276895","MD","CLOSED","2015-04-15T15:11:17.000","21207","Dispatch Work Crew","Abated - Close SR","2015-04-15T15:11:00.000",1,-76.7060635,39.3051104
"300  KANE ST","BALTIMORE","STREETRE","TRM-Street Repairs","2015-04-09T11:10:20.000","2015-05-19T11:10:20.000","JOSEPH LEE","15-00276746","MD","CLOSED","2015-04-29T19:18:21.000","21224","Dispatch Inspector","Abated - Close SR","2015-04-29T19:15:00.000",1,-76.537589,39.290317
"1 E COLD SPRING LN","BALTIMORE","STREETRE","TRM-Street Repairs","2015-04-09T11:05:42.000","2015-05-19T11:05:42.000","GUILFORD","15-00276732","MD","NEW","2015-04-09T11:05:42.000","21212",NA,NA,NA,1,-76.622082,39.3453138
"4111  LIBERTY HEIGHTS AVE","BALTIMORE","STREETRE","TRM-Street Repairs","2015-04-09T10:52:47.000","2015-05-19T10:52:47.000","CENTRAL FOREST PARK","15-00276693","MD","DUPCLOSD","2015-04-14T17:21:50.000","21207","Dispatch Work Crew","Abated - Close SR","2015-04-13T14:38:00.000",1,-76.688602,39.328801
"4200  GROVELAND AVE","BALTIMORE","STREETRE","TRM-Street Repairs","2015-04-09T10:20:17.000","2015-05-19T10:20:17.000","WEST ARLINGTON","15-00276644","MD","CLOSED","2015-04-09T15:48:42.000","21215","Dispatch Work Crew","Abated - Close SR","2015-04-09T15:48:00.000",1,-76.689688,39.341036
"4500  LIBERTY HEIGHTS AVE","BALTIMORE","STREETRE","TRM-Street Repairs","2015-04-08T23:49:52.000","2015-05-18T23:49:52.000","HOWARD PARK","15-00276420","MD","CLOSED","2015-04-09T15:38:32.000","21207","Dispatch Work Crew","Abated - Close SR","2015-04-09T15:38:00.000",1,-76.693157,39.330948
"LIBERTY HEIGHTS AVE & HICKS AVE","BALTIMORE","STREETRE","TRM-Street Repairs","2015-04-08T22:05:06.000","2015-05-18T22:05:06.000","CENTRAL FOREST PARK","15-00276265","MD","CLOSED","2015-04-09T15:27:29.000","21207","Dispatch Work Crew","Abated - Close SR","2015-04-09T15:27:00.000",1,-76.6824045,39.3273606
"4100  LIBERTY HEIGHTS AVE","BALTIMORE","STREETRE","TRM-Street Repairs","2015-04-08T20:52:36.000","2015-05-18T20:52:36.000","DORCHESTER","15-00276072","MD","CLOSED","2015-04-10T15:31:45.000","21207","Dispatch Work Crew","Abated - Close SR","2015-04-10T15:31:00.000",1,-76.687572,39.329128
"622 W 40TH ST","BALTIMORE","STREETRE","TRM-Street Repairs","2015-04-08T19:40:14.000","2015-05-18T19:40:14.000","ROLAND PARK","15-00275867","MD","CLOSED","2015-04-09T15:20:40.000","21211","Dispatch Work Crew","Abated - Close SR","2015-04-09T15:20:00.000",1,-76.628246,39.337499
"2222  LINDEN AVE","BALTIMORE","STREETRE","TRM-Street Repairs","2015-04-08T19:27:45.000","2015-05-18T19:27:45.000","RESERVOIR HILL","15-00275814","MD","CLOSED","2015-04-10T18:20:01.000","21217","Dispatch Work Crew","Abated - Close SR","2015-04-10T18:20:00.000",1,-76.63499,39.312765
"CARLEVIEW RD &W FOREST PARK AVE","BALTIMORE","STREETRE","TRM-Street Repairs","2015-04-08T18:53:27.000","2015-05-18T18:53:27.000","WEST FOREST PARK","15-00275593","MD","CLOSED","2015-04-09T15:40:14.000","21207","Dispatch Work Crew","Abated - Close SR","2015-04-09T15:40:00.000",1,-76.694476,39.3239375
"4200  WINDSOR MILL RD","BALTIMORE","STREETRE","TRM-Street Repairs","2015-04-08T17:47:07.000","2015-05-18T17:47:07.000","WEST FOREST PARK","15-00275269","MD","CLOSED","2015-04-10T15:28:42.000","21216","Dispatch Work Crew","Abated - Close SR","2015-04-10T15:28:00.000",1,-76.6861387,39.31263
"5700  RUSK AVE","BALTIMORE","STREETRE","TRM-Street Repairs","2015-04-08T16:33:35.000","2015-05-18T16:33:35.000","MOUNT WASHINGTON","15-00274893","MD","CLOSED","2015-04-30T15:48:20.000","21215","Dispatch Work Crew","Abated - Close SR","2015-04-30T15:48:00.000",1,-76.673224,39.360088
"6804  EASTERN AVE","BALTIMORE","STREETRE","TRM-Street Repairs","2015-04-08T15:55:54.000","2015-05-18T15:55:54.000","EASTWOOD","15-00274735","MD","CLOSED","2015-05-06T19:11:00.000","21224","Dispatch Work Crew","Abated - Close SR","2015-05-06T19:00:00.000",1,-76.5308607,39.2883525
"PINKNEY RD & PARK HEIGHTS AVE","BALTIMORE","STREETRE","TRM-Street Repairs","2015-04-08T14:23:40.000","2015-05-18T14:23:40.000","GLEN","15-00274324","MD","CLOSED","2015-04-09T18:38:29.000","21215","Dispatch Work Crew","Abated - Close SR","2015-04-09T18:38:00.000",1,-78.0751703,35.5248383
"110  EDGEVALE RD","BALTIMORE","STREETRE","TRM-Street Repairs","2015-04-07T20:52:59.000","2015-05-17T20:52:59.000","ROLAND PARK","15-00272467","MD","CLOSED","2015-04-09T15:11:04.000","21210","Dispatch Work Crew","Abated - Close SR","2015-04-09T15:10:00.000",1,-76.641417,39.3531369
"1269  WASHINGTON BLVD","BALTIMORE","STREETRE","TRM-Street Repairs","2015-04-07T20:12:51.000","2015-05-17T20:12:51.000","WASHINGTON VILLAGE","15-00272254","MD","CLOSED","2015-05-11T12:47:05.000","21230","Dispatch Inspector","Abated - Close SR","2015-05-11T12:47:00.000",1,-76.635039,39.28066
"7708  VICTORY AVE","BALTIMORE","STREETRE","TRM-Street Repairs","2015-04-07T18:26:42.000","2015-05-17T18:26:42.000","TAYLOR HEIGHTS","15-00271685","MD","NEW","2015-04-07T18:26:42.000","21234",NA,NA,NA,1,-76.537042,39.370666
"5800  WALTHER AVE","BALTIMORE","STREETRE","TRM-Street Repairs","2015-04-07T17:30:31.000","2015-05-17T17:30:31.000","GLENHAM-BELFORD","15-00271378","MD","DUPOPEN","2015-04-07T17:30:31.000","21206",NA,NA,NA,1,-76.548528,39.349353
"CLIFTON AVE &N SMALLWOOD ST","BALTIMORE","STREETRE","TRM-Street Repairs","2015-04-07T14:07:12.000","2015-05-17T14:07:12.000","MONDAWMIN","15-00270368","MD","CLOSED","2015-04-27T18:24:21.000","21216","Dispatch Work Crew","Abated - Close SR","2015-04-27T18:24:00.000",1,-81.3889992,38.2070609
"2500  WILKENS AVE","BALTIMORE","STREETRE","TRM-Street Repairs","2015-04-07T13:51:08.000","2015-05-17T13:51:08.000","MILLHILL","15-00270267","MD","CLOSED","2015-05-08T19:40:55.000","21223","Dispatch Inspector","Abated - Close SR","2015-05-08T19:40:00.000",1,-76.6544399,39.27972
"5300  HERRING RUN DR","BALTIMORE","STREETRE","TRM-Street Repairs","2015-04-07T13:07:35.000","2015-05-17T13:07:35.000","HARFORD-ECHODALE/PERRING PARKWAY","15-00270058","MD","NEW","2015-04-07T13:07:35.000","21214",NA,NA,NA,1,-76.572543,39.3538361
"909  BELGIAN AVE","BALTIMORE","STREETRE","TRM-Street Repairs","2015-04-07T11:35:47.000","2015-05-17T11:35:47.000","PEN LUCY","15-00269639","MD","NEW","2015-04-07T11:35:47.000","21218",NA,NA,NA,1,-76.6023726,39.3404367
"3000  THORNDALE AVE","BALTIMORE","STREETRE","TRM-Street Repairs","2015-04-07T11:12:07.000","2015-05-17T11:12:07.000","CENTRAL PARK HEIGHTS","15-00269510","MD","CLOSED","2015-04-14T16:39:32.000","21215","Dispatch Work Crew","Abated - Close SR","2015-04-14T16:39:00.000",1,-76.6689257,39.3471991
"3103  WYLIE AVE","BALTIMORE","STREETRE","TRM-Street Repairs","2015-04-07T11:02:26.000","2015-05-17T11:02:26.000","CENTRAL PARK HEIGHTS","15-00269465","MD","CLOSED","2015-04-07T15:45:39.000","21215","Dispatch Work Crew","Abated - Close SR","2015-04-07T15:45:00.000",1,-76.6669632,39.3413256
"W MADISON ST &N CHARLES ST","BALTIMORE","STREETRE","TRM-Street Repairs","2015-04-07T10:31:55.000","2015-05-17T10:31:55.000","MOUNT VERNON","15-00269413","MD","DUPCLOSD","2015-05-08T19:31:59.000","21201",NA,NA,NA,1,-90.7226097,35.0131472
"6101  MAYWOOD AVE","BALTIMORE","STREETRE","TRM-Street Repairs","2015-04-06T21:05:19.000","2015-05-16T21:05:19.000","MOUNT WASHINGTON","15-00268975","MD","CLOSED","2015-04-07T14:52:11.000","21209","Dispatch Work Crew","Abated - Close SR","2015-04-07T14:52:00.000",1,-76.65992,39.3696
"2809  RIDGEWOOD AVE","BALTIMORE","STREETRE","TRM-Street Repairs","2015-04-06T20:05:49.000","2015-05-16T20:05:49.000","TOWANDA-GRANTLEY","15-00268824","MD","CLOSED","2015-04-07T16:50:14.000","21215","Dispatch Work Crew","Abated - Close SR","2015-04-07T16:50:00.000",1,-76.669792,39.339342
"2800  STEELE RD","BALTIMORE","STREETRE","TRM-Street Repairs","2015-04-06T19:10:15.000","2015-05-16T19:10:15.000","CHESWOLDE","15-00268611","MD","CLOSED","2015-05-06T15:33:46.000","21209","Dispatch Work Crew","Abated - Close SR","2015-05-06T15:33:00.000",1,-76.680232,39.363553
"WALTHER AVE & WHITE AVE","BALTIMORE","STREETRE","TRM-Street Repairs","2015-04-06T19:08:39.000","2015-05-16T19:08:39.000","GLENHAM-BELFORD","15-00268603","MD","NEW","2015-04-06T19:08:39.000","21206",NA,NA,NA,1,-76.5555633,39.3464895
"PURNELL DR &N FOREST PARK AVE","GWYNN OAK","STREETRE","TRM-Street Repairs","2015-04-06T18:56:26.000","2015-05-16T18:56:26.000","PURNELL","15-00268536","MD","CLOSED","2015-04-07T17:45:59.000","21207","Dispatch Work Crew","Abated - Close SR","2015-04-07T17:45:00.000",1,-76.7084142,39.320239
"1400  CARSWELL ST","BALTIMORE","STREETRE","TRM-Street Repairs","2015-04-06T18:54:41.000","2015-05-16T18:54:41.000","COLDSTREAM HOMESTEAD MONTEBELLO","15-00268528","MD","NEW","2015-04-06T18:54:41.000","21218",NA,NA,NA,1,-76.5979303,39.3241946
"3914  LOCH RAVEN BLVD","BALTIMORE","STREETRE","TRM-Street Repairs","2015-04-06T18:13:59.000","2015-05-16T18:13:59.000","ORIGINAL NORTHWOOD","15-00268342","MD","NEW","2015-04-06T18:13:59.000","21218",NA,NA,NA,1,-76.594692,39.337572
"E PATAPSCO AVE &S HANOVER ST","BALTIMORE","STREETRE","TRM-Street Repairs","2015-04-06T16:38:42.000","2015-05-16T16:38:42.000","BROOKLYN","15-00267809","MD","CLOSED","2015-05-05T17:20:20.000","21225","Dispatch Inspector","Abated - Close SR","2015-05-05T17:20:00.000",1,-76.5923264,39.2332309
"5100  OAKLAWN RD","BALTIMORE","STREETRE","TRM-Street Repairs","2015-04-06T13:35:31.000","2015-05-16T13:35:31.000","FRANKLINTOWN","15-00266808","MD","CLOSED","2015-05-06T17:26:51.000","21207","Dispatch Work Crew","Abated - Close SR","2015-05-06T17:26:00.000",1,-76.70558,39.306729
"5302  WABASH AVE","BALTIMORE","STREETRE","TRM-Street Repairs","2015-04-06T13:23:39.000","2015-05-16T13:23:39.000","WEST ARLINGTON","15-00266731","MD","DUPCLOSD","2015-05-06T17:15:01.000","21215",NA,NA,NA,1,-76.6897369,39.342476
"308  EVESHAM AVE","BALTIMORE","STREETRE","TRM-Street Repairs","2015-04-06T13:18:50.000","2015-05-16T13:18:50.000","LAKE EVESHAM","15-00266694","MD","NEW","2015-04-06T13:18:50.000","21212",NA,NA,NA,1,-76.614043,39.365415
"2614  ANNAPOLIS RD","BALTIMORE","STREETRE","TRM-Street Repairs","2015-04-06T10:42:02.000","2015-05-16T10:42:02.000","WESTPORT","15-00265873","MD","CLOSED","2015-05-08T12:57:31.000","21230","Dispatch Inspector","Abated - Close SR","2015-05-08T12:57:00.000",1,-76.636868,39.2582376
"BOSTON AVE & BETHLEHEM AVE","BALTIMORE","STREETRE","TRM-Street Repairs","2015-04-05T10:51:53.000","2015-05-15T10:51:53.000","GRACELAND PARK","15-00265031","MD","CLOSED","2015-05-06T19:07:51.000","21222","Dispatch Work Crew","Abated - Close SR","2015-05-06T19:05:00.000",1,-73.1684833,41.1934305
"300  YALE AVE","BALTIMORE","STREETRE","TRM-Street Repairs","2015-04-04T14:54:32.000","2015-05-14T14:54:32.000","IRVINGTON","15-00264303","MD","CLOSED","2015-05-05T17:23:39.000","21229","Dispatch Inspector","Abated - Close SR","2015-05-05T17:23:00.000",1,-76.685612,39.2816592
"W NORTHERN PKWY &W BELVEDERE AVE","BALTIMORE","STREETRE","TRM-Street Repairs","2015-04-04T12:33:28.000","2015-05-14T12:33:28.000","COLDSPRING","15-00264024","MD","CLOSED","2015-04-06T19:24:25.000","21209","Dispatch Work Crew","Abated - Close SR","2015-04-06T19:24:00.000",1,-76.6656161,39.3557104
"5503  FRANKFORD ESTATES DR","BALTIMORE","STREETRE","TRM-Street Repairs","2015-04-03T22:29:59.000","2015-05-13T22:29:59.000","FRANKFORD","15-00263654","MD","NEW","2015-04-04T01:05:20.000","21206",NA,NA,NA,1,-76.537159,39.31971
"5701  NORWOOD AVE","BALTIMORE","STREETRE","TRM-Street Repairs","2015-04-03T22:25:31.000","2015-05-13T22:25:31.000","HOWARD PARK","15-00263636","MD","CLOSED","2015-04-06T16:27:46.000","21207","Dispatch Work Crew","Abated - Close SR","2015-04-06T16:27:00.000",1,-76.709763,39.32586
"500  KANE ST","BALTIMORE","STREETRE","TRM-Street Repairs","2015-04-03T19:56:00.000","2015-05-13T19:56:00.000","PULASKI INDUSTRIAL AREA","15-00263369","MD","CLOSED","2015-04-29T19:20:36.000","21224","Dispatch Work Crew","Abated - Close SR","2015-04-29T19:19:00.000",1,-76.5371536,39.2877332
"3407  BENSON AVE","BALTIMORE","STREETRE","TRM-Street Repairs","2015-04-03T13:31:06.000","2015-05-13T13:31:06.000","VIOLETVILLE","15-00262476","MD","CLOSED","2015-05-06T19:17:56.000","21227","Dispatch Inspector","Abated - Close SR","2015-05-06T19:17:00.000",1,-76.670108,39.267908
"2200 N HILTON ST","BALTIMORE","STREETRE","TRM-Street Repairs","2015-04-03T00:39:51.000","2015-05-13T00:39:51.000","WALBROOK","15-00261669","MD","CLOSED","2015-04-03T13:33:40.000","21216","Dispatch Work Crew","Abated - Close SR","2015-04-03T13:33:00.000",1,-76.6725461,39.312125
"N EUTAW ST &W BALTIMORE ST","BALTIMORE","STREETRE","TRM-Street Repairs","2015-04-03T00:08:05.000","2015-05-13T00:08:05.000","DOWNTOWN","15-00261630","MD","CLOSED","2015-05-05T13:04:50.000","21201","Dispatch Work Crew","Abated - Close SR","2015-05-05T13:04:00.000",1,-76.6213898,39.2967098
"5810  GLENKIRK CT","BALTIMORE","STREETRE","TRM-Street Repairs","2015-04-02T21:39:09.000","2015-05-12T21:39:09.000","RAMBLEWOOD","15-00261395","MD","NEW","2015-04-02T21:39:09.000","21239",NA,NA,NA,1,-76.590053,39.362729
"1015  POPLAR HILL RD","BALTIMORE","STREETRE","TRM-Street Repairs","2015-04-02T21:31:02.000","2015-05-12T21:31:02.000","NORTH ROLAND PARK/POPLAR HILL","15-00261380","MD","CLOSED","2015-04-03T14:34:42.000","21210","Dispatch Work Crew","Abated - Close SR","2015-04-03T14:34:00.000",1,-76.642338,39.366485
"5600  THE ALAMEDA","BALTIMORE","STREETRE","TRM-Street Repairs","2015-04-02T21:15:11.000","2015-05-12T21:15:11.000","GLEN OAKS","15-00261319","MD","NEW","2015-04-02T21:15:11.000","21239",NA,NA,NA,1,-76.5952548,39.3598677
"100 W UNIVERSITY PKWY","BALTIMORE","STREETRE","TRM-Street Repairs","2015-04-02T19:19:03.000","2015-05-12T19:19:03.000","TUSCANY-CANTERBURY","15-00260891","MD","CLOSED","2015-04-03T14:49:05.000","21210","Dispatch Work Crew","Abated - Close SR","2015-04-03T14:49:00.000",1,-76.620687,39.334798
"3400  HATTON RD","BALTIMORE","STREETRE","TRM-Street Repairs","2015-04-02T16:17:42.000","2015-05-12T16:17:42.000","CROSS COUNTRY","15-00259917","MD","CLOSED","2015-04-03T13:29:42.000","21208","Dispatch Work Crew","Abated - Close SR","2015-04-03T13:29:00.000",1,-76.70403,39.370861
"3312  NERAK RD","BALTIMORE","STREETRE","TRM-Street Repairs","2015-04-02T16:16:47.000","2015-05-12T16:16:47.000","CROSS COUNTRY","15-00259915","MD","CLOSED","2015-04-03T13:30:56.000","21208","Dispatch Work Crew","Abated - Close SR","2015-04-03T13:30:00.000",1,-76.7038041,39.37102
"1647  SHERWOOD AVE","BALTIMORE","STREETRE","TRM-Street Repairs","2015-04-02T16:16:15.000","2015-05-12T16:16:15.000","LOCH RAVEN","15-00259910","MD","NEW","2015-04-02T16:16:15.000","21239",NA,NA,NA,1,-76.582819,39.360453
"2200 S CLINTON ST","BALTIMORE","STREETRE","TRM-Street Repairs","2015-04-02T14:30:09.000","2015-05-12T14:30:09.000","CANTON INDUSTRIAL AREA","15-00259485","MD","CLOSED","2015-04-27T16:34:19.000","21224","Dispatch Inspector","Abated - Close SR","2015-04-27T16:31:00.000",1,-76.570414,39.264864
"2500  KIRK AVE","BALTIMORE","STREETRE","TRM-Street Repairs","2015-04-02T14:11:59.000","2015-05-12T14:11:59.000","COLDSTREAM HOMESTEAD MONTEBELLO","15-00259393","MD","DUPCLOSD","2015-05-06T17:48:38.000","21218",NA,NA,NA,1,-76.6020757,39.318245
"N EDGEWOOD ST & SPRINGDALE AVE","BALTIMORE","STREETRE","TRM-Street Repairs","2015-04-02T14:05:40.000","2015-05-12T14:05:40.000","FOREST PARK","15-00259366","MD","CLOSED","2015-04-03T13:32:24.000","21216","Dispatch Work Crew","Abated - Close SR","2015-04-03T13:32:00.000",1,-77.0917168,38.8844676
"0","BALTIMORE","STREETRE","TRM-Street Repairs","2015-04-02T13:09:39.000","2015-05-12T13:09:39.000","WYNDHURST","15-00258936","MD","CLOSED","2015-04-11T13:47:16.000",NA,"Dispatch Work Crew","Abated - Close SR","2015-04-11T13:47:00.000",1,-76.6145743,39.2798939
"979  KEY HWY","BALTIMORE","STREETRE","TRM-Street Repairs","2015-04-02T12:55:24.000","2015-05-12T12:55:24.000","INNER HARBOR","15-00258779","MD","CLOSED","2015-04-03T11:50:14.000","21230","Dispatch Work Crew","Abated - Close SR","2015-04-03T11:49:00.000",1,-76.6063232,39.278695
"3400  DENNLYN RD","BALTIMORE","STREETRE","TRM-Street Repairs","2015-04-02T12:32:05.000","2015-05-12T12:32:05.000","ASHBURTON","15-00258671","MD","CLOSED","2015-04-03T13:09:06.000","21215","Dispatch Work Crew","Abated - Close SR","2015-04-03T13:00:00.000",1,-76.66855,39.32393
"4307  WHITE AVE","BALTIMORE","STREETRE","TRM-Street Repairs","2015-04-02T00:13:00.000","2015-05-12T00:13:00.000","FRANKFORD","15-00258069","MD","DUPOPEN","2015-04-02T00:13:00.000","21206",NA,NA,NA,1,-76.540539,39.342387
"440  ELRINO ST","BALTIMORE","STREETRE","TRM-Street Repairs","2015-04-02T01:01:13.000","2015-05-12T01:01:13.000","JOSEPH LEE","15-00258138","MD","CLOSED","2015-04-27T16:22:08.000","21224","Dispatch Inspector","Abated - Close SR","2015-04-27T16:21:00.000",1,-76.543133,39.288063
"3904  GLENMORE AVE","BALTIMORE","STREETRE","TRM-Street Repairs","2015-04-02T00:34:54.000","2015-05-12T00:34:54.000","ROSEMONT EAST","15-00258100","MD","NEW","2015-04-02T00:34:54.000","21206",NA,NA,NA,1,-76.538358,39.353428
"S ARLINGTON AVE &W BALTIMORE ST","BALTIMORE","STREETRE","TRM-Street Repairs","2015-04-01T23:25:46.000","2015-05-11T23:25:46.000","POPPLETON","15-00258032","MD","CLOSED","2015-05-08T17:51:59.000","21223","Dispatch Work Crew","Abated - Close SR","2015-05-08T17:51:00.000",1,-86.0635484,39.705904
"2900  HURON ST","BALTIMORE","STREETRE","TRM-Street Repairs","2015-04-01T19:46:10.000","2015-05-11T19:46:10.000","LAKELAND","15-00257587","MD","CLOSED","2015-05-11T18:22:24.000","21230","Dispatch Inspector","Abated - Close SR","2015-05-11T18:22:00.000",1,-76.6490052,39.2568487
"4623  FALLS RD","BALTIMORE","STREETRE","TRM-Street Repairs","2015-04-01T18:47:15.000","2015-05-11T18:47:15.000","ROLAND PARK","15-00257215","MD","CLOSED","2015-04-02T17:36:56.000","21209","Dispatch Work Crew","Abated - Close SR","2015-04-02T17:36:00.000",1,-76.639691,39.34495
"2406  MAYFIELD AVE","BALTIMORE","STREETRE","TRM-Street Repairs","2015-04-01T18:34:27.000","2015-05-11T18:34:27.000","MAYFIELD","15-00257147","MD","NEW","2015-04-01T18:34:27.000","21213",NA,NA,NA,1,-76.578465,39.326496
"4302  WHITE AVE","BALTIMORE","STREETRE","TRM-Street Repairs","2015-04-01T18:16:30.000","2015-05-11T18:16:30.000","CEDMONT","15-00257047","MD","NEW","2015-04-01T18:16:30.000","21206",NA,NA,NA,1,-76.540616,39.342885
"400  EASTLYNNE AVE","BALTIMORE","STREETRE","TRM-Street Repairs","2015-04-01T17:33:05.000","2015-05-11T17:33:05.000","MILLHILL","15-00256887","MD","CLOSED","2015-05-08T19:37:51.000","21223","Dispatch Work Crew","Abated - Close SR","2015-05-08T19:37:00.000",1,-76.6594594,39.28084
"FRANKLINGTOWN ELLAMONT","BALTIMORE","STREETRE","TRM-Street Repairs","2015-04-01T17:27:32.000","2015-05-11T17:27:32.000","ROSEMONT","15-00256867","MD","CLOSED","2015-05-08T19:39:55.000","21216","Dispatch Inspector","Abated - Close SR","2015-05-08T19:39:00.000",1,-76.6686345,39.3253089
"2524  BOARMAN AVE","BALTIMORE","STREETRE","TRM-Street Repairs","2015-04-01T17:08:11.000","2015-05-11T17:08:11.000","GREENSPRING","15-00256759","MD","CLOSED","2015-04-02T16:21:55.000","21215","Dispatch Work Crew","Abated - Close SR","2015-04-02T16:21:00.000",1,-76.663984,39.340069
"904 N CHARLES ST","BALTIMORE","STREETRE","TRM-Street Repairs","2015-04-01T16:06:45.000","2015-05-11T16:06:45.000","MOUNT VERNON","15-00256542","MD","CLOSED","2015-05-08T19:48:20.000","21201","Dispatch Inspector","Abated - Close SR","2015-05-08T19:48:00.000",1,-76.616195,39.299839
"2225  WESTFIELD AVE","BALTIMORE","STREETRE","TRM-Street Repairs","2015-04-01T15:53:36.000","2015-05-11T15:53:36.000","HARFORD-ECHODALE/PERRING PARKWAY","15-00256484","MD","NEW","2015-04-01T15:53:36.000","21214",NA,NA,NA,1,-76.568518,39.364409
"SULGRAVE AVE & WOODCREST AVE","BALTIMORE","STREETRE","TRM-Street Repairs","2015-04-01T13:02:44.000","2015-05-11T13:02:44.000","MOUNT WASHINGTON","15-00255554","MD","CLOSED","2015-04-02T14:17:21.000","21215","Dispatch Work Crew","Abated - Close SR","2015-04-02T14:17:00.000",1,-76.6671185,39.3612082
"4302  COOK AVE","BALTIMORE","STREETRE","TRM-Street Repairs","2015-04-01T12:58:09.000","2015-05-11T12:58:09.000","FRANKFORD","15-00255513","MD","NEW","2015-04-01T12:58:09.000","21206",NA,NA,NA,1,-76.55098,39.3362089
"4800  POE AVE","BALTIMORE","STREETRE","TRM-Street Repairs","2015-04-01T12:33:55.000","2015-05-11T12:33:55.000","CYLBURN","15-00255345","MD","CLOSED","2015-04-01T18:27:56.000","21215","Dispatch Work Crew","Abated - Close SR","2015-04-01T18:27:00.000",1,-76.663596,39.347246
"2500  BROOKFIELD AVE","BALTIMORE","STREETRE","TRM-Street Repairs","2015-04-01T12:33:36.000","2015-05-11T12:33:36.000","RESERVOIR HILL","15-00255343","MD","CLOSED","2015-04-02T13:35:06.000","21217","Dispatch Work Crew","Abated - Close SR","2015-04-02T13:35:00.000",1,-76.634235,39.315313
"904  VALENCIA CT","BALTIMORE","STREETRE","TRM-Street Repairs","2015-04-01T12:11:20.000","2015-05-11T12:11:20.000","INNER HARBOR","15-00255191","MD","DUPCLOSD","2015-04-03T11:50:14.000","21230",NA,NA,NA,1,-76.6065134,39.2791552
"EUTAW PL & DOLPHIN ST","BALTIMORE","STREETRE","TRM-Street Repairs","2015-04-01T11:18:06.000","2015-05-11T11:18:06.000","MADISON PARK","15-00254832","MD","DUPCLOSD","2015-04-21T16:44:47.000","21217",NA,NA,NA,1,-87.8875145,32.8406848
"4011  CHATHAM RD","BALTIMORE","STREETRE","TRM-Street Repairs","2015-04-01T10:10:01.000","2015-05-11T10:10:01.000","DORCHESTER","15-00254733","MD","CLOSED","2015-05-11T19:12:49.000","21207","Dispatch Work Crew","Closed","2015-05-11T19:12:00.000",1,-76.6859939,39.3301779
"2200  REISTERSTOWN RD","BALTIMORE","STREETRE","TRM-Street Repairs","2015-03-31T21:16:59.000","2015-05-10T21:16:59.000","MONDAWMIN","15-00254328","MD","CLOSED","2015-04-01T14:49:57.000","21217","Dispatch Work Crew","Abated - Close SR","2015-04-01T14:49:00.000",1,-76.6466263,39.3134101
"6600  WALLIS AVE","BALTIMORE","STREETRE","TRM-Street Repairs","2015-03-31T20:58:14.000","2015-05-10T20:58:14.000","CROSS COUNTRY","15-00254293","MD","CLOSED","2015-04-01T15:15:49.000","21215","Dispatch Work Crew","Abated - Close SR","2015-04-01T15:15:00.000",1,-76.6948678,39.3608546
"2900  EDGECOMBE CIR S","BALTIMORE","STREETRE","TRM-Street Repairs","2015-03-31T19:37:52.000","2015-05-10T19:37:52.000","PARKLANE","15-00254110","MD","CLOSED","2015-04-01T14:52:38.000","21215","Dispatch Work Crew","Abated - Close SR","2015-04-01T14:52:00.000",1,-76.663264,39.342658
"W NORTHERN PKWY & WABASH AVE","BALTIMORE","STREETRE","TRM-Street Repairs","2015-03-31T19:32:25.000","2015-05-10T19:32:25.000","SETON BUSINESS PARK","15-00254101","MD","CLOSED","2015-04-01T14:54:32.000","21215","Dispatch Work Crew","Abated - Close SR","2015-04-01T14:54:00.000",1,-76.6656161,39.3557104
"W BALTIMORE ST","BALTIMORE","STREETRE","TRM-Street Repairs","2015-03-31T18:47:37.000","2015-05-10T18:47:37.000","POPPLETON","15-00253929","MD","CLOSED","2015-05-05T12:57:53.000","21201","Dispatch Work Crew","Abated - Close SR","2015-05-05T12:57:00.000",1,-76.6437796,39.2883182
"GREENSPRING AVE &W COLD SPRING LN","BALTIMORE","STREETRE","TRM-Street Repairs","2015-03-31T18:29:52.000","2015-05-10T18:29:52.000","PARKLANE","15-00253848","MD","DUPCLOSD","2015-04-01T13:47:17.000","21209",NA,NA,NA,1,-76.6882923,39.3966579
"HILTON PKWY &N HILTON ST","BALTIMORE","STREETRE","TRM-Street Repairs","2015-03-31T18:20:36.000","2015-05-10T18:20:36.000","WALBROOK","15-00253797","MD","DUPCLOSD","2015-05-06T19:02:21.000","21216",NA,NA,NA,1,-76.6740541,39.2988867
"4000 W FOREST PARK AVE","BALTIMORE","STREETRE","TRM-Street Repairs","2015-03-31T18:19:04.000","2015-05-10T18:19:04.000","CENTRAL FOREST PARK","15-00253788","MD","CLOSED","2015-05-11T18:58:06.000","21207","Dispatch Work Crew","Closed","2015-05-11T18:58:00.000",1,-76.6856448,39.3249086
"4000 W FOREST PARK AVE","BALTIMORE","STREETRE","TRM-Street Repairs","2015-03-31T18:18:43.000","2015-05-10T18:18:43.000","CENTRAL FOREST PARK","15-00253785","MD","CLOSED","2015-04-16T16:40:35.000","21207","Dispatch Work Crew","Abated - Close SR","2015-04-16T16:40:00.000",1,-76.6856448,39.3249086
"6200  GREEN MEADOW PKWY","BALTIMORE","STREETRE","TRM-Street Repairs","2015-03-31T18:07:57.000","2015-05-10T18:07:57.000","CHESWOLDE","15-00253749","MD","CLOSED","2015-04-01T15:42:54.000","21209","Dispatch Work Crew","Abated - Close SR","2015-04-01T15:42:00.000",1,-76.6759129,39.3695999
"3200  PARKSIDE DR","BALTIMORE","STREETRE","TRM-Street Repairs","2015-03-31T16:42:33.000","2015-05-10T16:42:33.000","ARCADIA","15-00253349","MD","NEW","2015-03-31T16:42:33.000","21214",NA,NA,NA,1,-76.572106,39.334638
