"address","city","code","codedescription","createddate","duedate","neighborhood","servicerequestnum","state","status","statusdate","zip","activity","outcome","updateddate","i","lon","lat"
"2700  LAURETTA AVE","BALTIMORE","ICYCONDI","TRM-Snow/Icy Conditions","2015-02-22T17:25:43.000","2015-02-23T17:25:43.000","ROSEMONT HOMEOWNERS/TENANTS","15-00133834","MD","CLOSED","2015-02-22T21:00:21.000","21223",NA,NA,NA,2,-76.6615024,39.2940049
"2801  BOSTON ST","BALTIMORE","ICYCONDI","TRM-Snow/Icy Conditions","2015-02-22T17:22:40.000","2015-02-23T17:22:40.000","CANTON","15-00133821","MD","CLOSED","2015-02-22T20:57:26.000","21224","Storm Center","Not Registered","2015-02-22T20:57:00.000",2,-76.5762827,39.2783657
"419 N CHAPEL ST","BALTIMORE","ICYCONDI","TRM-Snow/Icy Conditions","2015-02-22T17:15:24.000","2015-02-23T17:15:24.000","MIDDLE EAST","15-00133801","MD","CLOSED","2015-02-22T19:18:11.000","21231","Dispatch Work Crew","Abated - Close SR","2015-02-22T19:17:00.000",2,-76.5899774,39.2960444
"606  HARWOOD AVE","BALTIMORE","ICYCONDI","TRM-Snow/Icy Conditions","2015-02-22T17:12:40.000","2015-02-23T17:12:40.000","MID-GOVANS","15-00133797","MD","CLOSED","2015-02-22T19:39:21.000","21212",NA,NA,NA,2,-76.6062199,39.3578
"500  HARWOOD AVE","BALTIMORE","ICYCONDI","TRM-Snow/Icy Conditions","2015-02-22T17:12:05.000","2015-02-23T17:12:05.000","MID-GOVANS","15-00133795","MD","CLOSED","2015-02-22T19:35:52.000","21212",NA,NA,NA,2,-76.6096206,39.3575722
"4001  WABASH AVE","BALTIMORE","ICYCONDI","TRM-Snow/Icy Conditions","2015-02-22T17:04:03.000","2015-02-23T17:04:03.000","EAST ARLINGTON","15-00133767","MD","CLOSED","2015-02-22T19:30:23.000","21215",NA,NA,NA,2,-76.665672,39.330939
"3600  HARLEM AVE","BALTIMORE","ICYCONDI","TRM-Snow/Icy Conditions","2015-02-22T17:01:40.000","2015-02-23T17:01:40.000","EDMONDSON VILLAGE","15-00133753","MD","CLOSED","2015-02-22T19:13:49.000","21229",NA,NA,NA,2,-76.677755,39.295423
"6213  SAREVA DR","BALTIMORE","ICYCONDI","TRM-Snow/Icy Conditions","2015-02-22T16:49:30.000","2015-02-23T16:49:30.000","MOUNT WASHINGTON","15-00133717","MD","CLOSED","2015-02-23T01:31:13.000","21209",NA,NA,NA,2,-76.6658427,39.3719019
"3218  ELLIOTT ST","BALTIMORE","ICYCONDI","TRM-Snow/Icy Conditions","2015-02-22T16:49:14.000","2015-02-23T16:49:14.000","CANTON","15-00133716","MD","CLOSED","2015-02-22T18:19:37.000","21224",NA,NA,NA,2,-76.570414,39.2795599
"6200  OLD HARFORD RD","BALTIMORE","ICYCONDI","TRM-Snow/Icy Conditions","2015-02-22T16:46:34.000","2015-02-23T16:46:34.000","CHRISTOPHER","15-00133707","MD","CLOSED","2015-02-22T19:22:31.000","21214","Dispatch Work Crew","Abated - Close SR","2015-02-22T19:22:00.000",2,-76.558755,39.360979
"1808 E 29TH ST","BALTIMORE","ICYCONDI","TRM-Snow/Icy Conditions","2015-02-22T16:45:11.000","2015-02-23T16:45:11.000","COLDSTREAM HOMESTEAD MONTEBELLO","15-00133705","MD","DUPCLOSD","2015-02-22T19:21:36.000","21218",NA,NA,NA,2,-76.590256,39.324831
"2013  PORTUGAL ST","BALTIMORE","ICYCONDI","TRM-Snow/Icy Conditions","2015-02-22T16:43:14.000","2015-02-23T16:43:14.000","UPPER FELLS POINT","15-00133700","MD","CLOSED","2015-02-22T18:07:28.000","21231",NA,NA,NA,2,-76.58828,39.286123
"3507 E NORTHERN PKWY","BALTIMORE","ICYCONDI","TRM-Snow/Icy Conditions","2015-02-22T16:40:50.000","2015-02-23T16:40:50.000","ROSEMONT EAST","15-00133692","MD","CLOSED","2015-02-22T18:40:57.000","21206","Dispatch Work Crew","Abated - Close SR","2015-02-22T18:40:00.000",2,-76.541202,39.358887
"3418  GUNTHER WAY","BALTIMORE","ICYCONDI","TRM-Snow/Icy Conditions","2015-02-22T16:40:23.000","2015-02-23T16:40:23.000","CANTON","15-00133688","MD","CLOSED","2015-02-22T18:35:38.000","21224","Dispatch Work Crew","Abated - Close SR","2015-02-22T18:35:00.000",2,-76.5680472,39.2809838
"1649  JACKSON ST","BALTIMORE","ICYCONDI","TRM-Snow/Icy Conditions","2015-02-22T16:34:55.000","2015-02-23T16:34:55.000","RIVERSIDE","15-00133669","MD","CLOSED","2015-02-22T18:40:49.000","21230",NA,NA,NA,2,-76.604759,39.270975
"1433  CARSWELL ST","BALTIMORE","ICYCONDI","TRM-Snow/Icy Conditions","2015-02-22T16:09:00.000","2015-02-23T16:09:00.000","COLDSTREAM HOMESTEAD MONTEBELLO","15-00133592","MD","CLOSED","2015-02-22T18:29:25.000","21218",NA,NA,NA,2,-76.597152,39.323441
"1900  DIXON RD","BALTIMORE","ICYCONDI","TRM-Snow/Icy Conditions","2015-02-22T16:03:17.000","2015-02-23T16:03:17.000","MOUNT WASHINGTON","15-00133573","MD","CLOSED","2015-02-22T23:26:56.000","21209",NA,NA,NA,2,-76.660239,39.369056
"3239  CLIFTON AVE","BALTIMORE","ICYCONDI","TRM-Snow/Icy Conditions","2015-02-22T15:42:45.000","2015-02-23T15:42:45.000","WALBROOK","15-00133528","MD","CLOSED","2015-02-22T19:48:31.000","21216","Dispatch Work Crew","Abated - Close SR","2015-02-22T19:48:00.000",2,-76.672151,39.310769
"1809  DIXON RD","BALTIMORE","ICYCONDI","TRM-Snow/Icy Conditions","2015-02-22T15:40:44.000","2015-02-23T15:40:44.000","MOUNT WASHINGTON","15-00133521","MD","CLOSED","2015-02-22T23:39:52.000","21209",NA,NA,NA,2,-76.658928,39.3696879
"1536 N ROSEDALE ST","BALTIMORE","ICYCONDI","TRM-Snow/Icy Conditions","2015-02-22T15:38:41.000","2015-02-23T15:38:41.000","ROSEMONT","15-00133514","MD","CLOSED","2015-02-22T19:50:35.000","21216",NA,NA,NA,2,-76.6693272,39.3055406
"3010  PRESBURY ST","BALTIMORE","ICYCONDI","TRM-Snow/Icy Conditions","2015-02-22T15:36:49.000","2015-02-23T15:36:49.000","NORTHWEST COMMUNITY ACTION","15-00133511","MD","DUPCLOSD","2015-02-22T19:49:16.000","21216",NA,NA,NA,2,-76.667909,39.307297
"5800  HILLTOP AVE","BALTIMORE","ICYCONDI","TRM-Snow/Icy Conditions","2015-02-22T15:23:39.000","2015-02-23T15:23:39.000","GLENHAM-BELFORD","15-00133488","MD","CLOSED","2015-02-22T18:08:29.000","21206",NA,NA,NA,2,-76.5456485,39.346125
"3800 W FRANKLIN ST","BALTIMORE","ICYCONDI","TRM-Snow/Icy Conditions","2015-02-22T15:23:24.000","2015-02-23T15:23:24.000","ALLENDALE","15-00133486","MD","CLOSED","2015-02-22T19:37:24.000","21229",NA,NA,NA,2,-76.6795627,39.2925898
"3914  WHITE AVE","BALTIMORE","ICYCONDI","TRM-Snow/Icy Conditions","2015-02-22T15:22:57.000","2015-02-23T15:22:57.000","GLENHAM-BELFORD","15-00133484","MD","CLOSED","2015-02-22T18:42:03.000","21206","Dispatch Work Crew","Abated - Close SR","2015-02-22T18:41:00.000",2,-76.5457009,39.346294
"3900 W MULBERRY ST","BALTIMORE","ICYCONDI","TRM-Snow/Icy Conditions","2015-02-22T15:21:10.000","2015-02-23T15:21:10.000","ALLENDALE","15-00133477","MD","CLOSED","2015-02-22T19:37:52.000","21229",NA,NA,NA,2,-76.6805429,39.2917017
"1535  BALDWIN ST","BALTIMORE","ICYCONDI","TRM-Snow/Icy Conditions","2015-02-22T15:20:51.000","2015-02-23T15:20:51.000","HAMPDEN","15-00133475","MD","CLOSED","2015-02-22T19:53:42.000","21211","Dispatch Inspector","Abated - Close SR","2015-02-22T19:53:00.000",2,-76.6395606,39.3289217
"500  LYNDHURST ST","BALTIMORE","ICYCONDI","TRM-Snow/Icy Conditions","2015-02-22T15:18:48.000","2015-02-23T15:18:48.000","ALLENDALE","15-00133471","MD","CLOSED","2015-02-22T19:38:28.000","21229",NA,NA,NA,2,-76.680843,39.292637
"112 N CULVER ST","BALTIMORE","ICYCONDI","TRM-Snow/Icy Conditions","2015-02-22T15:17:06.000","2015-02-23T15:17:06.000","ALLENDALE","15-00133466","MD","CLOSED","2015-02-22T19:39:20.000","21229",NA,NA,NA,2,-76.675456,39.288148
"1300  SMITHSON ST","BALTIMORE","ICYCONDI","TRM-Snow/Icy Conditions","2015-02-22T15:16:19.000","2015-02-23T15:16:19.000","SANDTOWN-WINCHESTER","15-00133464","MD","CLOSED","2015-02-22T20:49:03.000","21217",NA,NA,NA,2,-76.6395383,39.3005747
"3500 E NORTH AVE","BALTIMORE","ICYCONDI","TRM-Snow/Icy Conditions","2015-02-22T15:16:08.000","2015-02-23T15:16:08.000","ORANGEVILLE INDUSTRIAL AREA","15-00133462","MD","CLOSED","2015-02-22T18:24:58.000","21213","Dispatch Work Crew","Abated - Close SR","2015-02-22T18:24:00.000",2,-76.5728288,39.3132018
"1000 N WOODYEAR ST","BALTIMORE","ICYCONDI","TRM-Snow/Icy Conditions","2015-02-22T15:15:29.000","2015-02-23T15:15:29.000","SANDTOWN-WINCHESTER","15-00133459","MD","CLOSED","2015-02-22T20:32:30.000","21217",NA,NA,NA,2,-76.6397442,39.3006336
"1824  FAIRBANK RD","BALTIMORE","ICYCONDI","TRM-Snow/Icy Conditions","2015-02-22T15:14:22.000","2015-02-23T15:14:22.000","MOUNT WASHINGTON","15-00133455","MD","DUPCLOSD","2015-02-22T18:33:46.000","21209",NA,NA,NA,2,-76.658025,39.367481
"4000  SPRUCE DR","BALTIMORE","ICYCONDI","TRM-Snow/Icy Conditions","2015-02-22T15:03:56.000","2015-02-23T15:03:56.000","GREENSPRING","15-00133435","MD","CLOSED","2015-02-22T19:23:04.000","21215",NA,NA,NA,2,-76.6575254,39.3365506
"5502  HIGHGATE DR","BALTIMORE","ICYCONDI","TRM-Snow/Icy Conditions","2015-02-22T14:58:50.000","2015-02-23T14:58:50.000","PIMLICO GOOD NEIGHBORS","15-00133424","MD","CLOSED","2015-02-22T23:05:41.000","21215","Dispatch Work Crew","Abated - Close SR","2015-02-22T23:05:00.000",2,-76.680243,39.353932
"3400  CARDENAS AVE","BALTIMORE","ICYCONDI","TRM-Snow/Icy Conditions","2015-02-22T14:55:17.000","2015-02-23T14:55:17.000","BELAIR-EDISON","15-00133418","MD","CLOSED","2015-02-22T19:25:53.000","21213",NA,NA,NA,2,-76.5748388,39.3236607
"3200  KINGSLEY ST","BALTIMORE","ICYCONDI","TRM-Snow/Icy Conditions","2015-02-22T14:53:59.000","2015-02-23T14:53:59.000","GWYNNS FALLS","15-00133416","MD","CLOSED","2015-02-22T19:23:20.000","21229",NA,NA,NA,2,-76.6700346,39.2788326
"2703  GLEN AVE","BALTIMORE","ICYCONDI","TRM-Snow/Icy Conditions","2015-02-22T14:48:39.000","2015-02-23T14:48:39.000","MOUNT WASHINGTON","15-00133399","MD","CLOSED","2015-02-23T06:09:53.000","21215","Dispatch Work Crew","Abated - Close SR","2015-02-23T06:00:00.000",2,-76.676083,39.361802
"2917  WINDSOR AVE","BALTIMORE","ICYCONDI","TRM-Snow/Icy Conditions","2015-02-22T14:47:47.000","2015-02-23T14:47:47.000","WALBROOK","15-00133396","MD","DUPCLOSD","2015-02-22T20:40:52.000","21216",NA,NA,NA,2,-76.666883,39.312019
"3303  TOONE ST","BALTIMORE","ICYCONDI","TRM-Snow/Icy Conditions","2015-02-22T14:46:43.000","2015-02-23T14:46:43.000","CANTON","15-00133390","MD","CLOSED","2015-02-22T16:49:37.000","21224","Dispatch Work Crew","Abated - Close SR","2015-02-22T16:48:00.000",2,-76.5688975,39.2782434
"2100  WESTFIELD AVE","BALTIMORE","ICYCONDI","TRM-Snow/Icy Conditions","2015-02-22T14:39:45.000","2015-02-23T14:39:45.000","HARFORD-ECHODALE/PERRING PARKWAY","15-00133370","MD","CLOSED","2015-02-22T19:21:50.000","21214","Dispatch Work Crew","Abated - Close SR","2015-02-22T19:21:00.000",2,-76.571682,39.364876
"525 S LEHIGH ST","BALTIMORE","ICYCONDI","TRM-Snow/Icy Conditions","2015-02-22T14:37:53.000","2015-02-23T14:37:53.000","GREEKTOWN","15-00133367","MD","CLOSED","2015-02-22T18:00:49.000","21224","Dispatch Work Crew","Abated - Close SR","2015-02-22T18:00:00.000",2,-76.5577729,39.2861854
"5900  GLENOAK AVE","BALTIMORE","ICYCONDI","TRM-Snow/Icy Conditions","2015-02-22T14:30:55.000","2015-02-23T14:30:55.000","GLENHAM-BELFORD","15-00133345","MD","CLOSED","2015-02-22T17:59:30.000","21214","Dispatch Work Crew","Abated - Close SR","2015-02-22T17:58:00.000",2,-76.5526315,39.3525138
"515 W NORTH AVE","BALTIMORE","ICYCONDI","TRM-Snow/Icy Conditions","2015-02-22T14:28:28.000","2015-02-23T14:28:28.000","BOLTON HILL","15-00133338","MD","CLOSED","2015-02-22T20:19:17.000","21217",NA,NA,NA,2,-76.6250532,39.3107311
"LOUISE AVE & EUNICE AVE","BALTIMORE","ICYCONDI","TRM-Snow/Icy Conditions","2015-02-22T14:27:17.000","2015-02-23T14:27:17.000","WESTFIELD","15-00133330","MD","CLOSED","2015-02-22T17:58:18.000","21214","Dispatch Work Crew","Abated - Close SR","2015-02-22T17:57:00.000",2,-96.7667059,43.203801
"532  RICHWOOD AVE","BALTIMORE","ICYCONDI","TRM-Snow/Icy Conditions","2015-02-22T14:21:41.000","2015-02-23T14:21:41.000","RICHNOR SPRINGS","15-00133316","MD","CLOSED","2015-02-22T20:22:59.000","21212",NA,NA,NA,2,-76.6079906,39.3470251
"630 S NEWKIRK ST","BALTIMORE","ICYCONDI","TRM-Snow/Icy Conditions","2015-02-22T14:21:05.000","2015-02-23T14:21:05.000","GREEKTOWN","15-00133313","MD","DUPCLOSD","2015-02-22T17:59:10.000","21224",NA,NA,NA,2,-76.5566694,39.2853872
"5715  KAVON AVE","BALTIMORE","ICYCONDI","TRM-Snow/Icy Conditions","2015-02-22T14:18:53.000","2015-02-23T14:18:53.000","FRANKFORD","15-00133310","MD","CLOSED","2015-02-22T17:46:55.000","21206",NA,NA,NA,2,-76.541298,39.3420569
"1200  ARGYLE AVE","BALTIMORE","ICYCONDI","TRM-Snow/Icy Conditions","2015-02-22T14:18:11.000","2015-02-23T14:18:11.000","UPTON","15-00133306","MD","CLOSED","2015-02-22T18:14:03.000","21217",NA,NA,NA,2,-76.630893,39.298741
"4202  BONNER RD","BALTIMORE","ICYCONDI","TRM-Snow/Icy Conditions","2015-02-22T14:17:33.000","2015-02-23T14:17:33.000","WEST FOREST PARK","15-00133304","MD","CLOSED","2015-02-22T19:43:47.000","21216",NA,NA,NA,2,-76.68769,39.321731
"638 S NEWKIRK ST","BALTIMORE","ICYCONDI","TRM-Snow/Icy Conditions","2015-02-22T14:17:03.000","2015-02-23T14:17:03.000","GREEKTOWN","15-00133303","MD","CLOSED","2015-02-22T17:59:10.000","21224","Dispatch Work Crew","Abated - Close SR","2015-02-22T17:58:00.000",2,-76.5566599,39.285248
"1400  LIMIT AVE","BALTIMORE","ICYCONDI","TRM-Snow/Icy Conditions","2015-02-22T14:12:48.000","2015-02-23T14:12:48.000","IDLEWOOD","15-00133287","MD","CLOSED","2015-02-22T19:15:25.000","21239","Dispatch Work Crew","Abated - Close SR","2015-02-22T19:15:00.000",2,-76.585468,39.371657
"500 W 28TH ST","BALTIMORE","ICYCONDI","TRM-Snow/Icy Conditions","2015-02-22T14:10:46.000","2015-02-23T14:10:46.000","REMINGTON","15-00133278","MD","CLOSED","2015-02-22T19:04:45.000","21211",NA,NA,NA,2,-76.6239382,39.3200785
"1500  UPSHIRE RD","BALTIMORE","ICYCONDI","TRM-Snow/Icy Conditions","2015-02-22T14:08:47.000","2015-02-23T14:08:47.000","EDNOR GARDENS-LAKESIDE","15-00133272","MD","CLOSED","2015-02-22T19:26:19.000","21218","Dispatch Work Crew","Abated - Close SR","2015-02-22T19:26:00.000",2,-76.5951256,39.3339161
"412 S BOULDIN ST","BALTIMORE","ICYCONDI","TRM-Snow/Icy Conditions","2015-02-22T14:07:42.000","2015-02-23T14:07:42.000","HIGHLANDTOWN","15-00133270","MD","CLOSED","2015-02-22T17:29:31.000","21224",NA,NA,NA,2,-76.5709749,39.2871473
"1401  UNION AVE","BALTIMORE","ICYCONDI","TRM-Snow/Icy Conditions","2015-02-22T14:04:02.000","2015-02-23T14:04:02.000","HAMPDEN","15-00133260","MD","CLOSED","2015-02-22T19:53:07.000","21211","Dispatch Inspector","Abated - Close SR","2015-02-22T19:52:00.000",2,-76.638358,39.332468
"5483  BUCKNELL RD","BALTIMORE","ICYCONDI","TRM-Snow/Icy Conditions","2015-02-22T14:03:06.000","2015-02-23T14:03:06.000","CEDONIA","15-00133257","MD","CLOSED","2015-02-22T17:56:45.000","21206","Dispatch Work Crew","Abated - Close SR","2015-02-22T17:56:00.000",2,-76.533686,39.334104
"5515  WHITWOOD RD","BALTIMORE","ICYCONDI","TRM-Snow/Icy Conditions","2015-02-22T14:02:52.000","2015-02-23T14:02:52.000","CEDONIA","15-00133254","MD","CLOSED","2015-02-22T17:53:58.000","21206",NA,NA,NA,2,-76.535012,39.33476
"3000  ARUNAH AVE","BALTIMORE","ICYCONDI","TRM-Snow/Icy Conditions","2015-02-22T14:01:43.000","2015-02-23T14:01:43.000","FRANKLINTOWN ROAD","15-00133249","MD","DUPCLOSD","2015-02-22T18:40:24.000","21216",NA,NA,NA,2,-76.6668813,39.2953086
"2800  KENNEDY AVE","BALTIMORE","ICYCONDI","TRM-Snow/Icy Conditions","2015-02-22T13:59:25.000","2015-02-23T13:59:25.000","COLDSTREAM HOMESTEAD MONTEBELLO","15-00133245","MD","CLOSED","2015-02-22T19:26:45.000","21218","Dispatch Work Crew","Abated - Close SR","2015-02-22T19:26:00.000",2,-76.594416,39.323403
"1700  PRESBURY ST","BALTIMORE","ICYCONDI","TRM-Snow/Icy Conditions","2015-02-22T13:58:10.000","2015-02-23T13:58:10.000","SANDTOWN-WINCHESTER","15-00133241","MD","DUPCLOSD","2015-02-22T18:17:46.000","21217",NA,NA,NA,2,-76.6449058,39.3079868
"692  GLADSTONE AVE","BALTIMORE","ICYCONDI","TRM-Snow/Icy Conditions","2015-02-22T13:57:18.000","2015-02-23T13:57:18.000","WYNDHURST","15-00133238","MD","CLOSED","2015-02-22T19:55:02.000","21210",NA,NA,NA,2,-76.630955,39.354362
"1600  PRESBURY ST","BALTIMORE","ICYCONDI","TRM-Snow/Icy Conditions","2015-02-22T13:54:36.000","2015-02-23T13:54:36.000","SANDTOWN-WINCHESTER","15-00133231","MD","CLOSED","2015-02-22T19:52:16.000","21217",NA,NA,NA,2,-76.6436533,39.3080632
"2590 W FAYETTE ST","BALTIMORE","ICYCONDI","TRM-Snow/Icy Conditions","2015-02-22T13:51:37.000","2015-02-23T13:51:37.000","SHIPLEY HILL","15-00133216","MD","CLOSED","2015-02-22T21:01:32.000","21223",NA,NA,NA,2,-76.658765,39.289023
"1000  REVERDY RD","BALTIMORE","ICYCONDI","TRM-Snow/Icy Conditions","2015-02-22T13:46:16.000","2015-02-23T13:46:16.000","CHINQUAPIN PARK-BELVEDERE","15-00133205","MD","CLOSED","2015-02-22T17:29:21.000","21212",NA,NA,NA,2,-76.600755,39.362773
"1820 N PORT ST","BALTIMORE","ICYCONDI","TRM-Snow/Icy Conditions","2015-02-22T13:46:10.000","2015-02-23T13:46:10.000","BROADWAY EAST","15-00133204","MD","CLOSED","2015-02-22T17:44:02.000","21213","Dispatch Work Crew","Abated - Close SR","2015-02-22T17:43:00.000",2,-76.5840126,39.311788
"1200  ETTING ST","BALTIMORE","ICYCONDI","TRM-Snow/Icy Conditions","2015-02-22T13:45:34.000","2015-02-23T13:45:34.000","UPTON","15-00133201","MD","CLOSED","2015-02-22T20:08:05.000","21217",NA,NA,NA,2,-76.6280995,39.3007807
"1700 N MOUNT ST","BALTIMORE","ICYCONDI","TRM-Snow/Icy Conditions","2015-02-22T13:43:58.000","2015-02-23T13:43:58.000","SANDTOWN-WINCHESTER","15-00133197","MD","CLOSED","2015-02-22T18:17:46.000","21217",NA,NA,NA,2,-76.644894,39.3079821
"3800  CHESTLE PL","BALTIMORE","ICYCONDI","TRM-Snow/Icy Conditions","2015-02-22T13:42:40.000","2015-02-23T13:42:40.000","HIGHLANDTOWN","15-00133190","MD","CLOSED","2015-02-22T13:54:35.000","21224","Dispatch Work Crew","Abated - Close SR","2015-02-22T13:54:00.000",2,-76.5642679,39.2882679
"4217  PRIMROSE AVE","BALTIMORE","ICYCONDI","TRM-Snow/Icy Conditions","2015-02-22T13:41:46.000","2015-02-23T13:41:46.000","REISTERSTOWN STATION","15-00133188","MD","CLOSED","2015-02-22T19:39:39.000","21215","Dispatch Work Crew","Abated - Close SR","2015-02-22T19:39:00.000",2,-76.696868,39.348656
"317 S FAGLEY ST","BALTIMORE","ICYCONDI","TRM-Snow/Icy Conditions","2015-02-22T13:35:15.000","2015-02-23T13:35:15.000","HIGHLANDTOWN","15-00133165","MD","CLOSED","2015-02-22T17:57:56.000","21224","Dispatch Work Crew","Abated - Close SR","2015-02-22T17:57:00.000",2,-76.5644011,39.2884005
"1102  HALL ALY","BALTIMORE","ICYCONDI","TRM-Snow/Icy Conditions","2015-02-22T13:34:44.000","2015-02-23T13:34:44.000","RIVERSIDE","15-00133162","MD","CLOSED","2015-02-22T18:43:05.000","21230",NA,NA,NA,2,-76.609431,39.2773092
"5739  EDGEPARK RD","BALTIMORE","ICYCONDI","TRM-Snow/Icy Conditions","2015-02-22T13:33:55.000","2015-02-23T13:33:55.000","LOCH RAVEN","15-00133160","MD","CLOSED","2015-02-22T19:14:41.000","21239","Dispatch Work Crew","Abated - Close SR","2015-02-22T19:14:00.000",2,-76.575757,39.356797
"1215  WARD ST","BALTIMORE","ICYCONDI","TRM-Snow/Icy Conditions","2015-02-22T13:33:36.000","2015-02-23T13:33:36.000","WASHINGTON VILLAGE","15-00133159","MD","CLOSED","2015-02-22T19:12:25.000","21230","Storm Center","Abated - Close SR","2015-02-22T19:12:00.000",2,-76.6336248,39.2811332
"1700 E 32ND ST","BALTIMORE","ICYCONDI","TRM-Snow/Icy Conditions","2015-02-22T13:31:13.000","2015-02-23T13:31:13.000","COLDSTREAM HOMESTEAD MONTEBELLO","15-00133152","MD","CLOSED","2015-02-22T19:21:11.000","21218",NA,NA,NA,2,-76.591899,39.327017
"6100  IVYMOUNT RD","BALTIMORE","ICYCONDI","TRM-Snow/Icy Conditions","2015-02-22T13:30:37.000","2015-02-23T13:30:37.000","CHESWOLDE","15-00133150","MD","CLOSED","2015-02-22T20:19:22.000","21209",NA,NA,NA,2,-76.672386,39.3676119
"2822  BELMONT AVE","BALTIMORE","ICYCONDI","TRM-Snow/Icy Conditions","2015-02-22T13:28:55.000","2015-02-23T13:28:55.000","NORTHWEST COMMUNITY ACTION","15-00133145","MD","CLOSED","2015-02-22T19:08:34.000","21216",NA,NA,NA,2,-76.664775,39.303741
"5601  WAYCREST LN","BALTIMORE","ICYCONDI","TRM-Snow/Icy Conditions","2015-02-22T13:28:53.000","2015-02-23T13:28:53.000","NORTH ROLAND PARK/POPLAR HILL","15-00133144","MD","CLOSED","2015-02-22T19:20:55.000","21210","Dispatch Inspector","Abated - Close SR","2015-02-22T19:20:00.000",2,-76.641269,39.367571
"ATKINSON AVE &W 28TH ST","BALTIMORE","ICYCONDI","TRM-Snow/Icy Conditions","2015-02-22T13:26:20.000","2015-02-23T13:26:20.000","REMINGTON","15-00133136","MD","CLOSED","2015-02-22T21:00:01.000","21211","Dispatch Work Crew","Abated - Close SR","2015-02-22T20:59:00.000",2,-87.9049128,42.2909912
"4100  BALFERN AVE","BALTIMORE","ICYCONDI","TRM-Snow/Icy Conditions","2015-02-22T13:26:19.000","2015-02-23T13:26:19.000","BELAIR-EDISON","15-00133135","MD","CLOSED","2015-02-22T20:16:33.000","21213",NA,NA,NA,2,-76.558708,39.316606
"1826  FAIRBANK RD","BALTIMORE","ICYCONDI","TRM-Snow/Icy Conditions","2015-02-22T13:26:07.000","2015-02-23T13:26:07.000","MOUNT WASHINGTON","15-00133133","MD","DUPCLOSD","2015-02-22T18:33:46.000","21209",NA,NA,NA,2,-76.658254,39.367539
"410  KINGSTON RD","BALTIMORE","ICYCONDI","TRM-Snow/Icy Conditions","2015-02-22T13:26:03.000","2015-02-23T13:26:03.000","WESTGATE","15-00133132","MD","CLOSED","2015-02-22T19:17:23.000","21229",NA,NA,NA,2,-76.708861,39.285881
"2411  FLEETWOOD AVE","BALTIMORE","ICYCONDI","TRM-Snow/Icy Conditions","2015-02-22T13:25:45.000","2015-02-23T13:25:45.000","HARFORD-ECHODALE/PERRING PARKWAY","15-00133131","MD","CLOSED","2015-02-22T19:20:31.000","21214","Dispatch Work Crew","Abated - Close SR","2015-02-22T19:20:00.000",2,-76.564169,39.366087
"1800  SWANSEA RD","BALTIMORE","ICYCONDI","TRM-Snow/Icy Conditions","2015-02-22T13:25:36.000","2015-02-23T13:25:36.000","LOCH RAVEN","15-00133129","MD","CLOSED","2015-02-22T19:23:47.000","21239","Dispatch Inspector","Abated - Close SR","2015-02-22T19:23:00.000",2,-76.581194,39.356634
"500  THORNFIELD RD","BALTIMORE","ICYCONDI","TRM-Snow/Icy Conditions","2015-02-22T13:25:17.000","2015-02-23T13:25:17.000","YALE HEIGHTS","15-00133128","MD","CLOSED","2015-02-22T18:59:06.000","21229",NA,NA,NA,2,-76.6927178,39.2766641
"3200  INDEPENDENCE ST","BALTIMORE","ICYCONDI","TRM-Snow/Icy Conditions","2015-02-22T13:17:59.000","2015-02-23T13:17:59.000","BETTER WAVERLY","15-00133106","MD","CLOSED","2015-02-22T18:08:43.000","21218",NA,NA,NA,2,-76.6035997,39.3239282
"1100 W 40TH ST","BALTIMORE","ICYCONDI","TRM-Snow/Icy Conditions","2015-02-22T13:17:40.000","2015-02-23T13:17:40.000","HAMPDEN","15-00133104","MD","CLOSED","2015-02-22T19:52:20.000","21211","Dispatch Inspector","Abated - Close SR","2015-02-22T19:52:00.000",2,-76.6354486,39.3368954
"445  GRINDALL ST","BALTIMORE","ICYCONDI","TRM-Snow/Icy Conditions","2015-02-22T13:17:08.000","2015-02-23T13:17:08.000","FEDERAL HILL","15-00133103","MD","CLOSED","2015-02-22T19:18:58.000","21230",NA,NA,NA,2,-76.6077701,39.2778882
"4300  PARKMONT AVE","BALTIMORE","ICYCONDI","TRM-Snow/Icy Conditions","2015-02-22T13:17:05.000","2015-02-23T13:17:05.000","CEDMONT","15-00133102","MD","CLOSED","2015-02-22T13:54:08.000","21206","Dispatch Work Crew","Abated - Close SR","2015-02-22T13:54:00.000",2,-76.535754,39.347589
"3915  PARKVIEW AVE","BALTIMORE","ICYCONDI","TRM-Snow/Icy Conditions","2015-02-22T13:14:33.000","2015-02-23T13:14:33.000","GROVE PARK","15-00133095","MD","CLOSED","2015-02-22T19:46:33.000","21207","Dispatch Work Crew","Abated - Close SR","2015-02-22T19:46:00.000",2,-76.7050376,39.3395367
"1000  STAMFORD RD","BALTIMORE","ICYCONDI","TRM-Snow/Icy Conditions","2015-02-22T13:12:34.000","2015-02-23T13:12:34.000","WEST HILLS","15-00133087","MD","CLOSED","2015-02-22T18:53:35.000","21229",NA,NA,NA,2,-76.710151,39.296348
"3010  PRESBURY ST","BALTIMORE","ICYCONDI","TRM-Snow/Icy Conditions","2015-02-22T13:11:24.000","2015-02-23T13:11:24.000","NORTHWEST COMMUNITY ACTION","15-00133085","MD","CLOSED","2015-02-22T19:49:16.000","21216",NA,NA,NA,2,-76.667909,39.307297
"2026  PARKDEN AVE","BALTIMORE","ICYCONDI","TRM-Snow/Icy Conditions","2015-02-22T13:06:36.000","2015-02-23T13:06:36.000","DRUID HILL PARK","15-00133063","MD","DUPCLOSD","2015-02-22T20:06:41.000","21211",NA,NA,NA,2,-76.644243,39.329801
"3500  CASCADE AVE","BALTIMORE","ICYCONDI","TRM-Snow/Icy Conditions","2015-02-22T13:06:32.000","2015-02-23T13:06:32.000","GLENHAM-BELFORD","15-00133062","MD","CLOSED","2015-02-22T13:53:44.000","21206","Dispatch Work Crew","Abated - Close SR","2015-02-22T13:53:00.000",2,-76.54832,39.352306
"100 E CLEMENT ST","BALTIMORE","ICYCONDI","TRM-Snow/Icy Conditions","2015-02-22T13:04:38.000","2015-02-23T13:04:38.000","RIVERSIDE","15-00133053","MD","CLOSED","2015-02-22T17:07:01.000","21230",NA,NA,NA,2,-76.611858,39.2736278
"6104  MAYWOOD AVE","BALTIMORE","ICYCONDI","TRM-Snow/Icy Conditions","2015-02-22T13:03:31.000","2015-02-23T13:03:31.000","MOUNT WASHINGTON","15-00133050","MD","DUPCLOSD","2015-02-22T19:40:51.000","21209",NA,NA,NA,2,-76.661551,39.368692
"2512 N ROSEDALE ST","BALTIMORE","ICYCONDI","TRM-Snow/Icy Conditions","2015-02-22T13:03:08.000","2015-02-23T13:03:08.000","HANLON-LONGWOOD","15-00133048","MD","CLOSED","2015-02-22T20:49:49.000","21216","Dispatch Work Crew","Abated - Close SR","2015-02-22T20:49:00.000",2,-76.6706436,39.3164313
"500 N STRICKER ST","BALTIMORE","ICYCONDI","TRM-Snow/Icy Conditions","2015-02-22T13:00:39.000","2015-02-23T13:00:39.000","HARLEM PARK","15-00133039","MD","CLOSED","2015-02-22T19:15:30.000","21223","Storm Center","Abated - Close SR","2015-02-22T19:15:00.000",2,-76.641547,39.294162
"194  HOLLEN RD","BALTIMORE","ICYCONDI","TRM-Snow/Icy Conditions","2015-02-22T12:58:06.000","2015-02-23T12:58:06.000","BELLONA-GITTINGS","15-00133031","MD","CLOSED","2015-02-22T18:02:34.000","21212",NA,NA,NA,2,-76.618535,39.370583
"3623  KEYSTONE AVE","BALTIMORE","ICYCONDI","TRM-Snow/Icy Conditions","2015-02-22T12:53:20.000","2015-02-23T12:53:20.000","WOODBERRY","15-00133018","MD","DUPCLOSD","2015-02-22T19:23:54.000","21211",NA,NA,NA,2,-76.649489,39.332317
"5300  FERNPARK AVE","BALTIMORE","ICYCONDI","TRM-Snow/Icy Conditions","2015-02-22T12:51:31.000","2015-02-23T12:51:31.000","HOWARD PARK","15-00133016","MD","CLOSED","2015-02-22T19:39:53.000","21207","Dispatch Inspector","Abated - Close SR","2015-02-22T19:39:00.000",2,-76.704671,39.330986
"4932  GREENCREST RD","BALTIMORE","ICYCONDI","TRM-Snow/Icy Conditions","2015-02-22T12:48:55.000","2015-02-23T12:48:55.000","FRANKFORD","15-00133003","MD","CLOSED","2015-02-22T18:52:21.000","21206",NA,NA,NA,2,-76.53715,39.324384
"3000  ARUNAH AVE","BALTIMORE","ICYCONDI","TRM-Snow/Icy Conditions","2015-02-22T12:47:51.000","2015-02-23T12:47:51.000","FRANKLINTOWN ROAD","15-00132998","MD","DUPCLOSD","2015-02-22T18:40:24.000","21216",NA,NA,NA,2,-76.6668813,39.2953086
"1900  BREITWERT AVE","BALTIMORE","ICYCONDI","TRM-Snow/Icy Conditions","2015-02-22T12:39:37.000","2015-02-23T12:39:37.000","MORRELL PARK","15-00132977","MD","CLOSED","2015-02-22T20:04:42.000","21230",NA,NA,NA,2,-76.6503652,39.2684999
"1635  HAKESLEY PL","BALTIMORE","ICYCONDI","TRM-Snow/Icy Conditions","2015-02-22T12:35:53.000","2015-02-23T12:35:53.000","OLIVER","15-00132964","MD","CLOSED","2015-02-22T19:16:24.000","21213","Dispatch Work Crew","Abated - Close SR","2015-02-22T18:51:00.000",2,-76.595362,39.30468
"4100  FALLSTAFF RD","BALTIMORE","ICYCONDI","TRM-Snow/Icy Conditions","2015-02-22T12:31:48.000","2015-02-23T12:31:48.000","FALLSTAFF","15-00132957","MD","CLOSED","2015-02-22T19:40:27.000","21215",NA,NA,NA,2,-76.710568,39.362163
"2525  CALVERTON HEIGHTS AVE","BALTIMORE","ICYCONDI","TRM-Snow/Icy Conditions","2015-02-22T12:29:41.000","2015-02-23T12:29:41.000","EVERGREEN LAWN","15-00132949","MD","CLOSED","2015-02-22T20:30:38.000","21216",NA,NA,NA,2,-76.6572316,39.2973947
"3100  MONDAWMIN AVE","BALTIMORE","ICYCONDI","TRM-Snow/Icy Conditions","2015-02-22T12:27:09.000","2015-02-23T12:27:09.000","HANLON-LONGWOOD","15-00132945","MD","CLOSED","2015-02-22T20:49:02.000","21216","Dispatch Work Crew","Abated - Close SR","2015-02-22T20:49:00.000",2,-76.669819,39.315469
"2600 S PACA ST","BALTIMORE","ICYCONDI","TRM-Snow/Icy Conditions","2015-02-22T12:26:51.000","2015-02-23T12:26:51.000","MOUNT WINANS","15-00132944","MD","CLOSED","2015-02-22T19:09:19.000","21230","Storm Center","Abated - Close SR","2015-02-22T19:00:00.000",2,-76.6459591,39.2627371
"6105  MAYWOOD AVE","BALTIMORE","ICYCONDI","TRM-Snow/Icy Conditions","2015-02-22T12:26:35.000","2015-02-23T12:26:35.000","MOUNT WASHINGTON","15-00132941","MD","DUPCLOSD","2015-02-22T19:40:51.000","21209",NA,NA,NA,2,-76.660468,39.369925
"4200  LOCH RAVEN BLVD","BALTIMORE","ICYCONDI","TRM-Snow/Icy Conditions","2015-02-22T12:25:33.000","2015-02-23T12:25:33.000","NEW NORTHWOOD","15-00132938","MD","CLOSED","2015-02-22T19:09:47.000","21218",NA,NA,NA,2,-76.594112,39.341302
"4000  SHANNON DR","BALTIMORE","ICYCONDI","TRM-Snow/Icy Conditions","2015-02-22T12:24:36.000","2015-02-23T12:24:36.000","LOWER HERRING RUN PARK","15-00132933","MD","CLOSED","2015-02-22T20:17:04.000","21213",NA,NA,NA,2,-76.5579291,39.3196781
"1800 E 29TH ST","BALTIMORE","ICYCONDI","TRM-Snow/Icy Conditions","2015-02-22T12:24:29.000","2015-02-23T12:24:29.000","COLDSTREAM HOMESTEAD MONTEBELLO","15-00132931","MD","CLOSED","2015-02-22T19:21:36.000","21218",NA,NA,NA,2,-76.590534,39.324833
"4200  FENWICK AVE","BALTIMORE","ICYCONDI","TRM-Snow/Icy Conditions","2015-02-22T12:23:08.000","2015-02-23T12:23:08.000","HILLEN","15-00132927","MD","CLOSED","2015-02-22T19:10:27.000","21218",NA,NA,NA,2,-76.589532,39.3415505
"2024  PARKDEN AVE","BALTIMORE","ICYCONDI","TRM-Snow/Icy Conditions","2015-02-22T12:22:35.000","2015-02-23T12:22:35.000","WOODBERRY","15-00132924","MD","CLOSED","2015-02-22T20:06:41.000","21211",NA,NA,NA,2,-76.6440162,39.3298359
"1 S MORLEY ST","BALTIMORE","ICYCONDI","TRM-Snow/Icy Conditions","2015-02-22T12:22:03.000","2015-02-23T12:22:03.000","SAINT JOSEPHS","15-00132922","MD","CLOSED","2015-02-22T19:39:51.000","21229",NA,NA,NA,2,-76.6741459,39.2865936
"1500  SHEFFIELD RD","BALTIMORE","ICYCONDI","TRM-Snow/Icy Conditions","2015-02-22T12:20:15.000","2015-02-23T12:20:15.000","HILLEN","15-00132918","MD","CLOSED","2015-02-22T19:10:57.000","21218",NA,NA,NA,2,-76.592086,39.3421595
"5715  CHARLESTOWNE DR","BALTIMORE","ICYCONDI","TRM-Snow/Icy Conditions","2015-02-22T12:12:32.000","2015-02-23T12:12:32.000","BELLONA-GITTINGS","15-00132895","MD","DUPCLOSD","2015-02-22T18:01:08.000","21212",NA,NA,NA,2,-76.623829,39.3680329
"2400  CHRISTIAN ST","BALTIMORE","ICYCONDI","TRM-Snow/Icy Conditions","2015-02-22T12:09:28.000","2015-02-23T12:09:28.000","CARROLLTON RIDGE","15-00132889","MD","CLOSED","2015-02-22T12:29:12.000","21223","Dispatch Work Crew","Abated - Close SR","2015-02-22T12:29:00.000",2,-76.6538655,39.2803771
"1900 N CASTLE ST","BALTIMORE","ICYCONDI","TRM-Snow/Icy Conditions","2015-02-22T12:07:42.000","2015-02-23T12:07:42.000","SOUTH CLIFTON PARK","15-00132884","MD","CLOSED","2015-02-22T19:50:18.000","21213",NA,NA,NA,2,-76.589705,39.3127395
"5700  CHARLESTOWNE DR","BALTIMORE","ICYCONDI","TRM-Snow/Icy Conditions","2015-02-22T11:58:40.000","2015-02-23T11:58:40.000","BELLONA-GITTINGS","15-00132857","MD","CLOSED","2015-02-22T18:01:57.000","21212",NA,NA,NA,2,-76.6241875,39.3676254
"3320  BRIGHTON ST","BALTIMORE","ICYCONDI","TRM-Snow/Icy Conditions","2015-02-22T11:56:08.000","2015-02-23T11:56:08.000","ROSEMONT","15-00132851","MD","CLOSED","2015-02-22T19:15:15.000","21216",NA,NA,NA,2,-76.6727922,39.3051236
"2400  ALBION AVE","BALTIMORE","ICYCONDI","TRM-Snow/Icy Conditions","2015-02-22T11:55:14.000","2015-02-23T11:55:14.000","LAURAVILLE","15-00132843","MD","CLOSED","2015-02-22T19:25:18.000","21214","Dispatch Inspector","Abated - Close SR","2015-02-22T19:25:00.000",2,-76.574522,39.349311
"2113  HAMILTON AVE","BALTIMORE","ICYCONDI","TRM-Snow/Icy Conditions","2015-02-22T11:36:19.000","2015-02-23T11:36:19.000","HARFORD-ECHODALE/PERRING PARKWAY","15-00132793","MD","CLOSED","2015-02-22T18:17:07.000","21214",NA,NA,NA,2,-76.571894,39.356497
"1600  SAINT STEPHENS ST","BALTIMORE","ICYCONDI","TRM-Snow/Icy Conditions","2015-02-22T11:52:48.000","2015-02-23T11:52:48.000","NORTHWEST COMMUNITY ACTION","15-00132836","MD","CLOSED","2015-02-22T19:51:22.000","21216",NA,NA,NA,2,-76.666753,39.306319
"3600  EVERSLEY ST","BALTIMORE","ICYCONDI","TRM-Snow/Icy Conditions","2015-02-22T11:52:46.000","2015-02-23T11:52:46.000","EDMONDSON VILLAGE","15-00132835","MD","CLOSED","2015-02-22T19:14:25.000","21229",NA,NA,NA,2,-76.6774875,39.2959469
"5101  NORTHWOOD DR","BALTIMORE","ICYCONDI","TRM-Snow/Icy Conditions","2015-02-22T11:50:47.000","2015-02-23T11:50:47.000","NEW NORTHWOOD","15-00132831","MD","CLOSED","2015-02-22T17:42:57.000","21239",NA,NA,NA,2,-76.5965278,39.3516146
"5713  CHARLESTOWNE DR","BALTIMORE","ICYCONDI","TRM-Snow/Icy Conditions","2015-02-22T11:47:29.000","2015-02-23T11:47:29.000","BELLONA-GITTINGS","15-00132824","MD","CLOSED","2015-02-22T18:01:08.000","21212",NA,NA,NA,2,-76.623797,39.367773
"401  LONG ISLAND AVE","BALTIMORE","ICYCONDI","TRM-Snow/Icy Conditions","2015-02-22T11:46:35.000","2015-02-23T11:46:35.000","BEECHFIELD","15-00132822","MD","CLOSED","2015-02-22T18:56:41.000","21229",NA,NA,NA,2,-76.696406,39.280861
"3000  IONA TER","BALTIMORE","ICYCONDI","TRM-Snow/Icy Conditions","2015-02-22T11:46:31.000","2015-02-23T11:46:31.000","ARCADIA","15-00132821","MD","CLOSED","2015-02-22T19:12:13.000","21214",NA,NA,NA,2,-76.573868,39.337899
"1118 W 38TH ST","BALTIMORE","ICYCONDI","TRM-Snow/Icy Conditions","2015-02-22T11:42:25.000","2015-02-23T11:42:25.000","HAMPDEN","15-00132811","MD","CLOSED","2015-02-22T19:51:32.000","21211","Dispatch Inspector","Abated - Close SR","2015-02-22T19:51:00.000",2,-76.6353702,39.3342094
"5216  KELWAY RD","BALTIMORE","ICYCONDI","TRM-Snow/Icy Conditions","2015-02-22T11:41:49.000","2015-02-23T11:41:49.000","NEW NORTHWOOD","15-00132807","MD","CLOSED","2015-02-22T18:26:54.000","21239",NA,NA,NA,2,-76.594168,39.35164
"4500  GARDEN DR","BALTIMORE","ICYCONDI","TRM-Snow/Icy Conditions","2015-02-22T11:38:27.000","2015-02-23T11:38:27.000","CENTRAL PARK HEIGHTS","15-00132802","MD","CLOSED","2015-02-22T19:49:43.000","21215",NA,NA,NA,2,-76.669054,39.3401784
"5800  JONQUIL AVE","BALTIMORE","ICYCONDI","TRM-Snow/Icy Conditions","2015-02-22T11:38:06.000","2015-02-23T11:38:06.000","GLEN","15-00132801","MD","CLOSED","2015-02-22T19:43:16.000","21215","Dispatch Work Crew","Abated - Close SR","2015-02-22T19:43:00.000",2,-76.68967,39.352798
"2901  ARUNAH AVE","BALTIMORE","ICYCONDI","TRM-Snow/Icy Conditions","2015-02-22T11:37:02.000","2015-02-23T11:37:02.000","FRANKLINTOWN ROAD","15-00132796","MD","CLOSED","2015-02-22T18:41:06.000","21216",NA,NA,NA,2,-76.665441,39.294977
"900  NORTH HILL RD","BALTIMORE","ICYCONDI","TRM-Snow/Icy Conditions","2015-02-22T11:36:38.000","2015-02-23T11:36:38.000","EDNOR GARDENS-LAKESIDE","15-00132795","MD","CLOSED","2015-02-22T18:30:01.000","21218",NA,NA,NA,2,-76.6025357,39.3379693
"2700  QUANTICO AVE","BALTIMORE","ICYCONDI","TRM-Snow/Icy Conditions","2015-02-22T11:34:25.000","2015-02-23T11:34:25.000","CENTRAL PARK HEIGHTS","15-00132787","MD","CLOSED","2015-02-22T19:50:12.000","21215",NA,NA,NA,2,-76.6643401,39.3367911
"3030  HARLEM AVE","BALTIMORE","ICYCONDI","TRM-Snow/Icy Conditions","2015-02-22T11:32:59.000","2015-02-23T11:32:59.000","FRANKLINTOWN ROAD","15-00132784","MD","CLOSED","2015-02-22T19:02:16.000","21216",NA,NA,NA,2,-76.667737,39.295984
"663 S WICKHAM RD","BALTIMORE","ICYCONDI","TRM-Snow/Icy Conditions","2015-02-22T11:31:51.000","2015-02-23T11:31:51.000","BEECHFIELD","15-00132781","MD","CLOSED","2015-02-22T18:57:44.000","21229",NA,NA,NA,2,-76.6994719,39.274404
"3000  MONDAWMIN AVE","BALTIMORE","ICYCONDI","TRM-Snow/Icy Conditions","2015-02-22T11:29:44.000","2015-02-23T11:29:44.000","HANLON-LONGWOOD","15-00132774","MD","CLOSED","2015-02-22T20:50:16.000","21216","Dispatch Work Crew","Abated - Close SR","2015-02-22T20:50:00.000",2,-76.668505,39.315518
"3000  HANLON AVE","BALTIMORE","ICYCONDI","TRM-Snow/Icy Conditions","2015-02-22T11:28:27.000","2015-02-23T11:28:27.000","HANLON-LONGWOOD","15-00132770","MD","CLOSED","2015-02-22T20:46:33.000","21216","Dispatch Work Crew","Abated - Close SR","2015-02-22T20:46:00.000",2,-76.6686468,39.3162526
"2400  FRANCIS ST","BALTIMORE","ICYCONDI","TRM-Snow/Icy Conditions","2015-02-22T11:28:09.000","2015-02-23T11:28:09.000","PENN NORTH","15-00132768","MD","CLOSED","2015-02-22T20:08:03.000","21217",NA,NA,NA,2,-76.6403446,39.3111526
"3900  GLENHUNT ROKEBY","BALTIMORE","ICYCONDI","TRM-Snow/Icy Conditions","2015-02-22T11:26:16.000","2015-02-23T11:26:16.000","EDMONDSON VILLAGE","15-00132761","MD","CLOSED","2015-02-22T19:14:56.000","21229",NA,NA,NA,2,-76.6121893,39.2903848
"2400 N LONGWOOD ST","BALTIMORE","ICYCONDI","TRM-Snow/Icy Conditions","2015-02-22T11:26:03.000","2015-02-23T11:26:03.000","HANLON-LONGWOOD","15-00132758","MD","CLOSED","2015-02-22T20:46:55.000","21216","Dispatch Work Crew","Abated - Close SR","2015-02-22T20:46:00.000",2,-76.668182,39.31497
"417  CHARTER OAK AVE","BALTIMORE","ICYCONDI","TRM-Snow/Icy Conditions","2015-02-22T11:24:32.000","2015-02-23T11:24:32.000","KERNEWOOD","15-00132755","MD","CLOSED","2015-02-22T18:36:19.000","21212",NA,NA,NA,2,-76.610376,39.346991
"2800  INDIANA ST","BALTIMORE","ICYCONDI","TRM-Snow/Icy Conditions","2015-02-22T11:23:37.000","2015-02-23T11:23:37.000","WESTPORT","15-00132751","MD","CLOSED","2015-02-22T19:13:37.000","21230",NA,NA,NA,2,-76.6351552,39.2610695
"1300 N LINWOOD AVE","BALTIMORE","ICYCONDI","TRM-Snow/Icy Conditions","2015-02-22T11:21:16.000","2015-02-23T11:21:16.000","BEREA","15-00132748","MD","CLOSED","2015-02-22T17:29:31.000","21213","Dispatch Work Crew","Abated - Close SR","2015-02-22T17:29:00.000",2,-76.576893,39.306177
"1000 N GILMOR ST","BALTIMORE","ICYCONDI","TRM-Snow/Icy Conditions","2015-02-22T11:21:01.000","2015-02-23T11:21:01.000","SANDTOWN-WINCHESTER","15-00132746","MD","CLOSED","2015-02-22T20:31:33.000","21217",NA,NA,NA,2,-76.6434429,39.3003162
"3000  ROSEDALE CT","BALTIMORE","ICYCONDI","TRM-Snow/Icy Conditions","2015-02-22T11:20:04.000","2015-02-23T11:20:04.000","ROSEMONT","15-00132743","MD","CLOSED","2015-02-22T19:03:02.000","21216",NA,NA,NA,2,-76.6684211,39.3024297
"PIMLICO RD & QUANTICO AVE","BALTIMORE","ICYCONDI","TRM-Snow/Icy Conditions","2015-02-22T11:19:11.000","2015-02-23T11:19:11.000","GREENSPRING","15-00132739","MD","CLOSED","2015-02-22T19:50:50.000","21215",NA,NA,NA,2,-76.6708003,39.3567506
"2801  RAYNER AVE","BALTIMORE","ICYCONDI","TRM-Snow/Icy Conditions","2015-02-22T11:16:51.000","2015-02-23T11:16:51.000","MOSHER","15-00132727","MD","CLOSED","2015-02-22T20:48:20.000","21216",NA,NA,NA,2,-76.662909,39.296037
"1200  ASHBURTON ST","BALTIMORE","ICYCONDI","TRM-Snow/Icy Conditions","2015-02-22T11:15:02.000","2015-02-23T11:15:02.000","WINCHESTER","15-00132721","MD","CLOSED","2015-02-22T18:29:23.000","21216",NA,NA,NA,2,-76.662047,39.30189
"2900  ELGIN AVE","BALTIMORE","ICYCONDI","TRM-Snow/Icy Conditions","2015-02-22T11:10:31.000","2015-02-23T11:10:31.000","WALBROOK","15-00132708","MD","CLOSED","2015-02-22T20:48:09.000","21216","Dispatch Work Crew","Abated - Close SR","2015-02-22T20:48:00.000",2,-76.6665809,39.313622
"3300  GRENTON AVE","BALTIMORE","ICYCONDI","TRM-Snow/Icy Conditions","2015-02-22T11:07:31.000","2015-02-23T11:07:31.000","MORAVIA-WALTHER","15-00132700","MD","CLOSED","2015-02-22T18:56:04.000","21214",NA,NA,NA,2,-76.56556,39.339242
"4900  ROSS RD","BALTIMORE","ICYCONDI","TRM-Snow/Icy Conditions","2015-02-22T11:00:37.000","2015-02-23T11:00:37.000","WALTHERSON","15-00132683","MD","CLOSED","2015-02-22T18:15:26.000","21214",NA,NA,NA,2,-76.563729,39.344053
"2824  FOREST VIEW AVE","BALTIMORE","ICYCONDI","TRM-Snow/Icy Conditions","2015-02-22T10:59:18.000","2015-02-23T10:59:18.000","LAURAVILLE","15-00132679","MD","CLOSED","2015-02-22T19:12:36.000","21214",NA,NA,NA,2,-76.577072,39.340987
"4100  IDAHO AVE","BALTIMORE","ICYCONDI","TRM-Snow/Icy Conditions","2015-02-22T10:58:06.000","2015-02-23T10:58:06.000","WALTHERSON","15-00132676","MD","CLOSED","2015-02-22T13:39:16.000","21206","Dispatch Work Crew","Abated - Close SR","2015-02-22T13:39:00.000",2,-76.550673,39.340789
"3405  TERESA CT","BALTIMORE","ICYCONDI","TRM-Snow/Icy Conditions","2015-02-22T10:57:49.000","2015-02-23T10:57:49.000","BELAIR-EDISON","15-00132675","MD","CLOSED","2015-02-22T19:27:18.000","21213","Dispatch Work Crew","Abated - Close SR","2015-02-22T19:27:00.000",2,-76.5748942,39.3239532
"6100  EVERALL AVE","BALTIMORE","ICYCONDI","TRM-Snow/Icy Conditions","2015-02-22T10:53:13.000","2015-02-23T10:53:13.000","GLENHAM-BELFORD","15-00132667","MD","CLOSED","2015-02-22T13:53:18.000","21206","Dispatch Work Crew","Abated - Close SR","2015-02-22T13:53:00.000",2,-76.5376838,39.3485731
"1210  SILVERTHORNE RD","BALTIMORE","ICYCONDI","TRM-Snow/Icy Conditions","2015-02-22T10:49:39.000","2015-02-23T10:49:39.000","NEW NORTHWOOD","15-00132658","MD","CLOSED","2015-02-22T17:46:27.000","21239",NA,NA,NA,2,-76.5979378,39.3517816
"403  IMLA ST","BALTIMORE","ICYCONDI","TRM-Snow/Icy Conditions","2015-02-22T10:49:19.000","2015-02-23T10:49:19.000","JOSEPH LEE","15-00132657","MD","DUPCLOSD","2015-02-22T17:27:20.000","21224",NA,NA,NA,2,-76.5388439,39.2890126
"4211  COLBORNE RD","BALTIMORE","ICYCONDI","TRM-Snow/Icy Conditions","2015-02-22T10:49:15.000","2015-02-23T10:49:15.000","ROGNEL HEIGHTS","15-00132656","MD","CLOSED","2015-02-22T19:15:21.000","21229",NA,NA,NA,2,-76.6870754,39.297515
"4300  EDGEHURST RD","BALTIMORE","ICYCONDI","TRM-Snow/Icy Conditions","2015-02-22T10:46:15.000","2015-02-23T10:46:15.000","WOODBERRY","15-00132650","MD","CLOSED","2015-02-22T19:24:24.000","21209",NA,NA,NA,2,-76.656696,39.3396929
"5800  KAVON AVE","BALTIMORE","ICYCONDI","TRM-Snow/Icy Conditions","2015-02-22T10:45:59.000","2015-02-23T10:45:59.000","CEDMONT","15-00132649","MD","CLOSED","2015-02-22T12:28:24.000","21206","Dispatch Work Crew","Abated - Close SR","2015-02-22T12:28:00.000",2,-76.5414913,39.3428697
"1000  WEDGEWOOD RD","BALTIMORE","ICYCONDI","TRM-Snow/Icy Conditions","2015-02-22T10:17:58.000","2015-02-23T10:17:58.000","WEST HILLS","15-00132564","MD","CLOSED","2015-02-22T18:45:53.000","21229",NA,NA,NA,2,-76.709204,39.296643
"2702  HILLSDALE RD","BALTIMORE","ICYCONDI","TRM-Snow/Icy Conditions","2015-02-22T10:44:17.000","2015-02-23T10:44:17.000","WEST FOREST PARK","15-00132644","MD","CLOSED","2015-02-22T19:36:34.000","21207",NA,NA,NA,2,-76.7023789,39.317438
"4300  OLD FREDERICK RD","BALTIMORE","ICYCONDI","TRM-Snow/Icy Conditions","2015-02-22T10:39:18.000","2015-02-23T10:39:18.000","ALLENDALE","15-00132638","MD","CLOSED","2015-02-22T19:01:14.000","21229",NA,NA,NA,2,-76.6830308,39.28885
"819  WEDGEWOOD RD","BALTIMORE","ICYCONDI","TRM-Snow/Icy Conditions","2015-02-22T10:38:36.000","2015-02-23T10:38:36.000","WEST HILLS","15-00132633","MD","CLOSED","2015-02-22T18:51:15.000","21229",NA,NA,NA,2,-76.706349,39.294961
"6900  GLENHEIGHTS RD","BALTIMORE","ICYCONDI","TRM-Snow/Icy Conditions","2015-02-22T10:37:27.000","2015-02-23T10:37:27.000","FALLSTAFF","15-00132625","MD","CLOSED","2015-02-22T19:44:10.000","21215","Dispatch Work Crew","Abated - Close SR","2015-02-22T19:43:00.000",2,-76.7097952,39.3607864
"3600  COTTAGE AVE","BALTIMORE","ICYCONDI","TRM-Snow/Icy Conditions","2015-02-22T10:37:23.000","2015-02-23T10:37:23.000","PARK CIRCLE","15-00132624","MD","CLOSED","2015-02-22T19:25:12.000","21215",NA,NA,NA,2,-76.65826,39.330073
"1340  SILVERTHORNE RD","BALTIMORE","ICYCONDI","TRM-Snow/Icy Conditions","2015-02-22T10:37:15.000","2015-02-23T10:37:15.000","NEW NORTHWOOD","15-00132623","MD","CLOSED","2015-02-22T17:45:46.000","21239",NA,NA,NA,2,-76.5947964,39.3519714
"3366  DULANY ST","BALTIMORE","ICYCONDI","TRM-Snow/Icy Conditions","2015-02-22T10:34:55.000","2015-02-23T10:34:55.000","SAINT AGNES","15-00132616","MD","CLOSED","2015-02-22T19:13:38.000","21229","Storm Center","Abated - Close SR","2015-02-22T19:13:00.000",2,-76.6740053,39.2748823
"2301  HALCYON AVE","BALTIMORE","ICYCONDI","TRM-Snow/Icy Conditions","2015-02-22T10:30:34.000","2015-02-23T10:30:34.000","LAURAVILLE","15-00132602","MD","CLOSED","2015-02-22T19:25:55.000","21214","Dispatch Inspector","Abated - Close SR","2015-02-22T19:25:00.000",2,-76.575718,39.3479079
"4700  DUNKIRK AVE","BALTIMORE","ICYCONDI","TRM-Snow/Icy Conditions","2015-02-22T10:27:24.000","2015-02-23T10:27:24.000","TREMONT","15-00132594","MD","CLOSED","2015-02-22T19:40:19.000","21229",NA,NA,NA,2,-76.693443,39.283726
"3613  HILLSDALE RD","BALTIMORE","ICYCONDI","TRM-Snow/Icy Conditions","2015-02-22T10:22:36.000","2015-02-23T10:22:36.000","HOWARD PARK","15-00132581","MD","DUPCLOSD","2015-02-22T19:17:05.000","21207",NA,NA,NA,2,-76.693226,39.332128
"5012  GWYNN OAK AVE","BALTIMORE","ICYCONDI","TRM-Snow/Icy Conditions","2015-02-22T10:16:30.000","2015-02-23T10:16:30.000","HOWARD PARK","15-00132558","MD","CLOSED","2015-02-22T19:39:21.000","21207","Dispatch Inspector","Abated - Close SR","2015-02-22T19:39:00.000",2,-76.700008,39.330818
"2500 W LANVALE ST","BALTIMORE","ICYCONDI","TRM-Snow/Icy Conditions","2015-02-22T10:11:29.000","2015-02-23T10:11:29.000","EVERGREEN LAWN","15-00132539","MD","CLOSED","2015-02-22T20:27:31.000","21216",NA,NA,NA,2,-76.656598,39.297132
"600  MCCABE AVE","BALTIMORE","ICYCONDI","TRM-Snow/Icy Conditions","2015-02-22T10:10:19.000","2015-02-23T10:10:19.000","WOODBOURNE-MCCABE","15-00132536","MD","CLOSED","2015-02-22T17:06:58.000","21212",NA,NA,NA,2,-76.609777,39.353937
"3000  LYTTLETON RD","BALTIMORE","ICYCONDI","TRM-Snow/Icy Conditions","2015-02-22T10:09:05.000","2015-02-23T10:09:05.000","WINCHESTER","15-00132532","MD","CLOSED","2015-02-22T19:10:35.000","21216",NA,NA,NA,2,-76.667831,39.300757
"3000  ELGIN AVE","BALTIMORE","ICYCONDI","TRM-Snow/Icy Conditions","2015-02-22T10:08:19.000","2015-02-23T10:08:19.000","WALBROOK","15-00132530","MD","CLOSED","2015-02-22T20:47:19.000","21216","Dispatch Work Crew","Abated - Close SR","2015-02-22T20:47:00.000",2,-76.668376,39.313615
"5500  CEDELLA AVE","BALTIMORE","ICYCONDI","TRM-Snow/Icy Conditions","2015-02-22T10:06:04.000","2015-02-23T10:06:04.000","FRANKFORD","15-00132526","MD","CLOSED","2015-02-22T12:27:54.000","21206","Dispatch Work Crew","Abated - Close SR","2015-02-22T12:27:00.000",2,-76.5420539,39.332384
"2300  TERRA FIRMA RD","BALTIMORE","ICYCONDI","TRM-Snow/Icy Conditions","2015-02-22T10:04:42.000","2015-02-23T10:04:42.000","CHERRY HILL","15-00132523","MD","CLOSED","2015-02-22T19:14:10.000","21225",NA,NA,NA,2,-76.625701,39.252293
"5917  SIMMONDS AVE","BALTIMORE","ICYCONDI","TRM-Snow/Icy Conditions","2015-02-22T09:57:37.000","2015-02-23T09:57:37.000","GLEN","15-00132506","MD","CLOSED","2015-02-22T21:46:34.000","21215","Dispatch Work Crew","Abated - Close SR","2015-02-22T20:45:00.000",2,-76.682334,39.361182
"5300  FREDERICK AVE","BALTIMORE","ICYCONDI","TRM-Snow/Icy Conditions","2015-02-22T09:55:39.000","2015-02-23T09:55:39.000","WESTGATE","15-00132500","MD","CLOSED","2015-02-22T19:17:52.000","21229",NA,NA,NA,2,-76.7055272,39.280819
"1907  FAIRBANK RD","BALTIMORE","ICYCONDI","TRM-Snow/Icy Conditions","2015-02-22T09:46:08.000","2015-02-23T09:46:08.000","MOUNT WASHINGTON","15-00132486","MD","DUPCLOSD","2015-02-22T18:33:46.000","21209",NA,NA,NA,2,-76.65918,39.367158
"1100 N STOCKTON ST","BALTIMORE","ICYCONDI","TRM-Snow/Icy Conditions","2015-02-22T09:39:59.000","2015-02-23T09:39:59.000","SANDTOWN-WINCHESTER","15-00132474","MD","CLOSED","2015-02-22T18:54:27.000","21217",NA,NA,NA,2,-76.6381406,39.301176
"3400  COTTAGE AVE","BALTIMORE","ICYCONDI","TRM-Snow/Icy Conditions","2015-02-22T09:36:24.000","2015-02-23T09:36:24.000","PARK CIRCLE","15-00132463","MD","CLOSED","2015-02-22T19:25:48.000","21215",NA,NA,NA,2,-76.6573889,39.3273407
"3400  MAYFIELD AVE","BALTIMORE","ICYCONDI","TRM-Snow/Icy Conditions","2015-02-22T09:35:02.000","2015-02-23T09:35:02.000","BELAIR-EDISON","15-00132461","MD","CLOSED","2015-02-22T20:17:42.000","21213",NA,NA,NA,2,-76.569506,39.320439
"2400  BRENTWOOD AVE","BALTIMORE","ICYCONDI","TRM-Snow/Icy Conditions","2015-02-22T09:19:51.000","2015-02-23T09:19:51.000","BARCLAY","15-00132438","MD","CLOSED","2015-02-22T20:52:07.000","21218",NA,NA,NA,2,-76.610653,39.316341
"1300  DIVISION ST","BALTIMORE","ICYCONDI","TRM-Snow/Icy Conditions","2015-02-22T09:17:15.000","2015-02-23T09:17:15.000","UPTON","15-00132432","MD","CLOSED","2015-02-22T10:42:32.000","21217","Dispatch Work Crew","Abated - Close SR","2015-02-22T10:42:00.000",2,-76.629821,39.301044
"2900  ROSALIND AVE","BALTIMORE","ICYCONDI","TRM-Snow/Icy Conditions","2015-02-22T09:05:24.000","2015-02-23T09:05:24.000","CYLBURN","15-00132427","MD","CLOSED","2015-02-22T19:51:18.000","21215",NA,NA,NA,2,-76.6640025,39.3458965
"1100  APPLETON ST","BALTIMORE","ICYCONDI","TRM-Snow/Icy Conditions","2015-02-22T09:02:46.000","2015-02-23T09:02:46.000","BRIDGEVIEW/GREENLAWN","15-00132424","MD","CLOSED","2015-02-22T18:31:13.000","21217",NA,NA,NA,2,-76.648768,39.301215
"3816  BAYONNE AVE","BALTIMORE","ICYCONDI","TRM-Snow/Icy Conditions","2015-02-22T08:49:52.000","2015-02-23T08:49:52.000","GLENHAM-BELFORD","15-00132408","MD","DUPCLOSD","2015-02-22T13:38:48.000","21206",NA,NA,NA,2,-76.5481609,39.346922
"600  MONTPELIER ST","BALTIMORE","ICYCONDI","TRM-Snow/Icy Conditions","2015-02-22T08:48:56.000","2015-02-23T08:48:56.000","BETTER WAVERLY","15-00132405","MD","CLOSED","2015-02-22T17:49:59.000","21218",NA,NA,NA,2,-76.6080435,39.3264129
"3815  BAYONNE AVE","BALTIMORE","ICYCONDI","TRM-Snow/Icy Conditions","2015-02-22T08:48:20.000","2015-02-23T08:48:20.000","GLENHAM-BELFORD","15-00132404","MD","CLOSED","2015-02-22T13:38:49.000","21206","Dispatch Work Crew","Abated - Close SR","2015-02-22T13:38:00.000",2,-76.548384,39.346539
"300 N CHAPELGATE LN","BALTIMORE","ICYCONDI","TRM-Snow/Icy Conditions","2015-02-22T08:38:02.000","2015-02-23T08:38:02.000","TEN HILLS","15-00132400","MD","CLOSED","2015-02-22T19:18:24.000","21229",NA,NA,NA,2,-76.700887,39.285097
"5900  AYLESHIRE RD","BALTIMORE","ICYCONDI","TRM-Snow/Icy Conditions","2015-02-22T08:26:01.000","2015-02-23T08:26:01.000","LOCH RAVEN","15-00132398","MD","CLOSED","2015-02-22T19:14:05.000","21239","Dispatch Work Crew","Abated - Close SR","2015-02-22T19:14:00.000",2,-76.585435,39.363214
"1900  WADSWORTH WAY","BALTIMORE","ICYCONDI","TRM-Snow/Icy Conditions","2015-02-22T08:10:22.000","2015-02-23T08:10:22.000","LOCH RAVEN","15-00132387","MD","CLOSED","2015-02-22T19:13:31.000","21239","Dispatch Work Crew","Abated - Close SR","2015-02-22T19:13:00.000",2,-76.578428,39.359673
"1800  WADSWORTH WAY","BALTIMORE","ICYCONDI","TRM-Snow/Icy Conditions","2015-02-22T08:09:52.000","2015-02-23T08:09:52.000","LOCH RAVEN","15-00132386","MD","CLOSED","2015-02-22T19:12:47.000","21239","Dispatch Work Crew","Abated - Close SR","2015-02-22T19:12:00.000",2,-76.579166,39.360228
"1700  WADSWORTH WAY","BALTIMORE","ICYCONDI","TRM-Snow/Icy Conditions","2015-02-22T08:09:09.000","2015-02-23T08:09:09.000","LOCH RAVEN","15-00132382","MD","CLOSED","2015-02-22T19:12:03.000","21239","Dispatch Work Crew","Abated - Close SR","2015-02-22T19:12:00.000",2,-76.580345,39.361011
"GLEN ALLEN DR","BALTIMORE","ICYCONDI","TRM-Snow/Icy Conditions","2015-02-22T07:24:22.000","2015-02-23T07:24:22.000","HUNTING RIDGE","15-00132345","MD","CLOSED","2015-02-22T19:15:50.000","21229",NA,NA,NA,2,-76.6969448,39.2960697
"5507  MORAVIA RD","BALTIMORE","ICYCONDI","TRM-Snow/Icy Conditions","2015-02-22T07:06:31.000","2015-02-23T07:06:31.000","FRANKFORD","15-00132332","MD","CLOSED","2015-02-22T20:18:22.000","21206",NA,NA,NA,2,-76.548354,39.320403
"3838  LYNDALE AVE","BALTIMORE","ICYCONDI","TRM-Snow/Icy Conditions","2015-02-22T06:59:27.000","2015-02-23T06:59:27.000","BELAIR-EDISON","15-00132327","MD","DUPCLOSD","2015-02-22T19:48:40.000","21213",NA,NA,NA,2,-76.5643346,39.3173174
"3838  LYNDALE AVE","BALTIMORE","ICYCONDI","TRM-Snow/Icy Conditions","2015-02-22T06:56:52.000","2015-02-23T06:56:52.000","BELAIR-EDISON","15-00132325","MD","DUPCLOSD","2015-02-22T19:48:40.000","21213",NA,NA,NA,2,-76.5643346,39.3173174
"5007  OVERTON ST","BALTIMORE","ICYCONDI","TRM-Snow/Icy Conditions","2015-02-22T06:32:24.000","2015-02-23T06:32:24.000","BEECHFIELD","15-00132308","MD","CLOSED","2015-02-22T18:57:15.000","21229",NA,NA,NA,2,-76.698922,39.277983
"1000 N WASHINGTON ST","BALTIMORE","ICYCONDI","TRM-Snow/Icy Conditions","2015-02-22T05:42:48.000","2015-02-23T05:42:48.000","MIDDLE EAST","15-00132277","MD","CLOSED","2015-02-22T11:39:34.000","21205","Dispatch Inspector",NA,"2015-02-22T11:39:00.000",2,-76.5898197,39.3020467
"3600  KEYSTONE AVE","BALTIMORE","ICYCONDI","TRM-Snow/Icy Conditions","2015-02-22T05:38:15.000","2015-02-23T05:38:15.000","WOODBERRY","15-00132267","MD","CLOSED","2015-02-22T19:23:54.000","21211",NA,NA,NA,2,-76.64995,39.332014
"1520  WINCHESTER ST","BALTIMORE","ICYCONDI","TRM-Snow/Icy Conditions","2015-02-22T05:34:30.000","2015-02-23T05:34:30.000","SANDTOWN-WINCHESTER","15-00132266","MD","CLOSED","2015-02-22T19:00:28.000","21217",NA,NA,NA,2,-76.6423283,39.3025066
"607 W LAKE AVE","BALTIMORE","ICYCONDI","TRM-Snow/Icy Conditions","2015-02-22T05:18:15.000","2015-02-23T05:18:15.000","NORTH ROLAND PARK/POPLAR HILL","15-00132254","MD","CLOSED","2015-02-22T19:20:05.000","21210","Dispatch Inspector","Abated - Close SR","2015-02-22T19:20:00.000",2,-76.632054,39.368417
"1552  WINFORD RD","BALTIMORE","ICYCONDI","TRM-Snow/Icy Conditions","2015-02-22T04:07:57.000","2015-02-23T04:07:57.000","PERRING LOCH","15-00132208","MD","CLOSED","2015-02-22T19:26:35.000","21239","Dispatch Inspector","Abated - Close SR","2015-02-22T19:26:00.000",2,-76.587186,39.353313
"2900  WINDSOR AVE","BALTIMORE","ICYCONDI","TRM-Snow/Icy Conditions","2015-02-22T03:45:51.000","2015-02-23T03:45:51.000","WALBROOK","15-00132203","MD","CLOSED","2015-02-22T20:45:24.000","21216","Dispatch Work Crew","Abated - Close SR","2015-02-22T20:45:00.000",2,-76.666485,39.31254
"1600  CEREAL ST","BALTIMORE","ICYCONDI","TRM-Snow/Icy Conditions","2015-02-22T03:42:32.000","2015-02-23T03:42:32.000","CURTIS BAY","15-00132201","MD","CLOSED","2015-02-22T19:02:20.000","21226","Storm Center","Abated - Close SR","2015-02-22T19:02:00.000",2,-76.5876514,39.2218054
"3412  ORLANDO AVE","BALTIMORE","ICYCONDI","TRM-Snow/Icy Conditions","2015-02-22T03:39:25.000","2015-02-23T03:39:25.000","WOODRING","15-00132196","MD","CLOSED","2015-02-22T19:31:54.000","21234","Dispatch Work Crew","Abated - Close SR","2015-02-22T19:31:00.000",2,-76.538757,39.3636709
"6803  EVERALL AVE","BALTIMORE","ICYCONDI","TRM-Snow/Icy Conditions","2015-02-22T03:38:56.000","2015-02-23T03:38:56.000","OVERLEA","15-00132195","MD","CLOSED","2015-02-22T13:52:52.000","21206","Dispatch Work Crew","Abated - Close SR","2015-02-22T13:52:00.000",2,-76.5363239,39.359622
"4607  WOODLEA AVE","BALTIMORE","ICYCONDI","TRM-Snow/Icy Conditions","2015-02-22T03:38:31.000","2015-02-23T03:38:31.000","FRANKFORD","15-00132194","MD","CLOSED","2015-02-22T18:55:42.000","21206",NA,NA,NA,2,-76.55256,39.330226
"4219  SEIDEL AVE","BALTIMORE","ICYCONDI","TRM-Snow/Icy Conditions","2015-02-22T03:38:12.000","2015-02-23T03:38:12.000","BELAIR-EDISON","15-00132193","MD","CLOSED","2015-02-22T19:27:44.000","21206","Dispatch Work Crew","Abated - Close SR","2015-02-22T19:27:00.000",2,-76.5624098,39.3291311
"4722  HOMESDALE AVE","BALTIMORE","ICYCONDI","TRM-Snow/Icy Conditions","2015-02-22T03:37:00.000","2015-02-23T03:37:00.000","PARKSIDE","15-00132190","MD","CLOSED","2015-02-22T20:18:44.000","21206",NA,NA,NA,2,-76.554923,39.321915
"6201  HILLTOP AVE","BALTIMORE","ICYCONDI","TRM-Snow/Icy Conditions","2015-02-22T03:33:59.000","2015-02-23T03:33:59.000","GLENHAM-BELFORD","15-00132185","MD","CLOSED","2015-02-22T13:52:28.000","21206","Dispatch Work Crew","Abated - Close SR","2015-02-22T13:52:00.000",2,-76.543747,39.351805
"3810  MARY AVE","BALTIMORE","ICYCONDI","TRM-Snow/Icy Conditions","2015-02-22T03:33:23.000","2015-02-23T03:33:23.000","GLENHAM-BELFORD","15-00132183","MD","CLOSED","2015-02-22T13:52:03.000","21206","Dispatch Work Crew","Abated - Close SR","2015-02-22T13:52:00.000",2,-76.545874,39.348223
"4832  ABERDEEN AVE","BALTIMORE","ICYCONDI","TRM-Snow/Icy Conditions","2015-02-22T03:32:27.000","2015-02-23T03:32:27.000","FRANKFORD","15-00132180","MD","CLOSED","2015-02-22T20:19:07.000","21206",NA,NA,NA,2,-76.550429,39.320241
"5435  OMAHA AVE","BALTIMORE","ICYCONDI","TRM-Snow/Icy Conditions","2015-02-22T03:31:24.000","2015-02-23T03:31:24.000","FRANKFORD","15-00132177","MD","CLOSED","2015-02-22T17:59:28.000","21206",NA,NA,NA,2,-76.537661,39.326345
"5241  DARIEN RD","BALTIMORE","ICYCONDI","TRM-Snow/Icy Conditions","2015-02-22T03:31:00.000","2015-02-23T03:31:00.000","CEDONIA","15-00132176","MD","CLOSED","2015-02-22T17:17:35.000","21206",NA,NA,NA,2,-76.531794,39.3279939
"4503  BAYONNE AVE","BALTIMORE","ICYCONDI","TRM-Snow/Icy Conditions","2015-02-22T03:26:58.000","2015-02-23T03:26:58.000","FRANKFORD","15-00132170","MD","DUPCLOSD","2015-02-22T12:25:17.000","21206",NA,NA,NA,2,-76.538562,39.340956
"5104  GROTON RD","BALTIMORE","ICYCONDI","TRM-Snow/Icy Conditions","2015-02-22T03:26:41.000","2015-02-23T03:26:41.000","CEDONIA","15-00132169","MD","CLOSED","2015-02-22T17:41:01.000","21206",NA,NA,NA,2,-76.5303611,39.3253789
"3200  KINGSLEY ST","BALTIMORE","ICYCONDI","TRM-Snow/Icy Conditions","2015-02-22T03:13:17.000","2015-02-23T03:13:17.000","GWYNNS FALLS","15-00132161","MD","DUPCLOSD","2015-02-22T11:50:45.000","21229",NA,NA,NA,2,-76.6700346,39.2788326
"3218  KINGSLEY ST","BALTIMORE","ICYCONDI","TRM-Snow/Icy Conditions","2015-02-22T03:06:26.000","2015-02-23T03:06:26.000","GWYNNS FALLS","15-00132156","MD","CLOSED","2015-02-22T11:50:45.000","21229","Dispatch Work Crew","Abated - Close SR","2015-02-22T11:50:00.000",2,-76.6703409,39.279001
"6101  MAYWOOD AVE","BALTIMORE","ICYCONDI","TRM-Snow/Icy Conditions","2015-02-22T03:03:02.000","2015-02-23T03:03:02.000","MOUNT WASHINGTON","15-00132152","MD","CLOSED","2015-02-22T19:40:52.000","21209",NA,NA,NA,2,-76.65992,39.3696
"3208  PINKNEY RD","BALTIMORE","ICYCONDI","TRM-Snow/Icy Conditions","2015-02-22T02:49:17.000","2015-02-23T02:49:17.000","CROSS COUNTRY","15-00132143","MD","CLOSED","2015-02-22T20:59:02.000","21215","Dispatch Work Crew","Abated - Close SR","2015-02-22T20:58:00.000",2,-76.690043,39.361709
"6004  WOODCREST AVE","BALTIMORE","ICYCONDI","TRM-Snow/Icy Conditions","2015-02-22T02:47:13.000","2015-02-23T02:47:13.000","CHESWOLDE","15-00132140","MD","CLOSED","2015-02-22T21:00:18.000","21209","Dispatch Work Crew","Abated - Close SR","2015-02-22T20:59:00.000",2,-76.68209,39.362774
"3110  BELMONT AVE","BALTIMORE","ICYCONDI","TRM-Snow/Icy Conditions","2015-02-22T02:31:24.000","2015-02-23T02:31:24.000","ROSEMONT","15-00132127","MD","CLOSED","2015-02-22T18:57:44.000","21216",NA,NA,NA,2,-76.669497,39.30343
"600 E PRESTON ST","BALTIMORE","ICYCONDI","TRM-Snow/Icy Conditions","2015-02-22T02:30:49.000","2015-02-23T02:30:49.000","JOHNSTON SQUARE","15-00132124","MD","CLOSED","2015-02-22T11:35:00.000","21202","Dispatch Inspector",NA,"2015-02-22T11:34:00.000",2,-76.6087806,39.3048244
"3945  WILSBY AVE","BALTIMORE","ICYCONDI","TRM-Snow/Icy Conditions","2015-02-22T02:23:27.000","2015-02-23T02:23:27.000","PEN LUCY","15-00132111","MD","CLOSED","2015-02-23T04:55:33.000","21218","Dispatch Work Crew","Abated - Close SR","2015-02-23T04:55:00.000",2,-76.60429,39.3375436
"830  DUMBARTON AVE","BALTIMORE","ICYCONDI","TRM-Snow/Icy Conditions","2015-02-22T02:21:57.000","2015-02-23T02:21:57.000","PEN LUCY","15-00132108","MD","CLOSED","2015-02-22T20:44:45.000","21218","Dispatch Inspector","Abated - Close SR","2015-02-22T20:44:00.000",2,-76.6032346,39.3383582
"4000  ELKADER RD","BALTIMORE","ICYCONDI","TRM-Snow/Icy Conditions","2015-02-22T02:20:59.000","2015-02-23T02:20:59.000","PEN LUCY","15-00132107","MD","CLOSED","2015-02-22T19:51:47.000","21218",NA,NA,NA,2,-76.603301,39.33859
"900  CATOR AVE","BALTIMORE","ICYCONDI","TRM-Snow/Icy Conditions","2015-02-22T02:19:43.000","2015-02-23T02:19:43.000","PEN LUCY","15-00132106","MD","CLOSED","2015-02-22T19:56:59.000","21218",NA,NA,NA,2,-76.6034262,39.3393075
"5500  RUBIN AVE","BALTIMORE","ICYCONDI","TRM-Snow/Icy Conditions","2015-02-22T02:18:51.000","2015-02-23T02:18:51.000","WOODMERE","15-00132101","MD","CLOSED","2015-02-22T19:45:03.000","21215","Dispatch Work Crew","Abated - Close SR","2015-02-22T19:45:00.000",2,-76.6882713,39.3489821
"800  CATOR AVE","BALTIMORE","ICYCONDI","TRM-Snow/Icy Conditions","2015-02-22T02:18:32.000","2015-02-23T02:18:32.000","PEN LUCY","15-00132099","MD","CLOSED","2015-02-22T19:56:41.000","21218",NA,NA,NA,2,-76.6047396,39.3392516
"700  CATOR AVE","BALTIMORE","ICYCONDI","TRM-Snow/Icy Conditions","2015-02-22T02:17:12.000","2015-02-23T02:17:12.000","PEN LUCY","15-00132089","MD","CLOSED","2015-02-22T19:56:26.000","21218",NA,NA,NA,2,-76.6062236,39.3391968
"5500  LYNVIEW AVE","BALTIMORE","ICYCONDI","TRM-Snow/Icy Conditions","2015-02-22T02:16:32.000","2015-02-23T02:16:32.000","WOODMERE","15-00132086","MD","CLOSED","2015-02-22T19:40:38.000","21215","Dispatch Work Crew","Abated - Close SR","2015-02-22T19:30:00.000",2,-76.69271,39.346189
"4200 W ROGERS AVE","BALTIMORE","ICYCONDI","TRM-Snow/Icy Conditions","2015-02-22T02:16:06.000","2015-02-23T02:16:06.000","WOODMERE","15-00132085","MD","CLOSED","2015-02-22T19:45:39.000","21215","Dispatch Work Crew","Abated - Close SR","2015-02-22T19:45:00.000",2,-76.6917565,39.3466303
"600  CATOR AVE","BALTIMORE","ICYCONDI","TRM-Snow/Icy Conditions","2015-02-22T02:15:35.000","2015-02-23T02:15:35.000","PEN LUCY","15-00132084","MD","CLOSED","2015-02-22T19:56:05.000","21218",NA,NA,NA,2,-76.6074894,39.3391485
"3000  ARUNAH AVE","BALTIMORE","ICYCONDI","TRM-Snow/Icy Conditions","2015-02-22T02:12:50.000","2015-02-23T02:12:50.000","FRANKLINTOWN ROAD","15-00132080","MD","CLOSED","2015-02-22T18:40:24.000","21216",NA,NA,NA,2,-76.6668813,39.2953086
"1800  CHILTON ST","BALTIMORE","ICYCONDI","TRM-Snow/Icy Conditions","2015-02-22T02:04:00.000","2015-02-23T02:04:00.000","COLDSTREAM HOMESTEAD MONTEBELLO","15-00132066","MD","CLOSED","2015-02-22T12:55:04.000","21218","Dispatch Work Crew","Abated - Close SR","2015-02-22T12:55:00.000",2,-76.5904986,39.3276795
"4100  GRANITE AVE","BALTIMORE","ICYCONDI","TRM-Snow/Icy Conditions","2015-02-22T01:52:53.000","2015-02-23T01:52:53.000","GLENHAM-BELFORD","15-00132035","MD","CLOSED","2015-02-22T13:51:39.000","21206","Dispatch Work Crew","Abated - Close SR","2015-02-22T13:51:00.000",2,-76.5423491,39.3455788
"1946  LIGHT ST","BALTIMORE","ICYCONDI","TRM-Snow/Icy Conditions","2015-02-22T01:45:58.000","2015-02-23T01:45:58.000","PORT COVINGTON","15-00132026","MD","CLOSED","2015-02-22T09:11:51.000","21230","Dispatch Work Crew","Abated - Close SR","2015-02-22T09:10:00.000",2,-76.612307,39.267485
"500 N CHARLES ST","BALTIMORE","ICYCONDI","TRM-Snow/Icy Conditions","2015-02-22T01:37:20.000","2015-02-23T01:37:20.000","MOUNT VERNON","15-00132003","MD","CLOSED","2015-02-22T19:14:24.000","21201","Storm Center","Abated - Close SR","2015-02-22T19:14:00.000",2,-76.6155403,39.2951171
"SAINT PAUL ST &E 25TH ST","BALTIMORE","ICYCONDI","TRM-Snow/Icy Conditions","2015-02-22T01:35:37.000","2015-02-23T01:35:37.000","CHARLES VILLAGE","15-00131991","MD","CLOSED","2015-02-22T17:30:52.000","21218",NA,NA,NA,2,-90.741793,38.8614405
"1012  COOKS LN","BALTIMORE","ICYCONDI","TRM-Snow/Icy Conditions","2015-02-22T01:34:09.000","2015-02-23T01:34:09.000","WEST HILLS","15-00131987","MD","CLOSED","2015-02-22T18:48:32.000","21229",NA,NA,NA,2,-76.708558,39.297148
"4910  CEDARGARDEN RD","BALTIMORE","ICYCONDI","TRM-Snow/Icy Conditions","2015-02-22T01:28:02.000","2015-02-23T01:28:02.000","BEECHFIELD","15-00131970","MD","CLOSED","2015-02-22T18:56:41.000","21229",NA,NA,NA,2,-76.696573,39.279325
"4000  PARKWOOD AVE","BALTIMORE","ICYCONDI","TRM-Snow/Icy Conditions","2015-02-22T01:26:27.000","2015-02-23T01:26:27.000","WALTHERSON","15-00131965","MD","CLOSED","2015-02-22T13:38:19.000","21206","Dispatch Work Crew","Abated - Close SR","2015-02-22T13:38:00.000",2,-76.5565927,39.3371809
"300  BROADMOOR RD","BALTIMORE","ICYCONDI","TRM-Snow/Icy Conditions","2015-02-22T01:22:03.000","2015-02-23T01:22:03.000","HOMELAND","15-00131958","MD","CLOSED","2015-02-22T20:40:23.000","21212","Dispatch Inspector","Abated - Close SR","2015-02-22T20:40:00.000",2,-76.615391,39.354877
"2800  LAKE AVE","BALTIMORE","ICYCONDI","TRM-Snow/Icy Conditions","2015-02-22T01:17:54.000","2015-02-23T01:17:54.000","BELAIR-EDISON","15-00131945","MD","CLOSED","2015-02-22T19:28:05.000","21213","Dispatch Work Crew","Abated - Close SR","2015-02-22T19:28:00.000",2,-76.573867,39.324104
"4200  KOLB AVE","RASPEBURG","ICYCONDI","TRM-Snow/Icy Conditions","2015-02-22T01:16:02.000","2015-02-23T01:16:02.000","CEDMONT","15-00131940","MD","CLOSED","2015-02-22T13:51:11.000","21206","Dispatch Work Crew","Abated - Close SR","2015-02-22T13:51:00.000",2,-76.5327148,39.3529747
"3027  ROSALIND AVE","BALTIMORE","ICYCONDI","TRM-Snow/Icy Conditions","2015-02-22T01:15:16.000","2015-02-23T01:15:16.000","CYLBURN","15-00131938","MD","CLOSED","2015-02-22T19:51:44.000","21215",NA,NA,NA,2,-76.667985,39.345568
"5000  REMMELL AVE","BALTIMORE","ICYCONDI","TRM-Snow/Icy Conditions","2015-02-22T01:07:35.000","2015-02-23T01:07:35.000","WALTHERSON","15-00131926","MD","CLOSED","2015-02-22T13:37:39.000","21206","Dispatch Work Crew","Abated - Close SR","2015-02-22T13:37:00.000",2,-76.5585475,39.3398701
"4100  DORIS AVE","BALTIMORE","ICYCONDI","TRM-Snow/Icy Conditions","2015-02-22T01:01:20.000","2015-02-23T01:01:20.000","BROOKLYN","15-00131915","MD","CLOSED","2015-02-22T19:05:10.000","21225","Storm Center","Abated - Close SR","2015-02-22T19:05:00.000",2,-76.603007,39.229801
"4200  DORIS AVE","BALTIMORE","ICYCONDI","TRM-Snow/Icy Conditions","2015-02-22T01:00:44.000","2015-02-23T01:00:44.000","BROOKLYN","15-00131914","MD","CLOSED","2015-02-22T19:07:14.000","21225","Storm Center","Abated - Close SR","2015-02-22T19:07:00.000",2,-76.604707,39.229101
"4200  AUDREY AVE","BALTIMORE","ICYCONDI","TRM-Snow/Icy Conditions","2015-02-22T01:00:03.000","2015-02-23T01:00:03.000","BROOKLYN","15-00131912","MD","CLOSED","2015-02-22T19:07:42.000","21225","Storm Center","Abated - Close SR","2015-02-22T19:07:00.000",2,-76.605189,39.229807
"4100  AUDREY AVE","BALTIMORE","ICYCONDI","TRM-Snow/Icy Conditions","2015-02-22T00:59:58.000","2015-02-23T00:59:58.000","BROOKLYN","15-00131911","MD","CLOSED","2015-02-22T19:08:06.000","21225","Storm Center","Abated - Close SR","2015-02-22T19:00:00.000",2,-76.603484,39.230521
"FALLSTAFF RD & WILLIAMSON AVE","BALTIMORE","ICYCONDI","TRM-Snow/Icy Conditions","2015-02-22T00:58:21.000","2015-02-23T00:58:21.000","FALLSTAFF","15-00131907","MD","CLOSED","2015-02-22T20:33:56.000","21215","Dispatch Work Crew","Abated - Close SR","2015-02-22T20:33:00.000",2,-76.7008993,39.3666697
"LOUISE AVE & EUNICE AVE","BALTIMORE","ICYCONDI","TRM-Snow/Icy Conditions","2015-02-22T00:56:43.000","2015-02-23T00:56:43.000","WESTFIELD","15-00131900","MD","CLOSED","2015-02-22T13:50:35.000","21214","Dispatch Work Crew","Abated - Close SR","2015-02-22T13:50:00.000",2,-96.7667059,43.203801
"1300  PENTRIDGE RD","BALTIMORE","ICYCONDI","TRM-Snow/Icy Conditions","2015-02-22T00:55:37.000","2015-02-23T00:55:37.000","NEW NORTHWOOD","15-00131894","MD","CLOSED","2015-02-22T18:05:23.000","21239",NA,NA,NA,2,-76.5952282,39.347748
"1300 N STOCKTON ST","BALTIMORE","ICYCONDI","TRM-Snow/Icy Conditions","2015-02-22T00:55:03.000","2015-02-23T00:55:03.000","SANDTOWN-WINCHESTER","15-00131890","MD","CLOSED","2015-02-22T18:42:52.000","21217",NA,NA,NA,2,-76.6382435,39.3034084
"E COLD SPRING LN & LOCH RAVEN BLVD","BALTIMORE","ICYCONDI","TRM-Snow/Icy Conditions","2015-02-22T00:54:02.000","2015-02-23T00:54:02.000","NEW NORTHWOOD","15-00131888","MD","CLOSED","2015-02-22T13:50:50.000","21239","Dispatch Work Crew","Abated - Close SR","2015-02-22T13:50:00.000",2,-76.5958598,39.3449962
"4500  ROLAND AVE","BALTIMORE","ICYCONDI","TRM-Snow/Icy Conditions","2015-02-22T00:51:08.000","2015-02-23T00:51:08.000","ROLAND PARK","15-00131881","MD","CLOSED","2015-02-22T19:15:59.000","21210",NA,NA,NA,2,-76.635927,39.3444379
"2300  HILLHOUSE RD","BALTIMORE","ICYCONDI","TRM-Snow/Icy Conditions","2015-02-22T00:46:28.000","2015-02-23T00:46:28.000","DICKEYVILLE","15-00131873","MD","CLOSED","2015-02-22T19:37:59.000","21207",NA,NA,NA,2,-76.7068824,39.3138606
"2200  HAWKINS POINT RD","BALTIMORE","ICYCONDI","TRM-Snow/Icy Conditions","2015-02-22T00:45:39.000","2015-02-23T00:45:39.000","HAWKINS POINT","15-00131872","MD","CLOSED","2015-02-22T19:01:43.000","21226","Storm Center","Abated - Close SR","2015-02-22T19:01:00.000",2,-76.5775354,39.2067549
"500 E BALTIMORE ST","BALTIMORE","ICYCONDI","TRM-Snow/Icy Conditions","2015-02-22T00:44:38.000","2015-02-23T00:44:38.000","DOWNTOWN","15-00131869","MD","CLOSED","2015-02-22T08:00:29.000","21202","Dispatch Work Crew","Abated - Close SR","2015-02-22T08:00:00.000",2,-76.6083632,39.2899801
"2100  WALBROOK AVE","BALTIMORE","ICYCONDI","TRM-Snow/Icy Conditions","2015-02-22T00:29:25.000","2015-02-23T00:29:25.000","MONDAWMIN","15-00131837","MD","CLOSED","2015-02-22T19:01:25.000","21217",NA,NA,NA,2,-76.6515062,39.3109472
"5400  WHITWOOD RD","BALTIMORE","ICYCONDI","TRM-Snow/Icy Conditions","2015-02-22T00:27:19.000","2015-02-23T00:27:19.000","CEDONIA","15-00131831","MD","CLOSED","2015-02-22T12:27:21.000","21206","Dispatch Work Crew","Abated - Close SR","2015-02-22T12:27:00.000",2,-76.5343037,39.3325771
"2800  GRANTLEY AVE","BALTIMORE","ICYCONDI","TRM-Snow/Icy Conditions","2015-02-22T00:27:13.000","2015-02-23T00:27:13.000","TOWANDA-GRANTLEY","15-00131830","MD","CLOSED","2015-02-22T19:52:17.000","21215",NA,NA,NA,2,-76.6668962,39.3375614
"400 S LEHIGH ST","BALTIMORE","ICYCONDI","TRM-Snow/Icy Conditions","2015-02-22T00:24:18.000","2015-02-23T00:24:18.000","GREEKTOWN","15-00131825","MD","CLOSED","2015-02-22T17:56:58.000","21224","Dispatch Work Crew","Abated - Close SR","2015-02-22T17:56:00.000",2,-76.5583673,39.2879711
"2900  SHIREY AVE","BALTIMORE","ICYCONDI","TRM-Snow/Icy Conditions","2015-02-22T00:15:25.000","2015-02-23T00:15:25.000","LAURAVILLE","15-00131814","MD","CLOSED","2015-02-22T19:27:17.000","21214","Dispatch Inspector","Abated - Close SR","2015-02-22T19:27:00.000",2,-76.568468,39.347588
"1600  APPLETON ST","BALTIMORE","ICYCONDI","TRM-Snow/Icy Conditions","2015-02-22T00:13:10.000","2015-02-23T00:13:10.000","EASTERWOOD","15-00131808","MD","CLOSED","2015-02-22T18:30:14.000","21217",NA,NA,NA,2,-76.6490712,39.3066684
"1700  LORMAN ST","BALTIMORE","ICYCONDI","TRM-Snow/Icy Conditions","2015-02-22T00:12:25.000","2015-02-23T00:12:25.000","SANDTOWN-WINCHESTER","15-00131807","MD","CLOSED","2015-02-22T19:07:11.000","21217",NA,NA,NA,2,-76.6447279,39.3042725
"4700  CROSSWOOD AVE","BALTIMORE","ICYCONDI","TRM-Snow/Icy Conditions","2015-02-22T00:10:30.000","2015-02-23T00:10:30.000","MORAVIA-WALTHER","15-00131804","MD","CLOSED","2015-02-22T13:08:38.000","21214","Dispatch Work Crew","Abated - Close SR","2015-02-22T13:00:00.000",2,-76.5628,39.340542
"4300  GLENMORE AVE","BALTIMORE","ICYCONDI","TRM-Snow/Icy Conditions","2015-02-22T00:08:54.000","2015-02-23T00:08:54.000","CEDMONT","15-00131799","MD","CLOSED","2015-02-22T13:50:00.000","21206","Dispatch Work Crew","Abated - Close SR","2015-02-22T13:49:00.000",2,-76.533396,39.351286
"1200  MERIDENE DR","BALTIMORE","ICYCONDI","TRM-Snow/Icy Conditions","2015-02-22T00:00:39.000","2015-02-23T00:00:39.000","IDLEWOOD","15-00131785","MD","CLOSED","2015-02-22T17:33:58.000","21239",NA,NA,NA,2,-76.59277,39.368388
"3613  HILLSDALE RD","BALTIMORE","ICYCONDI","TRM-Snow/Icy Conditions","2015-02-21T23:58:58.000","2015-02-22T23:58:58.000","HOWARD PARK","15-00131784","MD","CLOSED","2015-02-22T19:17:05.000","21207",NA,NA,NA,2,-76.693226,39.332128
"902  WILMINGTON AVE","BALTIMORE","ICYCONDI","TRM-Snow/Icy Conditions","2015-02-21T23:58:56.000","2015-02-22T23:58:56.000","MORRELL PARK","15-00131783","MD","CLOSED","2015-02-22T12:28:09.000","21223","Dispatch Work Crew","Abated - Close SR","2015-02-22T12:28:00.000",2,-76.667016,39.274831
"6004  ALTA AVE","BALTIMORE","ICYCONDI","TRM-Snow/Icy Conditions","2015-02-21T23:57:05.000","2015-02-22T23:57:05.000","GLENHAM-BELFORD","15-00131780","MD","CLOSED","2015-02-22T13:49:35.000","21206","Dispatch Work Crew","Abated - Close SR","2015-02-22T13:49:00.000",2,-76.5460389,39.35141
"200 E LAFAYETTE AVE","BALTIMORE","ICYCONDI","TRM-Snow/Icy Conditions","2015-02-21T23:56:01.000","2015-02-22T23:56:01.000","GREENMOUNT WEST","15-00131778","MD","CLOSED","2015-02-22T00:40:39.000","21202","Dispatch Work Crew","Abated - Close SR","2015-02-22T00:40:00.000",2,-76.6134321,39.3100233
"1206 N PARRISH ST","BALTIMORE","ICYCONDI","TRM-Snow/Icy Conditions","2015-02-21T23:55:14.000","2015-02-22T23:55:14.000","SANDTOWN-WINCHESTER","15-00131777","MD","DUPCLOSD","2015-02-22T18:52:26.000","21217",NA,NA,NA,2,-76.6427074,39.3026232
"2317 N LONGWOOD ST","BALTIMORE","ICYCONDI","TRM-Snow/Icy Conditions","2015-02-21T23:54:59.000","2015-02-22T23:54:59.000","WALBROOK","15-00131776","MD","CLOSED","2015-02-22T20:45:48.000","21216","Dispatch Work Crew","Abated - Close SR","2015-02-22T20:45:00.000",2,-76.667513,39.313797
"1200  DIVISION ST","BALTIMORE","ICYCONDI","TRM-Snow/Icy Conditions","2015-02-21T23:54:22.000","2015-02-22T23:54:22.000","UPTON","15-00131775","MD","CLOSED","2015-02-22T20:49:51.000","21217",NA,NA,NA,2,-76.6286097,39.300364
"2912  BAKER ST","BALTIMORE","ICYCONDI","TRM-Snow/Icy Conditions","2015-02-21T23:54:20.000","2015-02-22T23:54:20.000","NORTHWEST COMMUNITY ACTION","15-00131774","MD","CLOSED","2015-02-22T19:48:33.000","21216",NA,NA,NA,2,-76.666586,39.306143
"5700  BLAND AVE","BALTIMORE","ICYCONDI","TRM-Snow/Icy Conditions","2015-02-21T23:53:49.000","2015-02-22T23:53:49.000","GLEN","15-00131773","MD","CLOSED","2015-02-22T21:45:00.000","21215","Dispatch Work Crew","Abated - Close SR","2015-02-22T20:44:00.000",2,-76.679627,39.355932
"5000  PILGRIM RD","BALTIMORE","ICYCONDI","TRM-Snow/Icy Conditions","2015-02-21T23:53:48.000","2015-02-22T23:53:48.000","LAURAVILLE","15-00131772","MD","CLOSED","2015-02-22T19:27:44.000","21214","Dispatch Inspector","Abated - Close SR","2015-02-22T19:27:00.000",2,-76.573289,39.350847
"600 S PULASKI ST","BALTIMORE","ICYCONDI","TRM-Snow/Icy Conditions","2015-02-21T23:52:45.000","2015-02-22T23:52:45.000","CARROLLTON RIDGE","15-00131770","MD","CLOSED","2015-02-22T12:27:05.000","21223","Dispatch Work Crew","Abated - Close SR","2015-02-22T12:26:00.000",2,-76.648773,39.279683
"3300  WESTERWALD AVE","BALTIMORE","ICYCONDI","TRM-Snow/Icy Conditions","2015-02-21T23:52:34.000","2015-02-22T23:52:34.000","WAVERLY","15-00131769","MD","CLOSED","2015-02-22T14:39:32.000","21218","Dispatch Work Crew","Abated - Close SR","2015-02-22T14:39:00.000",2,-76.60529,39.328888
"621 W HOFFMAN ST","BALTIMORE","ICYCONDI","TRM-Snow/Icy Conditions","2015-02-21T23:51:36.000","2015-02-22T23:51:36.000","HERITAGE CROSSING","15-00131767","MD","CLOSED","2015-02-22T20:33:11.000","21201",NA,NA,NA,2,-76.62893,39.298139
"500  BRISBANE RD","BALTIMORE","ICYCONDI","TRM-Snow/Icy Conditions","2015-02-21T23:51:24.000","2015-02-22T23:51:24.000","BEECHFIELD","15-00131765","MD","CLOSED","2015-02-22T18:56:03.000","21229",NA,NA,NA,2,-76.6963851,39.2762956
"6505  BELLE VISTA AVE","BALTIMORE","ICYCONDI","TRM-Snow/Icy Conditions","2015-02-21T23:51:14.000","2015-02-22T23:51:14.000","ROSEMONT EAST","15-00131764","MD","CLOSED","2015-02-22T13:49:00.000","21206","Dispatch Work Crew","Abated - Close SR","2015-02-22T13:48:00.000",2,-76.542767,39.35785
"400 N EDGEWOOD ST","BALTIMORE","ICYCONDI","TRM-Snow/Icy Conditions","2015-02-21T23:50:14.000","2015-02-22T23:50:14.000","ALLENDALE","15-00131760","MD","CLOSED","2015-02-22T19:40:43.000","21229",NA,NA,NA,2,-76.675682,39.291965
"4841  MELBOURNE RD","BALTIMORE","ICYCONDI","TRM-Snow/Icy Conditions","2015-02-21T23:48:59.000","2015-02-22T23:48:59.000","BEECHFIELD","15-00131758","MD","CLOSED","2015-02-22T18:55:35.000","21229",NA,NA,NA,2,-76.698678,39.272868
"4000  CENTURY RD","BALTIMORE","ICYCONDI","TRM-Snow/Icy Conditions","2015-02-21T23:48:25.000","2015-02-22T23:48:25.000","GLENHAM-BELFORD","15-00131756","MD","CLOSED","2015-02-22T13:48:30.000","21206","Dispatch Work Crew","Abated - Close SR","2015-02-22T13:48:00.000",2,-76.54182,39.346915
"4708  VALLEY VIEW AVE","BALTIMORE","ICYCONDI","TRM-Snow/Icy Conditions","2015-02-21T23:47:47.000","2015-02-22T23:47:47.000","FRANKFORD","15-00131754","MD","CLOSED","2015-02-22T18:55:17.000","21206",NA,NA,NA,2,-76.550325,39.3303129
"4803  NORWOOD AVE","BALTIMORE","ICYCONDI","TRM-Snow/Icy Conditions","2015-02-21T23:47:43.000","2015-02-22T23:47:43.000","HOWARD PARK","15-00131753","MD","CLOSED","2015-02-22T19:38:51.000","21207","Dispatch Inspector","Abated - Close SR","2015-02-22T19:38:00.000",2,-76.697131,39.329017
"5207  BARBARA AVE","BALTIMORE","ICYCONDI","TRM-Snow/Icy Conditions","2015-02-21T23:47:35.000","2015-02-22T23:47:35.000","FRANKFORD","15-00131751","MD","CLOSED","2015-02-22T18:54:43.000","21206",NA,NA,NA,2,-76.547269,39.331064
"5845  ARIZONA AVE","BALTIMORE","ICYCONDI","TRM-Snow/Icy Conditions","2015-02-21T23:47:26.000","2015-02-22T23:47:26.000","CEDONIA","15-00131750","MD","CLOSED","2015-02-22T12:26:49.000","21206","Dispatch Work Crew","Abated - Close SR","2015-02-22T12:26:00.000",2,-76.535724,39.3355419
"6123  ALTA AVE","BALTIMORE","ICYCONDI","TRM-Snow/Icy Conditions","2015-02-21T23:47:05.000","2015-02-22T23:47:05.000","ROSEMONT EAST","15-00131749","MD","CLOSED","2015-02-22T13:47:53.000","21206","Dispatch Work Crew","Abated - Close SR","2015-02-22T13:47:00.000",2,-76.544238,39.355287
"ALSON DR & COOKS LN","BALTIMORE","ICYCONDI","TRM-Snow/Icy Conditions","2015-02-21T23:46:10.000","2015-02-22T23:46:10.000","HUNTING RIDGE","15-00131747","MD","CLOSED","2015-02-22T00:59:38.000","21229",NA,NA,NA,2,-76.3007072,36.892114
"5043  WESTHILLS RD","BALTIMORE","ICYCONDI","TRM-Snow/Icy Conditions","2015-02-21T23:44:46.000","2015-02-22T23:44:46.000","WEST HILLS","15-00131744","MD","CLOSED","2015-02-22T18:56:55.000","21229",NA,NA,NA,2,-76.710889,39.294756
"500  HAZLETT AVE","BALTIMORE","ICYCONDI","TRM-Snow/Icy Conditions","2015-02-21T23:43:54.000","2015-02-22T23:43:54.000","BEECHFIELD","15-00131740","MD","CLOSED","2015-02-22T18:55:03.000","21229",NA,NA,NA,2,-76.6984352,39.2775837
"5518  SILVERBELL RD","BALTIMORE","ICYCONDI","TRM-Snow/Icy Conditions","2015-02-21T23:43:31.000","2015-02-22T23:43:31.000","CEDONIA","15-00131739","MD","CLOSED","2015-02-22T12:26:22.000","21206","Dispatch Work Crew","Abated - Close SR","2015-02-22T12:26:00.000",2,-76.53243,39.33473
"4602  POWELL AVE","BALTIMORE","ICYCONDI","TRM-Snow/Icy Conditions","2015-02-21T23:42:58.000","2015-02-22T23:42:58.000","CEDMONT","15-00131738","MD","CLOSED","2015-02-22T13:47:28.000","21206","Dispatch Work Crew","Abated - Close SR","2015-02-22T13:47:00.000",2,-76.529955,39.345602
"4012  OVERLEA AVE","BALTIMORE","ICYCONDI","TRM-Snow/Icy Conditions","2015-02-21T23:42:19.000","2015-02-22T23:42:19.000","OVERLEA","15-00131736","MD","DUPCLOSD","2015-02-22T13:35:42.000","21206",NA,NA,NA,2,-76.5308979,39.358141
"5927  LILLYAN AVE","BALTIMORE","ICYCONDI","TRM-Snow/Icy Conditions","2015-02-21T23:41:17.000","2015-02-22T23:41:17.000","GLENHAM-BELFORD","15-00131734","MD","CLOSED","2015-02-22T13:46:58.000","21206","Dispatch Work Crew","Abated - Close SR","2015-02-22T13:46:00.000",2,-76.544571,39.348042
"5510  KNELL AVE","BALTIMORE","ICYCONDI","TRM-Snow/Icy Conditions","2015-02-21T23:41:03.000","2015-02-22T23:41:03.000","FRANKFORD","15-00131730","MD","DUPCLOSD","2015-02-22T12:25:55.000","21206",NA,NA,NA,2,-76.544395,39.335039
"4100  KINSWAY","BALTIMORE","ICYCONDI","TRM-Snow/Icy Conditions","2015-02-21T23:37:42.000","2015-02-22T23:37:42.000","GLENHAM-BELFORD","15-00131721","MD","CLOSED","2015-02-22T13:46:28.000","21206","Dispatch Work Crew","Abated - Close SR","2015-02-22T13:46:00.000",2,-76.5437611,39.3448568
"MAYFIELD AVE & BELAIR RD","BALTIMORE","ICYCONDI","TRM-Snow/Icy Conditions","2015-02-21T23:34:35.000","2015-02-22T23:34:35.000","BELAIR-EDISON","15-00131715","MD","CLOSED","2015-02-22T20:19:38.000","21213",NA,NA,NA,2,-87.7675301,41.7160501
"5509  KNELL AVE","BALTIMORE","ICYCONDI","TRM-Snow/Icy Conditions","2015-02-21T23:33:43.000","2015-02-22T23:33:43.000","FRANKFORD","15-00131714","MD","CLOSED","2015-02-22T12:25:55.000","21206","Dispatch Work Crew","Abated - Close SR","2015-02-22T12:25:00.000",2,-76.544183,39.334521
"3704  GIBBONS AVE","BALTIMORE","ICYCONDI","TRM-Snow/Icy Conditions","2015-02-21T23:33:24.000","2015-02-22T23:33:24.000","WALTHERSON","15-00131713","MD","CLOSED","2015-02-22T18:14:46.000","21206",NA,NA,NA,2,-76.5555418,39.3440762
"4514  BAYONNE AVE","BALTIMORE","ICYCONDI","TRM-Snow/Icy Conditions","2015-02-21T23:32:58.000","2015-02-22T23:32:58.000","FRANKFORD","15-00131711","MD","CLOSED","2015-02-22T12:25:18.000","21206","Dispatch Work Crew","Abated - Close SR","2015-02-22T12:25:00.000",2,-76.537412,39.3413169
"3710  KEENE AVE","BALTIMORE","ICYCONDI","TRM-Snow/Icy Conditions","2015-02-21T23:31:47.000","2015-02-22T23:31:47.000","GLENHAM-BELFORD","15-00131709","MD","CLOSED","2015-02-22T18:14:38.000","21206",NA,NA,NA,2,-76.550968,39.346953
"4310  RASPE AVE","BALTIMORE","ICYCONDI","TRM-Snow/Icy Conditions","2015-02-21T23:31:13.000","2015-02-22T23:31:13.000","CEDMONT","15-00131706","MD","CLOSED","2015-02-22T13:45:58.000","21206","Dispatch Work Crew","Abated - Close SR","2015-02-22T13:45:00.000",2,-76.533731,39.349354
"5808  EURITH AVE","BALTIMORE","ICYCONDI","TRM-Snow/Icy Conditions","2015-02-21T23:29:18.000","2015-02-22T23:29:18.000","CEDMONT","15-00131705","MD","CLOSED","2015-02-22T13:45:32.000","21206","Dispatch Work Crew","Abated - Close SR","2015-02-22T13:45:00.000",2,-76.530835,39.3431179
"4609  MARY AVE","BALTIMORE","ICYCONDI","TRM-Snow/Icy Conditions","2015-02-21T23:29:05.000","2015-02-22T23:29:05.000","CEDMONT","15-00131704","MD","CLOSED","2015-02-22T12:24:41.000","21206","Dispatch Work Crew","Abated - Close SR","2015-02-22T12:24:00.000",2,-76.536258,39.342502
"4607  RENWICK AVE","BALTIMORE","ICYCONDI","TRM-Snow/Icy Conditions","2015-02-21T23:27:06.000","2015-02-22T23:27:06.000","FRANKFORD","15-00131696","MD","CLOSED","2015-02-22T12:24:12.000","21206","Dispatch Work Crew","Abated - Close SR","2015-02-22T12:24:00.000",2,-76.535828,39.339798
"1000  RECTORY LN","BALTIMORE","ICYCONDI","TRM-Snow/Icy Conditions","2015-02-21T23:21:47.000","2015-02-22T23:21:47.000","HAMPDEN","15-00131682","MD","CLOSED","2015-02-22T19:50:49.000","21211","Dispatch Inspector","Abated - Close SR","2015-02-22T19:50:00.000",2,-76.6329331,39.3350138
"S I 83 &W NORTHERN PKWY","BALTIMORE","ICYCONDI","TRM-Snow/Icy Conditions","2015-02-21T23:20:28.000","2015-02-22T23:20:28.000","COLDSPRING","15-00131680","MD","CLOSED","2015-02-22T20:01:23.000","21209","Dispatch Work Crew","Abated - Close SR","2015-02-22T18:45:00.000",2,16.1285306,61.7932783
"5100  BROOK GREEN RD","BALTIMORE","ICYCONDI","TRM-Snow/Icy Conditions","2015-02-21T23:08:53.000","2015-02-22T23:08:53.000","TEN HILLS","15-00131661","MD","CLOSED","2015-02-22T19:19:15.000","21229",NA,NA,NA,2,-76.704431,39.288033
"500  YALE AVE","BALTIMORE","ICYCONDI","TRM-Snow/Icy Conditions","2015-02-21T23:07:59.000","2015-02-22T23:07:59.000","YALE HEIGHTS","15-00131657","MD","CLOSED","2015-02-22T18:54:34.000","21229",NA,NA,NA,2,-76.687842,39.276977
"301 W NORTH AVE","BALTIMORE","ICYCONDI","TRM-Snow/Icy Conditions","2015-02-21T23:02:10.000","2015-02-22T23:02:10.000","JONES FALLS AREA","15-00131649","MD","CLOSED","2015-02-22T01:06:30.000","21217","Storm Center","Abated - Close SR","2015-02-22T01:06:00.000",2,-76.6220685,39.3108683
"4507  FINNEY AVE","BALTIMORE","ICYCONDI","TRM-Snow/Icy Conditions","2015-02-21T22:57:24.000","2015-02-22T22:57:24.000","PARKLANE","15-00131643","MD","CLOSED","2015-02-22T19:52:55.000","21215",NA,NA,NA,2,-76.6609513,39.3423533
"3000  EDMONDSON AVE","BALTIMORE","ICYCONDI","TRM-Snow/Icy Conditions","2015-02-21T22:56:56.000","2015-02-22T22:56:56.000","FRANKLINTOWN ROAD","15-00131641","MD","CLOSED","2015-02-22T01:02:54.000","21223",NA,NA,NA,2,-76.666847,39.294605
"300 E SARATOGA ST","BALTIMORE","ICYCONDI","TRM-Snow/Icy Conditions","2015-02-21T22:56:51.000","2015-02-22T22:56:51.000","DOWNTOWN","15-00131640","MD","CLOSED","2015-02-22T07:58:49.000","21202","Dispatch Work Crew","Abated - Close SR","2015-02-22T07:58:00.000",2,-76.610861,39.2925811
"803  LENTON AVE","BALTIMORE","ICYCONDI","TRM-Snow/Icy Conditions","2015-02-21T22:55:22.000","2015-02-22T22:55:22.000","CHINQUAPIN PARK-BELVEDERE","15-00131637","MD","CLOSED","2015-02-22T17:41:09.000","21212",NA,NA,NA,2,-76.6050704,39.3662738
"RUSSELL ST & I 295","BALTIMORE","ICYCONDI","TRM-Snow/Icy Conditions","2015-02-21T22:53:38.000","2015-02-22T22:53:38.000","WESTPORT","15-00131634","MD","CLOSED","2015-02-22T18:44:04.000","21230","Storm Center","Abated - Close SR","2015-02-22T18:44:00.000",2,-89.1473756,37.8292834
"1401 W NORTHERN PKWY","BALTIMORE","ICYCONDI","TRM-Snow/Icy Conditions","2015-02-21T22:53:28.000","2015-02-22T22:53:28.000","CROSS KEYS","15-00131633","MD","CLOSED","2015-02-22T20:32:55.000","21209",NA,NA,NA,2,-76.6497647,39.3606025
"1401 W NORTHERN PKWY","BALTIMORE","ICYCONDI","TRM-Snow/Icy Conditions","2015-02-21T22:47:44.000","2015-02-22T22:47:44.000","CROSS KEYS","15-00131617","MD","CLOSED","2015-02-22T20:32:06.000","21209",NA,NA,NA,2,-76.6497647,39.3606025
"4501  GREEN ROSE LN","BALTIMORE","ICYCONDI","TRM-Snow/Icy Conditions","2015-02-21T22:46:40.000","2015-02-22T22:46:40.000","CLAREMONT-FREEDOM","15-00131614","MD","CLOSED","2015-02-22T19:06:56.000","21213","Dispatch Work Crew","Abated - Close SR","2015-02-22T19:06:00.000",2,-76.562449,39.310366
"2000  BRYANT AVE","BALTIMORE","ICYCONDI","TRM-Snow/Icy Conditions","2015-02-21T22:43:00.000","2015-02-22T22:43:00.000","MONDAWMIN","15-00131608","MD","CLOSED","2015-02-22T19:01:59.000","21217",NA,NA,NA,2,-76.6514802,39.3152385
"1034 N MOUNT ST","BALTIMORE","ICYCONDI","TRM-Snow/Icy Conditions","2015-02-21T22:40:06.000","2015-02-22T22:40:06.000","SANDTOWN-WINCHESTER","15-00131605","MD","CLOSED","2015-02-22T18:18:42.000","21217",NA,NA,NA,2,-76.64495,39.300588
"LAKEVIEW AVE & WHITELOCK ST","BALTIMORE","ICYCONDI","TRM-Snow/Icy Conditions","2015-02-21T22:35:08.000","2015-02-22T22:35:08.000","RESERVOIR HILL","15-00131599","MD","CLOSED","2015-02-22T20:18:34.000","21217",NA,NA,NA,2,-77.4255457,37.2686335
"3700  COLBORNE RD","BALTIMORE","ICYCONDI","TRM-Snow/Icy Conditions","2015-02-21T22:34:02.000","2015-02-22T22:34:02.000","EDMONDSON VILLAGE","15-00131597","MD","CLOSED","2015-02-22T19:16:19.000","21229",NA,NA,NA,2,-76.679093,39.298164
"301  STOCKHOLM ST","BALTIMORE","ICYCONDI","TRM-Snow/Icy Conditions","2015-02-21T22:31:07.000","2015-02-22T22:31:07.000","CARROLL - CAMDEN INDUSTRIAL AREA","15-00131592","MD","CLOSED","2015-02-22T19:14:42.000","21230",NA,NA,NA,2,-76.622777,39.274318
"6101  FAIRWOOD AVE","BALTIMORE","ICYCONDI","TRM-Snow/Icy Conditions","2015-02-21T22:31:05.000","2015-02-22T22:31:05.000","GLENHAM-BELFORD","15-00131591","MD","CLOSED","2015-02-22T13:45:00.000","21206","Dispatch Work Crew","Abated - Close SR","2015-02-22T13:44:00.000",2,-76.542728,39.349046
"5102  EUGENE AVE","BALTIMORE","ICYCONDI","TRM-Snow/Icy Conditions","2015-02-21T22:30:57.000","2015-02-22T22:30:57.000","WALTHERSON","15-00131590","MD","CLOSED","2015-02-22T18:13:58.000","21206",NA,NA,NA,2,-76.556188,39.338973
"5114  PEMBROKE AVE","BALTIMORE","ICYCONDI","TRM-Snow/Icy Conditions","2015-02-21T22:28:56.000","2015-02-22T22:28:56.000","WALTHERSON","15-00131587","MD","CLOSED","2015-02-22T18:13:06.000","21206",NA,NA,NA,2,-76.557696,39.34155
"5426  FRANKFORD ESTATES DR","BALTIMORE","ICYCONDI","TRM-Snow/Icy Conditions","2015-02-21T22:27:13.000","2015-02-22T22:27:13.000","FRANKFORD","15-00131585","MD","CLOSED","2015-02-22T00:17:08.000","21206",NA,NA,NA,2,-76.538409,39.320138
"4222  PARKMONT AVE","BALTIMORE","ICYCONDI","TRM-Snow/Icy Conditions","2015-02-21T22:27:04.000","2015-02-22T22:27:04.000","CEDMONT","15-00131583","MD","CLOSED","2015-02-22T13:44:18.000","21206","Dispatch Work Crew","Abated - Close SR","2015-02-22T13:44:00.000",2,-76.53626,39.347694
"4401  MARY AVE","BALTIMORE","ICYCONDI","TRM-Snow/Icy Conditions","2015-02-21T22:27:00.000","2015-02-22T22:27:00.000","CEDMONT","15-00131582","MD","CLOSED","2015-02-22T12:23:42.000","21206","Dispatch Work Crew","Abated - Close SR","2015-02-22T12:23:00.000",2,-76.539412,39.343185
"5714  WHITE AVE","BALTIMORE","ICYCONDI","TRM-Snow/Icy Conditions","2015-02-21T22:26:54.000","2015-02-22T22:26:54.000","FRANKFORD","15-00131581","MD","DUPCLOSD","2015-02-22T12:22:48.000","21206",NA,NA,NA,2,-76.534421,39.338862
"5207  DARIEN RD","BALTIMORE","ICYCONDI","TRM-Snow/Icy Conditions","2015-02-21T22:23:16.000","2015-02-22T22:23:16.000","CEDONIA","15-00131574","MD","CLOSED","2015-02-22T00:16:17.000","21206",NA,NA,NA,2,-76.5313798,39.3270123
"4920  ANNTANA AVE","BALTIMORE","ICYCONDI","TRM-Snow/Icy Conditions","2015-02-21T22:22:58.000","2015-02-22T22:22:58.000","FRANKFORD","15-00131572","MD","CLOSED","2015-02-22T12:23:12.000","21206","Dispatch Work Crew","Abated - Close SR","2015-02-22T12:23:00.000",2,-76.540102,39.330695
"4300  ORCHARD RIDGE BLVD","BALTIMORE","ICYCONDI","TRM-Snow/Icy Conditions","2015-02-21T22:22:51.000","2015-02-22T22:22:51.000","CLAREMONT-FREEDOM","15-00131571","0","CLOSED","2015-02-22T19:04:16.000",NA,"Dispatch Work Crew","Abated - Close SR","2015-02-22T19:03:00.000",2,-76.559391,39.312571
"6000  ROLAND AVE","BALTIMORE","ICYCONDI","TRM-Snow/Icy Conditions","2015-02-21T22:21:10.000","2015-02-22T22:21:10.000","NORTH ROLAND PARK/POPLAR HILL","15-00131570","MD","CLOSED","2015-02-22T18:34:33.000","21210",NA,NA,NA,2,-76.633829,39.3711
"6109  RIDGEVIEW AVE","BALTIMORE","ICYCONDI","TRM-Snow/Icy Conditions","2015-02-21T22:20:57.000","2015-02-22T22:20:57.000","GLENHAM-BELFORD","15-00131568","MD","CLOSED","2015-02-22T13:43:38.000","21206","Dispatch Work Crew","Abated - Close SR","2015-02-22T13:43:00.000",2,-76.539412,39.348861
"6124  EVERALL AVE","BALTIMORE","ICYCONDI","TRM-Snow/Icy Conditions","2015-02-21T22:20:48.000","2015-02-22T22:20:48.000","GLENHAM-BELFORD","15-00131566","MD","CLOSED","2015-02-22T13:43:10.000","21206","Dispatch Work Crew","Abated - Close SR","2015-02-22T13:43:00.000",2,-76.538458,39.350397
"5106  SPRINGLAKE WAY","BALTIMORE","ICYCONDI","TRM-Snow/Icy Conditions","2015-02-21T22:19:00.000","2015-02-22T22:19:00.000","HOMELAND","15-00131563","MD","CLOSED","2015-02-22T20:39:34.000","21212","Dispatch Inspector","Abated - Close SR","2015-02-22T20:39:00.000",2,-76.616874,39.355396
"5820  PLUMER AVE","BALTIMORE","ICYCONDI","TRM-Snow/Icy Conditions","2015-02-21T22:18:53.000","2015-02-22T22:18:53.000","CEDMONT","15-00131562","MD","CLOSED","2015-02-22T13:39:43.000","21206","Dispatch Work Crew","Abated - Close SR","2015-02-22T13:39:00.000",2,-76.531675,39.343006
"3200  BRENDAN AVE","BALTIMORE","ICYCONDI","TRM-Snow/Icy Conditions","2015-02-21T22:15:39.000","2015-02-22T22:15:39.000","BELAIR-EDISON","15-00131560","MD","CLOSED","2015-02-22T14:16:31.000","21213","Dispatch Work Crew","Abated - Close SR","2015-02-22T14:16:00.000",2,-76.5695186,39.3223409
"2800  PELHAM AVE","BALTIMORE","ICYCONDI","TRM-Snow/Icy Conditions","2015-02-21T22:10:18.000","2015-02-22T22:10:18.000","BELAIR-EDISON","15-00131555","MD","CLOSED","2015-02-22T14:38:42.000","21213","Dispatch Work Crew","Abated - Close SR","2015-02-22T14:38:00.000",2,-76.572014,39.325771
"900 N ROSEDALE ST","BALTIMORE","ICYCONDI","TRM-Snow/Icy Conditions","2015-02-21T22:09:32.000","2015-02-22T22:09:32.000","FRANKLINTOWN ROAD","15-00131551","MD","CLOSED","2015-02-22T01:02:08.000","21216",NA,NA,NA,2,-76.66831,39.2974789
"5722  WHITE AVE","BALTIMORE","ICYCONDI","TRM-Snow/Icy Conditions","2015-02-21T22:09:19.000","2015-02-22T22:09:19.000","FRANKFORD","15-00131550","MD","CLOSED","2015-02-22T12:22:48.000","21206","Dispatch Work Crew","Abated - Close SR","2015-02-22T12:22:00.000",2,-76.534609,39.339448
"5607  DENWOOD AVE","BALTIMORE","ICYCONDI","TRM-Snow/Icy Conditions","2015-02-21T22:09:05.000","2015-02-22T22:09:05.000","FRANKFORD","15-00131549","MD","CLOSED","2015-02-22T20:20:02.000","21206",NA,NA,NA,2,-76.548632,39.319272
"6018  EURITH AVE","BALTIMORE","ICYCONDI","TRM-Snow/Icy Conditions","2015-02-21T22:08:49.000","2015-02-22T22:08:49.000","CEDMONT","15-00131548","MD","DUPCLOSD","2015-02-22T13:40:16.000","21206",NA,NA,NA,2,-76.531383,39.347838
"5615  DAYWALT AVE","BALTIMORE","ICYCONDI","TRM-Snow/Icy Conditions","2015-02-21T22:07:06.000","2015-02-22T22:07:06.000","FRANKFORD","15-00131544","MD","CLOSED","2015-02-22T00:15:28.000","21206",NA,NA,NA,2,-76.53506,39.328455
"5515  HILLTOP AVE","BALTIMORE","ICYCONDI","TRM-Snow/Icy Conditions","2015-02-21T22:06:51.000","2015-02-22T22:06:51.000","WALTHERSON","15-00131543","MD","CLOSED","2015-02-22T18:11:33.000","21206",NA,NA,NA,2,-76.549028,39.342111
"2900  GREENMOUNT AVE","BALTIMORE","ICYCONDI","TRM-Snow/Icy Conditions","2015-02-21T22:06:03.000","2015-02-22T22:06:03.000","ABELL","15-00131541","MD","CLOSED","2015-02-22T17:51:24.000","21218",NA,NA,NA,2,-76.609708,39.323602
"4100  EDMONDSON AVE","BALTIMORE","ICYCONDI","TRM-Snow/Icy Conditions","2015-02-21T22:05:49.000","2015-02-22T22:05:49.000","EDMONDSON VILLAGE","15-00131540","MD","CLOSED","2015-02-22T19:15:44.000","21229",NA,NA,NA,2,-76.684173,39.293989
"7609  WINDY RIDGE","BALTIMORE","ICYCONDI","TRM-Snow/Icy Conditions","2015-02-21T22:05:19.000","2015-02-22T22:05:19.000","TAYLOR HEIGHTS","15-00131539","MD","CLOSED","2015-02-22T19:32:16.000","21236","Dispatch Work Crew","Abated - Close SR","2015-02-22T19:32:00.000",2,-76.529854,39.364871
"4007  OVERLEA AVE","BALTIMORE","ICYCONDI","TRM-Snow/Icy Conditions","2015-02-21T22:05:12.000","2015-02-22T22:05:12.000","OVERLEA","15-00131538","MD","DUPCLOSD","2015-02-22T13:35:42.000","21206",NA,NA,NA,2,-76.531453,39.357718
"5542  WHITBY RD","BALTIMORE","ICYCONDI","TRM-Snow/Icy Conditions","2015-02-21T22:05:00.000","2015-02-22T22:05:00.000","CEDONIA","15-00131537","MD","CLOSED","2015-02-22T12:22:19.000","21206","Dispatch Work Crew","Abated - Close SR","2015-02-22T12:22:00.000",2,-76.5308596,39.3349346
"BELAIR RD & PARKSIDE DR","BALTIMORE","ICYCONDI","TRM-Snow/Icy Conditions","2015-02-21T22:03:26.000","2015-02-22T22:03:26.000","BELAIR-EDISON","15-00131531","MD","CLOSED","2015-02-22T14:38:16.000","21206","Dispatch Work Crew","Abated - Close SR","2015-02-22T14:38:00.000",2,-76.4688967,39.4084423
"1319 W FAYETTE ST","BALTIMORE","ICYCONDI","TRM-Snow/Icy Conditions","2015-02-21T22:03:09.000","2015-02-22T22:03:09.000","FRANKLIN SQUARE","15-00131530","MD","CLOSED","2015-02-22T10:40:44.000","21223","Dispatch Work Crew","Abated - Close SR","2015-02-22T10:40:00.000",2,-76.639073,39.289383
"4300  RAYMAR AVE","BALTIMORE","ICYCONDI","TRM-Snow/Icy Conditions","2015-02-21T22:00:32.000","2015-02-22T22:00:32.000","FRANKFORD","15-00131527","MD","CLOSED","2015-02-22T12:50:04.000","21206","Dispatch Work Crew","Abated - Close SR","2015-02-22T12:49:00.000",2,-76.555729,39.332605
"2900 N DUKELAND ST","BALTIMORE","ICYCONDI","TRM-Snow/Icy Conditions","2015-02-21T21:59:11.000","2015-02-22T21:59:11.000","HANLON-LONGWOOD","15-00131522","MD","CLOSED","2015-02-22T20:46:09.000","21216","Dispatch Work Crew","Abated - Close SR","2015-02-22T20:46:00.000",2,-76.6666384,39.3226503
"5912  BENTON HEIGHTS AVE","BALTIMORE","ICYCONDI","TRM-Snow/Icy Conditions","2015-02-21T21:56:55.000","2015-02-22T21:56:55.000","GLENHAM-BELFORD","15-00131517","MD","CLOSED","2015-02-22T13:42:43.000","21206","Dispatch Work Crew","Abated - Close SR","2015-02-22T13:42:00.000",2,-76.543514,39.347164
"3800  WOODRIDGE RD","BALTIMORE","ICYCONDI","TRM-Snow/Icy Conditions","2015-02-21T21:56:07.000","2015-02-22T21:56:07.000","EDMONDSON VILLAGE","15-00131514","MD","CLOSED","2015-02-22T19:15:02.000","21229",NA,NA,NA,2,-76.680451,39.297379
"4150  DORIS AVE","BALTIMORE","ICYCONDI","TRM-Snow/Icy Conditions","2015-02-21T21:55:18.000","2015-02-22T21:55:18.000","BROOKLYN","15-00131511","MD","CLOSED","2015-02-22T19:08:30.000","21225","Storm Center","Abated - Close SR","2015-02-22T19:00:00.000",2,-76.6044469,39.2292
"7001  BROOK AVE","BALTIMORE","ICYCONDI","TRM-Snow/Icy Conditions","2015-02-21T21:54:52.000","2015-02-22T21:54:52.000","OVERLEA","15-00131510","MD","CLOSED","2015-02-22T13:39:09.000","21206","Dispatch Work Crew","Abated - Close SR","2015-02-22T13:39:00.000",2,-76.5338529,39.3607798
"2400  ETTING ST","BALTIMORE","ICYCONDI","TRM-Snow/Icy Conditions","2015-02-21T21:54:11.000","2015-02-22T21:54:11.000","PENN NORTH","15-00131509","MD","CLOSED","2015-02-22T20:08:45.000","21217",NA,NA,NA,2,-76.6406813,39.3108391
"3908  MAYBERRY AVE","BALTIMORE","ICYCONDI","TRM-Snow/Icy Conditions","2015-02-21T21:52:54.000","2015-02-22T21:52:54.000","ROSEMONT EAST","15-00131507","MD","CLOSED","2015-02-22T13:42:06.000","21206","Dispatch Work Crew","Abated - Close SR","2015-02-22T13:42:00.000",2,-76.537297,39.354595
"5603  GARDENVILLE AVE","BALTIMORE","ICYCONDI","TRM-Snow/Icy Conditions","2015-02-21T21:50:56.000","2015-02-22T21:50:56.000","FRANKFORD","15-00131499","MD","CLOSED","2015-02-22T12:21:46.000","21206","Dispatch Work Crew","Abated - Close SR","2015-02-22T12:21:00.000",2,-76.543159,39.336289
"1400  CARSWELL ST","BALTIMORE","ICYCONDI","TRM-Snow/Icy Conditions","2015-02-21T21:49:11.000","2015-02-22T21:49:11.000","COLDSTREAM HOMESTEAD MONTEBELLO","15-00131496","MD","CLOSED","2015-02-22T14:39:12.000","21218","Dispatch Work Crew","Abated - Close SR","2015-02-22T14:39:00.000",2,-76.5979303,39.3241946
"6129  RIDGEVIEW AVE","BALTIMORE","ICYCONDI","TRM-Snow/Icy Conditions","2015-02-21T21:48:50.000","2015-02-22T21:48:50.000","GLENHAM-BELFORD","15-00131494","MD","CLOSED","2015-02-22T13:41:34.000","21206","Dispatch Work Crew","Abated - Close SR","2015-02-22T13:41:00.000",2,-76.539181,39.350292
"3723  INA AVE","BALTIMORE","ICYCONDI","TRM-Snow/Icy Conditions","2015-02-21T21:48:46.000","2015-02-22T21:48:46.000","GLENHAM-BELFORD","15-00131493","MD","DUPCLOSD","2015-02-22T13:37:54.000","21206",NA,NA,NA,2,-76.5417307,39.3511528
"5914  GRACE AVE","BALTIMORE","ICYCONDI","TRM-Snow/Icy Conditions","2015-02-21T21:46:54.000","2015-02-22T21:46:54.000","CEDMONT","15-00131490","MD","CLOSED","2015-02-22T13:41:09.000","21206","Dispatch Work Crew","Abated - Close SR","2015-02-22T13:41:00.000",2,-76.534998,39.344741
"3715  INA AVE","BALTIMORE","ICYCONDI","TRM-Snow/Icy Conditions","2015-02-21T21:46:48.000","2015-02-22T21:46:48.000","GLENHAM-BELFORD","15-00131489","MD","CLOSED","2015-02-22T13:37:54.000","21206","Dispatch Work Crew","Abated - Close SR","2015-02-22T13:37:00.000",2,-76.542133,39.3511949
"5045  TRUESDALE AVE","BALTIMORE","ICYCONDI","TRM-Snow/Icy Conditions","2015-02-21T21:44:45.000","2015-02-22T21:44:45.000","FRANKFORD","15-00131484","MD","CLOSED","2015-02-22T00:14:54.000","21206",NA,NA,NA,2,-76.5448258,39.319081
"1200  SHELLBANKS RD","BALTIMORE","ICYCONDI","TRM-Snow/Icy Conditions","2015-02-21T21:38:03.000","2015-02-22T21:38:03.000","CHERRY HILL","15-00131474","MD","CLOSED","2015-02-22T02:23:36.000","21225","Storm Center","Abated - Close SR","2015-02-22T02:23:00.000",2,-76.6309946,39.2500723
"1700  SPENCE ST","BALTIMORE","ICYCONDI","TRM-Snow/Icy Conditions","2015-02-21T21:35:16.000","2015-02-22T21:35:16.000","MORRELL PARK","15-00131468","MD","CLOSED","2015-02-22T09:30:36.000","21230","Dispatch Work Crew","Abated - Close SR","2015-02-22T09:30:00.000",2,-76.652486,39.269474
"4200  HECKEL AVE","BALTIMORE","ICYCONDI","TRM-Snow/Icy Conditions","2015-02-21T21:35:01.000","2015-02-22T21:35:01.000","ARCADIA","15-00131466","MD","CLOSED","2015-02-22T14:37:53.000","21214","Dispatch Work Crew","Abated - Close SR","2015-02-22T14:37:00.000",2,-76.5693075,39.3319415
"2400  HERKIMER ST","BALTIMORE","ICYCONDI","TRM-Snow/Icy Conditions","2015-02-21T21:34:20.000","2015-02-22T21:34:20.000","MORRELL PARK","15-00131462","MD","CLOSED","2015-02-22T09:29:32.000","21230","Dispatch Work Crew","Abated - Close SR","2015-02-22T09:29:00.000",2,-76.6523769,39.2697823
"1700  SEXTON ST","BALTIMORE","ICYCONDI","TRM-Snow/Icy Conditions","2015-02-21T21:33:19.000","2015-02-22T21:33:19.000","MORRELL PARK","15-00131458","MD","CLOSED","2015-02-22T09:22:29.000","21230","Dispatch Work Crew","Abated - Close SR","2015-02-22T09:22:00.000",2,-76.6532205,39.2690455
"3900  CARLISLE AVE","BALTIMORE","ICYCONDI","TRM-Snow/Icy Conditions","2015-02-21T21:30:03.000","2015-02-22T21:30:03.000","WINDSOR HILLS","15-00131452","MD","CLOSED","2015-02-22T19:44:13.000","21216",NA,NA,NA,2,-76.6831629,39.319285
"3500  EDMONDSON AVE","BALTIMORE","ICYCONDI","TRM-Snow/Icy Conditions","2015-02-21T21:29:42.000","2015-02-22T21:29:42.000","EDMONDSON VILLAGE","15-00131450","MD","CLOSED","2015-02-22T19:14:28.000","21229",NA,NA,NA,2,-76.675843,39.2943489
