"activity","address","city","code","codedescription","createddate","duedate","neighborhood","outcome","servicerequestnum","state","status","statusdate","updateddate","zip","i","lon","lat"
"Repair Pothole","3726  HICKORY AVE","BALTIMORE CITY","TRMPICKU","TRM-Pickup Potholes","2014-09-19T19:17:37.000","2014-09-19T19:17:37.000","HAMPDEN","Repair Completed","14-00710213","MD","CLOSED","2014-09-19T19:17:37.000","2014-09-19T19:17:37.000","21211",3,-76.634661,39.333326
"Repair Pothole","2700  ULMAN AVE","BALTIMORE CITY","TRMPICKU","TRM-Pickup Potholes","2014-09-19T19:14:42.000","2014-09-19T19:14:42.000","PARK CIRCLE","Repair Completed","14-00710198","MD","CLOSED","2014-09-19T19:14:42.000","2014-09-19T19:14:42.000","21215",3,-76.6589909,39.3294365
"Repair Pothole","4200 N CHARLES ST","BALTIMORE CITY","TRMPICKU","TRM-Pickup Potholes","2014-09-19T19:11:35.000","2014-09-19T19:11:35.000","TUSCANY-CANTERBURY","Repair Completed","14-00710176","MD","CLOSED","2014-09-19T19:11:35.000","2014-09-19T19:11:35.000","21218",3,-76.6183828,39.3390836
"Repair Pothole","4300 N CHARLES ST","BALTIMORE CITY","TRMPICKU","TRM-Pickup Potholes","2014-09-19T19:11:12.000","2014-09-19T19:11:12.000","GUILFORD","Repair Completed","14-00710171","MD","CLOSED","2014-09-19T19:11:12.000","2014-09-19T19:11:12.000","21210",3,-76.621557,39.339491
"Repair Pothole","1 N CHARLES ST","BALTIMORE CITY","TRMPICKU","TRM-Pickup Potholes","2014-09-19T19:10:26.000","2014-09-19T19:10:26.000","DOWNTOWN","Repair Completed","14-00710165","MD","CLOSED","2014-09-19T19:10:26.000","2014-09-19T19:10:26.000","21201",3,-76.6147658,39.2901386
"Repair Pothole","2200  RUSKIN AVE","BALTIMORE CITY","TRMPICKU","TRM-Pickup Potholes","2014-09-19T19:08:13.000","2014-09-19T19:08:13.000","PARKVIEW/WOODBROOK","Repair Completed","14-00710152","MD","CLOSED","2014-09-19T19:08:13.000","2014-09-19T19:08:13.000","21217",3,-76.647952,39.3151612
"Repair Pothole","2200  RUSKIN AVE","BALTIMORE CITY","TRMPICKU","TRM-Pickup Potholes","2014-09-19T19:07:11.000","2014-09-19T19:07:11.000","PARKVIEW/WOODBROOK","Repair Completed","14-00710147","MD","CLOSED","2014-09-19T19:07:11.000","2014-09-19T19:07:11.000","21217",3,-76.647952,39.3151612
"Repair Pothole","4600  PIMLICO RD","BALTIMORE CITY","TRMPICKU","TRM-Pickup Potholes","2014-09-19T13:51:50.000","2014-09-19T13:51:50.000","PARKLANE","Repair Completed","14-00708671","MD","CLOSED","2014-09-19T13:51:50.000","2014-09-19T13:51:50.000","21215",3,-76.667592,39.34319
"Repair Pothole","5100  DENMORE AVE","BALTIMORE CITY","TRMPICKU","TRM-Pickup Potholes","2014-09-19T13:51:28.000","2014-09-19T13:51:28.000","CENTRAL PARK HEIGHTS","Repair Completed","14-00708665","MD","CLOSED","2014-09-19T13:51:28.000","2014-09-19T13:51:28.000","21215",3,-76.676463,39.347599
"Repair Pothole","4700  PIMLICO RD","BALTIMORE CITY","TRMPICKU","TRM-Pickup Potholes","2014-09-19T13:50:37.000","2014-09-19T13:50:37.000","CYLBURN","Repair Completed","14-00708658","MD","CLOSED","2014-09-19T13:50:37.000","2014-09-19T13:50:37.000","21215",3,-76.66879,39.345346
"Repair Pothole","4900  ELMER AVE","BALTIMORE CITY","TRMPICKU","TRM-Pickup Potholes","2014-09-19T13:49:48.000","2014-09-19T13:49:48.000","CENTRAL PARK HEIGHTS","Repair Completed","14-00708651","MD","CLOSED","2014-09-19T13:49:48.000","2014-09-19T13:49:48.000","21215",3,-76.676286,39.3454271
"Repair Pothole","3000  WOODLAND AVE","BALTIMORE CITY","TRMPICKU","TRM-Pickup Potholes","2014-09-19T13:48:32.000","2014-09-19T13:48:32.000","CENTRAL PARK HEIGHTS","Repair Completed","14-00708641","MD","CLOSED","2014-09-19T13:48:32.000","2014-09-19T13:48:32.000","21215",3,-76.669122,39.346724
"Repair Pothole","2900  NORFOLK AVE","BALTIMORE CITY","TRMPICKU","TRM-Pickup Potholes","2014-09-19T13:47:18.000","2014-09-19T13:47:18.000","PARK CIRCLE","Repair Completed","14-00708631","MD","CLOSED","2014-09-19T13:47:18.000","2014-09-19T13:47:18.000","21215",3,-76.661088,39.327929
"Repair Pothole","2500  LIBERTY HEIGHTS AVE","BALTIMORE CITY","TRMPICKU","TRM-Pickup Potholes","2014-09-19T13:46:06.000","2014-09-19T13:46:06.000","BURLEITH-LEIGHTON","Repair Completed","14-00708622","MD","CLOSED","2014-09-19T13:46:06.000","2014-09-19T13:46:06.000","21215",3,-76.6556601,39.3197533
"Repair Pothole","5000  REISTERSTOWN RD","BALTIMORE CITY","TRMPICKU","TRM-Pickup Potholes","2014-09-19T13:45:15.000","2014-09-19T13:45:15.000","LANGSTON HUGHES","Repair Completed","14-00708613","MD","CLOSED","2014-09-19T13:45:15.000","2014-09-19T13:45:15.000","21215",3,-76.6794077,39.3419594
"Repair Pothole","600 W 33RD ST","BALTIMORE CITY","TRMPICKU","TRM-Pickup Potholes","2014-09-19T13:44:22.000","2014-09-19T13:44:22.000","HAMPDEN","Repair Completed","14-00708605","MD","CLOSED","2014-09-19T13:44:22.000","2014-09-19T13:44:22.000","21211",3,-76.626649,39.327338
"Repair Pothole","300 W 28TH ST","BALTIMORE CITY","TRMPICKU","TRM-Pickup Potholes","2014-09-19T13:42:53.000","2014-09-19T13:42:53.000","REMINGTON","Repair Completed","14-00708595","MD","CLOSED","2014-09-19T13:42:53.000","2014-09-19T13:42:53.000","21211",3,-76.621896,39.321215
"Repair Pothole","4500  WHITE OAK AVE","BALTIMORE CITY","TRMPICKU","TRM-Pickup Potholes","2014-09-18T16:30:37.000","2014-09-18T16:30:37.000","DOLFIELD","Repair Completed","14-00706174","MD","CLOSED","2014-09-18T16:36:34.000","2014-09-18T16:35:00.000","21215",3,-76.681599,39.338271
"Repair Pothole","3900  DOLFIELD AVE","BALTIMORE CITY","TRMPICKU","TRM-Pickup Potholes","2014-09-18T16:28:26.000","2014-09-18T16:28:26.000","DOLFIELD","Repair Completed","14-00706158","MD","CLOSED","2014-09-18T16:29:47.000","2014-09-18T16:29:00.000","21215",3,-76.681152,39.339692
"Repair Pothole","5300  PREAKNESS WAY","BALTIMORE CITY","TRMPICKU","TRM-Pickup Potholes","2014-09-18T16:25:01.000","2014-09-18T16:25:01.000","PIMLICO GOOD NEIGHBORS","Repair Completed","14-00706142","MD","CLOSED","2014-09-18T16:26:26.000","2014-09-18T16:25:00.000","21209",3,-76.6680578,39.354702
"Repair Pothole","2600 W BELVEDERE AVE","BALTIMORE CITY","TRMPICKU","TRM-Pickup Potholes","2014-09-18T16:22:52.000","2014-09-18T16:22:52.000","LEVINDALE","Repair Completed","14-00706130","MD","CLOSED","2014-09-18T16:24:09.000","2014-09-18T16:23:00.000","21215",3,-76.6671122,39.3528706
"Repair Pothole","1100  WELDON AVE","BALTIMORE CITY","TRMPICKU","TRM-Pickup Potholes","2014-09-18T16:20:20.000","2014-09-18T16:20:20.000","HOES HEIGHTS","Repair Completed","14-00706110","MD","CLOSED","2014-09-18T16:21:44.000","2014-09-18T16:20:00.000","21211",3,-76.636861,39.338729
"Repair Pothole","3200 W BELVEDERE AVE","BALTIMORE CITY","TRMPICKU","TRM-Pickup Potholes","2014-09-18T16:16:35.000","2014-09-18T16:16:35.000","ARLINGTON","Repair Completed","14-00706088","MD","CLOSED","2014-09-18T16:18:42.000","2014-09-18T16:18:00.000","21215",3,-76.6765613,39.3487939
"Repair Pothole","3300  LIBERTY HEIGHTS AVE","BALTIMORE CITY","TRMPICKU","TRM-Pickup Potholes","2014-09-18T15:59:35.000","2014-09-18T15:59:35.000","FOREST PARK","Repair Completed","14-00705965","MD","CLOSED","2014-09-18T16:00:49.000","2014-09-18T15:59:00.000","21215",3,-76.671577,39.324525
"Repair Pothole","5400  REISTERSTOWN RD","BALTIMORE CITY","TRMPICKU","TRM-Pickup Potholes","2014-09-18T15:57:31.000","2014-09-18T15:57:31.000","WOODMERE","Repair Completed","14-00705954","MD","CLOSED","2014-09-18T15:58:46.000","2014-09-18T15:57:00.000","21215",3,-76.688334,39.346023
"Repair Pothole","2800  OAKFORD AVE","BALTIMORE CITY","TRMPICKU","TRM-Pickup Potholes","2014-09-18T15:55:43.000","2014-09-18T15:55:43.000","PARKLANE","Repair Completed","14-00705942","MD","CLOSED","2014-09-18T15:56:43.000","2014-09-18T15:56:00.000","21215",3,-76.661175,39.340868
"Repair Pothole","3400  COPLEY RD","BALTIMORE CITY","TRMPICKU","TRM-Pickup Potholes","2014-09-18T15:53:32.000","2014-09-18T15:53:32.000","ASHBURTON","Repair Completed","14-00705924","MD","CLOSED","2014-09-18T15:54:53.000","2014-09-18T15:54:00.000","21215",3,-76.6776793,39.3266093
"Repair Pothole","5500  REISTERSTOWN RD","BALTIMORE CITY","TRMPICKU","TRM-Pickup Potholes","2014-09-18T15:49:47.000","2014-09-18T15:49:47.000","WOODMERE","Repair Completed","14-00705890","MD","CLOSED","2014-09-18T15:51:14.000","2014-09-18T15:50:00.000","21215",3,-76.690658,39.347599
"Repair Pothole","2700  HILLDALE AVE","BALTIMORE CITY","TRMPICKU","TRM-Pickup Potholes","2014-09-18T15:48:06.000","2014-09-18T15:48:06.000","PARK CIRCLE","Repair Completed","14-00705875","MD","CLOSED","2014-09-18T15:48:56.000","2014-09-18T15:48:00.000","21215",3,-76.65889,39.328134
"Repair Pothole","4602  BELVIEU AVE","BALTIMORE CITY","TRMPICKU","TRM-Pickup Potholes","2014-09-18T15:45:45.000","2014-09-18T15:45:45.000","HOWARD PARK","Repair Completed","14-00705862","MD","CLOSED","2014-09-18T15:47:01.000","2014-09-18T15:46:00.000","21207",3,-76.698125,39.338785
"Repair Pothole","4240  REISTERSTOWN RD","BALTIMORE CITY","TRMPICKU","TRM-Pickup Potholes","2014-09-18T15:42:41.000","2014-09-18T15:42:41.000","TOWANDA-GRANTLEY","Repair Completed","14-00705840","MD","CLOSED","2014-09-18T15:43:52.000","2014-09-18T15:43:00.000","21215",3,-76.6668643,39.3370304
"Repair Pothole","4300  REISTERSTOWN RD","BALTIMORE CITY","TRMPICKU","TRM-Pickup Potholes","2014-09-18T15:39:19.000","2014-09-18T15:39:19.000","CENTRAL PARK HEIGHTS","Repair Completed","14-00705823","MD","CLOSED","2014-09-18T15:40:17.000","2014-09-18T15:39:00.000","21215",3,-76.6674029,39.3375
"Repair Pothole","3700  MILFORD AVE","BALTIMORE CITY","TRMPICKU","TRM-Pickup Potholes","2014-09-18T15:37:09.000","2014-09-18T15:37:09.000","HOWARD PARK","Repair Completed","14-00705814","MD","CLOSED","2014-09-18T15:38:24.000","2014-09-18T15:37:00.000","21207",3,-76.699401,39.334693
"Repair Pothole","3900  DOLFIELD AVE","BALTIMORE CITY","TRMPICKU","TRM-Pickup Potholes","2014-09-18T15:34:03.000","2014-09-18T15:34:03.000","DOLFIELD","Repair Completed","14-00705800","MD","CLOSED","2014-09-18T15:36:16.000","2014-09-18T15:34:00.000","21215",3,-76.681152,39.339692
"Repair Pothole","2200 N FULTON AVE","BALTIMORE CITY","TRMPICKU","TRM-Pickup Potholes","2014-09-18T15:31:46.000","2014-09-18T15:31:46.000","PARKVIEW/WOODBROOK","Repair Completed","14-00705790","MD","CLOSED","2014-09-18T15:32:51.000","2014-09-18T15:32:00.000","21217",3,-76.6463012,39.3134595
"Repair Pothole","2575 W COLD SPRING LN","BALTIMORE CITY","TRMPICKU","TRM-Pickup Potholes","2014-09-18T15:28:40.000","2014-09-18T15:28:40.000","PARKLANE","Repair Completed","14-00705767","MD","CLOSED","2014-09-18T15:29:43.000","2014-09-18T15:29:00.000","21215",3,-76.6646935,39.3405909
"Repair Pothole","4800  WILMSLOW RD","BALTIMORE CITY","TRMPICKU","TRM-Pickup Potholes","2014-09-18T15:25:42.000","2014-09-18T15:25:42.000","ROLAND PARK","Repair Completed","14-00705742","MD","CLOSED","2014-09-18T15:27:25.000","2014-09-18T15:26:00.000","21210",3,-76.629357,39.350834
"Repair Pothole","4300  GROVELAND AVE","BALTIMORE CITY","TRMPICKU","TRM-Pickup Potholes","2014-09-18T15:10:43.000","2014-09-18T15:10:43.000","WEST ARLINGTON","Repair Completed","14-00705659","MD","CLOSED","2014-09-18T15:12:13.000","2014-09-18T15:11:00.000","21215",3,-76.691899,39.341033
"Repair Pothole","106  ELMWOOD RD","BALTIMORE CITY","TRMPICKU","TRM-Pickup Potholes","2014-09-18T15:07:29.000","2014-09-18T15:07:29.000","ROLAND PARK","Repair Completed","14-00705641","MD","CLOSED","2014-09-18T15:08:38.000","2014-09-18T15:07:00.000","21210",3,-76.643033,39.35554
"Repair Pothole","2800  SPRINGHILL AVE","BALTIMORE CITY","TRMPICKU","TRM-Pickup Potholes","2014-09-18T15:00:52.000","2014-09-18T15:00:52.000","PARK CIRCLE","Repair Completed","14-00705604","MD","CLOSED","2014-09-18T15:03:43.000","2014-09-18T15:02:00.000","21215",3,-76.662923,39.33134
"Repair Pothole","2600  WOODBROOK AVE","BALTIMORE CITY","TRMPICKU","TRM-Pickup Potholes","2014-09-18T14:51:01.000","2014-09-18T14:51:01.000","PENN NORTH","Repair Completed","14-00705557","MD","CLOSED","2014-09-18T14:52:07.000","2014-09-18T14:51:00.000","21217",3,-76.6444384,39.3131949
"Repair Pothole","2800  HILLDALE AVE","BALTIMORE CITY","TRMPICKU","TRM-Pickup Potholes","2014-09-18T14:47:20.000","2014-09-18T14:47:20.000","PARK CIRCLE","Repair Completed","14-00705532","MD","CLOSED","2014-09-18T14:48:21.000","2014-09-18T14:47:00.000","21215",3,-76.659965,39.327626
"Repair Pothole","2800  BOARMAN AVE","BALTIMORE CITY","TRMPICKU","TRM-Pickup Potholes","2014-09-18T14:44:27.000","2014-09-18T14:44:27.000","TOWANDA-GRANTLEY","Repair Completed","14-00705517","MD","CLOSED","2014-09-18T14:45:49.000","2014-09-18T14:45:00.000","21215",3,-76.6678955,39.3380777
"Repair Pothole","200  OVERHILL RD","BALTIMORE CITY","TRMPICKU","TRM-Pickup Potholes","2014-09-18T14:40:51.000","2014-09-18T14:40:51.000","GUILFORD","Repair Completed","14-00705500","MD","CLOSED","2014-09-18T14:42:37.000","2014-09-18T14:41:00.000","21210",3,-76.6261779,39.3416021
"Repair Pothole","500  HURLEY AVE","BALTIMORE CITY","TRMPICKU","TRM-Pickup Potholes","2014-09-18T12:36:58.000","2014-09-18T12:36:58.000","GWYNNS FALLS","Repair Completed","14-00704780","MD","CLOSED","2014-09-18T12:36:58.000","2014-09-18T12:36:58.000","21223",3,-76.6639968,39.2778979
"Repair Pothole","3000  STAFFORD ST","BALTIMORE CITY","TRMPICKU","TRM-Pickup Potholes","2014-09-18T12:44:35.000","2014-09-18T12:44:35.000","GWYNNS FALLS","Repair Completed","14-00704823","MD","CLOSED","2014-09-18T12:44:35.000","2014-09-18T12:44:35.000","21229",3,-76.6667014,39.2791739
"Repair Pothole","500  PARKSLEY AVE","BALTIMORE CITY","TRMPICKU","TRM-Pickup Potholes","2014-09-18T12:40:32.000","2014-09-18T12:40:32.000","GWYNNS FALLS","Repair Completed","14-00704795","MD","CLOSED","2014-09-18T12:40:32.000","2014-09-18T12:40:32.000","21223",3,-76.665907,39.278855
"Repair Pothole","WILKENS AVE & MILLINGTON AVE","BALTIMORE CITY","TRMPICKU","TRM-Pickup Potholes","2014-09-18T12:35:37.000","2014-09-18T12:35:37.000","MILLHILL","Repair Completed","14-00704771","MD","CLOSED","2014-09-18T12:35:37.000","2014-09-18T12:35:37.000","21223",3,-76.6587005,39.2780873
"Repair Pothole","400  ANNABEL AVE","BALTIMORE CITY","TRMPICKU","TRM-Pickup Potholes","2014-09-18T12:32:54.000","2014-09-18T12:32:54.000","BROOKLYN","Repair Completed","14-00704757","MD","CLOSED","2014-09-18T12:32:54.000","2014-09-18T12:32:54.000","21225",3,-76.6041981,39.2381265
"Repair Pothole","700  MOSHER ST","BALTIMORE CITY","TRMPICKU","TRM-Pickup Potholes","2014-09-18T12:14:04.000","2014-09-18T12:14:04.000","UPTON","Repair Completed","14-00704657","MD","CLOSED","2014-09-18T12:14:04.000","2014-09-18T12:14:04.000","21217",3,-76.6345337,39.3005892
"Repair Pothole","1400 N FREMONT AVE","BALTIMORE CITY","TRMPICKU","TRM-Pickup Potholes","2014-09-18T12:07:43.000","2014-09-18T12:07:43.000","UPTON","Repair Completed","14-00704625","MD","CLOSED","2014-09-18T12:07:43.000","2014-09-18T12:07:43.000","21217",3,-76.6377875,39.3051341
"Repair Pothole","1200 N CAREY ST","BALTIMORE CITY","TRMPICKU","TRM-Pickup Potholes","2014-09-18T12:07:04.000","2014-09-18T12:07:04.000","SANDTOWN-WINCHESTER","Repair Completed","14-00704619","MD","CLOSED","2014-09-18T12:07:04.000","2014-09-18T12:07:04.000","21217",3,-76.639155,39.302596
"Repair Pothole","2000  MCHENRY ST","BALTIMORE CITY","TRMPICKU","TRM-Pickup Potholes","2014-09-18T12:05:57.000","2014-09-18T12:05:57.000","CARROLLTON RIDGE","Repair Completed","14-00704616","MD","CLOSED","2014-09-18T12:05:57.000","2014-09-18T12:05:57.000","21223",3,-76.6488768,39.2843358
"Repair Pothole","1900  RAMSAY ST","BALTIMORE CITY","TRMPICKU","TRM-Pickup Potholes","2014-09-18T12:03:46.000","2014-09-18T12:03:46.000","CARROLLTON RIDGE","Repair Completed","14-00704607","MD","CLOSED","2014-09-18T12:03:46.000","2014-09-18T12:03:46.000","21223",3,-76.64718,39.2833043
"Repair Pothole","1900 W LOMBARD ST","BALTIMORE CITY","TRMPICKU","TRM-Pickup Potholes","2014-09-18T12:02:27.000","2014-09-18T12:02:27.000","CARROLLTON RIDGE","Repair Completed","14-00704604","MD","CLOSED","2014-09-18T12:02:27.000","2014-09-18T12:02:27.000","21223",3,-76.646968,39.286328
"Repair Pothole","PRESSTMAN ST &N SMALLWOOD ST","BALTIMORE CITY","TRMPICKU","TRM-Pickup Potholes","2014-09-18T11:56:01.000","2014-09-18T11:56:01.000","COPPIN HEIGHTS/ASH-CO-EAST","Repair Completed","14-00704586","MD","CLOSED","2014-09-18T11:56:01.000","2014-09-18T11:59:03.000","21216",3,-76.6426087,39.3054092
"Repair Pothole","N HOWARD ST &W BALTIMORE ST","BALTIMORE CITY","TRMPICKU","TRM-Pickup Potholes","2014-09-18T11:55:20.000","2014-09-18T11:55:20.000","DOWNTOWN","Repair Completed","14-00704580","MD","CLOSED","2014-09-18T11:55:20.000","2014-09-18T11:59:06.000","21201",3,-82.1996942,35.180609
"Repair Pothole","1134  SHIELDS PL","BALTIMORE CITY","TRMPICKU","TRM-Pickup Potholes","2014-09-18T11:54:16.000","2014-09-18T11:54:16.000","UPTON","Repair Completed","14-00704577","MD","CLOSED","2014-09-18T11:54:16.000","2014-09-18T11:58:43.000","21201",3,-76.6306629,39.2979952
"Repair Pothole","1700  HOLLINS ST","BALTIMORE CITY","TRMPICKU","TRM-Pickup Potholes","2014-09-18T11:50:11.000","2014-09-18T11:50:11.000","UNION SQUARE","Repair Completed","14-00704563","MD","CLOSED","2014-09-18T11:50:11.000","2014-09-18T11:50:11.000","21223",3,-76.643892,39.2874955
"Repair Pothole","1600 W FAYETTE ST","BALTIMORE CITY","TRMPICKU","TRM-Pickup Potholes","2014-09-18T11:49:35.000","2014-09-18T11:49:35.000","FRANKLIN SQUARE","Repair Completed","14-00704560","MD","CLOSED","2014-09-18T11:49:35.000","2014-09-18T11:49:35.000","21223",3,-76.642631,39.289821
"Repair Pothole","PENROSE AVE","BALTIMORE CITY","TRMPICKU","TRM-Pickup Potholes","2014-09-18T11:48:21.000","2014-09-18T11:48:21.000","PENROSE/FAYETTE STREET OUTREACH","Repair Completed","14-00704552","MD","CLOSED","2014-09-18T11:48:21.000","2014-09-18T11:48:21.000","21223",3,-76.6470905,39.2912943
"Repair Pothole","1900 W SARATOGA ST","BALTIMORE CITY","TRMPICKU","TRM-Pickup Potholes","2014-09-18T11:47:17.000","2014-09-18T11:47:17.000","PENROSE/FAYETTE STREET OUTREACH","Repair Completed","14-00704545","MD","CLOSED","2014-09-18T11:47:17.000","2014-09-18T11:47:17.000","21223",3,-76.647618,39.292183
"Repair Pothole","500 E PONTIAC AVE","BALTIMORE CITY","TRMPICKU","TRM-Pickup Potholes","2014-09-18T11:46:07.000","2014-09-18T11:46:07.000","BROOKLYN","Repair Completed","14-00704540","MD","CLOSED","2014-09-18T11:46:07.000","2014-09-18T11:46:07.000","21225",3,-76.6040478,39.2359401
"Repair Pothole","2400  EDMONDSON AVE","BALTIMORE CITY","TRMPICKU","TRM-Pickup Potholes","2014-09-18T11:45:19.000","2014-09-18T11:45:19.000","ROSEMONT HOMEOWNERS/TENANTS","Repair Completed","14-00704535","MD","CLOSED","2014-09-18T11:45:19.000","2014-09-18T11:45:19.000","21223",3,-76.65495,39.29504
"Repair Pothole","1300 N LONGWOOD ST","BALTIMORE CITY","TRMPICKU","TRM-Pickup Potholes","2014-09-18T11:43:47.000","2014-09-18T11:43:47.000","ROSEMONT","Repair Completed","14-00704528","MD","CLOSED","2014-09-18T11:43:47.000","2014-09-18T11:43:47.000","21216",3,-76.6674589,39.30262
"Repair Pothole","N PULASKI ST &W BALTIMORE ST","BALTIMORE CITY","TRMPICKU","TRM-Pickup Potholes","2014-09-17T14:07:43.000","2014-09-17T14:07:43.000","BOOTH-BOYD","Repair Completed","14-00701944","MD","CLOSED","2014-09-17T14:07:43.000","2014-09-17T14:07:43.000","21223",3,-87.4437384,41.6425383
"Repair Pothole","4100 N ROGERS AVE","BALTIMORE CITY","TRMPICKU","TRM-Pickup Potholes","2014-09-16T18:13:30.000","2014-09-16T18:13:30.000","HOWARD PARK","Repair Completed","14-00699757","MD","CLOSED","2014-09-16T18:13:30.000","2014-09-16T18:13:30.000","21207",3,-76.69854,39.339823
"Repair Pothole","2100  WINDSOR AVE","BALTIMORE CITY","TRMPICKU","TRM-Pickup Potholes","2014-09-16T18:13:13.000","2014-09-16T18:13:13.000","MONDAWMIN","Repair Completed","14-00699753","MD","CLOSED","2014-09-16T18:13:13.000","2014-09-16T18:13:13.000","21217",3,-76.6514987,39.3128987
"Repair Pothole","2128 N PULASKI ST","BALTIMORE CITY","TRMPICKU","TRM-Pickup Potholes","2014-09-16T18:12:33.000","2014-09-16T18:12:33.000","MONDAWMIN","Repair Completed","14-00699750","MD","CLOSED","2014-09-16T18:12:33.000","2014-09-16T18:12:33.000","21217",3,-76.651757,39.312689
"Repair Pothole","3612  BAYONNE AVE","BALTIMORE CITY","TRMPICKU","TRM-Pickup Potholes","2014-09-16T18:09:22.000","2014-09-16T18:09:22.000","GLENHAM-BELFORD","Repair Completed","14-00699738","MD","CLOSED","2014-09-16T18:09:22.000","2014-09-16T18:09:22.000","21214",3,-76.550281,39.348759
"Repair Pothole","W LAFAYETTE AVE","BALTIMORE CITY","TRMPICKU","TRM-Pickup Potholes","2014-09-16T14:14:36.000","2014-09-16T14:14:36.000","SANDTOWN-WINCHESTER","Repair Completed","14-00698452","MD","CLOSED","2014-09-16T14:14:36.000","2014-09-16T14:14:36.000","21217",3,-76.6425865,39.2989137
"Repair Pothole","1245  UNION AVE","BALTIMORE CITY","TRMPICKU","TRM-Pickup Potholes","2014-09-16T14:13:52.000","2014-09-16T14:13:52.000","HAMPDEN","Repair Completed","14-00698444","MD","CLOSED","2014-09-16T14:13:52.000","2014-09-16T14:13:52.000","21211",3,-76.637156,39.332697
"Repair Pothole","2200 W NORTH AVE","BALTIMORE CITY","TRMPICKU","TRM-Pickup Potholes","2014-09-16T14:10:48.000","2014-09-16T14:10:48.000","MONDAWMIN","Repair Completed","14-00698426","MD","CLOSED","2014-09-16T14:10:48.000","2014-09-16T14:10:48.000","21216",3,-76.6528639,39.3099429
"Repair Pothole","100 W LAFAYETTE AVE","BALTIMORE CITY","TRMPICKU","TRM-Pickup Potholes","2014-09-16T14:10:01.000","2014-09-16T14:10:01.000","BOLTON HILL","Repair Completed","14-00698421","MD","CLOSED","2014-09-16T14:10:01.000","2014-09-16T14:10:01.000","21217",3,-76.6225672,39.3079668
"Repair Pothole","3200  SPAULDING AVE","BALTIMORE CITY","TRMPICKU","TRM-Pickup Potholes","2014-09-16T14:09:00.000","2014-09-16T14:09:00.000","CENTRAL PARK HEIGHTS","Repair Completed","14-00698413","MD","CLOSED","2014-09-16T14:09:00.000","2014-09-16T14:09:00.000","21215",3,-76.6747502,39.3483867
"Repair Pothole","3100  GARRISON BLVD","BALTIMORE CITY","TRMPICKU","TRM-Pickup Potholes","2014-09-16T14:08:23.000","2014-09-16T14:08:23.000","FOREST PARK","Repair Completed","14-00698410","MD","CLOSED","2014-09-16T14:08:23.000","2014-09-16T14:08:23.000","21216",3,-76.6814629,39.323323
"Repair Pothole","1900 W NORTH AVE","BALTIMORE CITY","TRMPICKU","TRM-Pickup Potholes","2014-09-16T14:07:30.000","2014-09-16T14:07:30.000","MONDAWMIN","Repair Completed","14-00698402","MD","CLOSED","2014-09-16T14:07:30.000","2014-09-16T14:07:30.000","21217",3,-76.6482806,39.3100225
"Repair Pothole","500 W NORTH AVE","BALTIMORE CITY","TRMPICKU","TRM-Pickup Potholes","2014-09-16T14:06:29.000","2014-09-16T14:06:29.000","BOLTON HILL","Repair Completed","14-00698395","MD","CLOSED","2014-09-16T14:06:29.000","2014-09-16T14:06:29.000","21217",3,-76.6228833,39.3109718
"Repair Pothole","2500  WHITNEY AVE","BALTIMORE CITY","TRMPICKU","TRM-Pickup Potholes","2014-09-16T14:04:39.000","2014-09-16T14:04:39.000","MOUNT WASHINGTON","Repair Completed","14-00698388","MD","CLOSED","2014-09-16T14:04:39.000","2014-09-16T14:04:39.000","21209",3,-76.672291,39.359864
"Repair Pothole","2000  KELLY AVE","BALTIMORE CITY","TRMPICKU","TRM-Pickup Potholes","2014-09-16T14:03:38.000","2014-09-16T14:03:38.000","MOUNT WASHINGTON","Repair Completed","14-00698381","MD","CLOSED","2014-09-16T14:03:38.000","2014-09-16T14:03:38.000","21209",3,-76.6604684,39.3665897
"Repair Pothole","6300  PIMLICO RD","BALTIMORE CITY","TRMPICKU","TRM-Pickup Potholes","2014-09-16T14:02:35.000","2014-09-16T14:02:35.000","CHESWOLDE","Repair Completed","14-00698373","MD","CLOSED","2014-09-16T14:02:35.000","2014-09-16T14:02:35.000","21209",3,-76.678189,39.370714
"Repair Pothole","6200  PIMLICO RD","BALTIMORE CITY","TRMPICKU","TRM-Pickup Potholes","2014-09-16T14:01:38.000","2014-09-16T14:01:38.000","CHESWOLDE","Repair Completed","14-00698369","MD","CLOSED","2014-09-16T14:01:38.000","2014-09-16T14:01:38.000","21209",3,-76.677384,39.368659
"Repair Pothole","6100  PIMLICO RD","BALTIMORE CITY","TRMPICKU","TRM-Pickup Potholes","2014-09-16T14:01:05.000","2014-09-16T14:01:05.000","CHESWOLDE","Repair Completed","14-00698365","MD","CLOSED","2014-09-16T14:01:05.000","2014-09-16T14:01:05.000","21209",3,-76.676325,39.36765
"Repair Pothole","6500  BAYTHORNE RD","BALTIMORE CITY","TRMPICKU","TRM-Pickup Potholes","2014-09-16T14:00:21.000","2014-09-16T14:00:21.000","CHESWOLDE","Repair Completed","14-00698357","MD","CLOSED","2014-09-16T14:00:21.000","2014-09-16T14:00:21.000","21209",3,-76.6766729,39.371507
"Repair Pothole","5104  ELMER AVE","BALTIMORE CITY","TRMPICKU","TRM-Pickup Potholes","2014-09-16T13:59:34.000","2014-09-16T13:59:34.000","CENTRAL PARK HEIGHTS","Repair Completed","14-00698350","MD","CLOSED","2014-09-16T13:59:34.000","2014-09-16T13:59:34.000","21215",3,-76.678187,39.346856
"Repair Pothole","2215  WINDSOR AVE","BALTIMORE CITY","TRMPICKU","TRM-Pickup Potholes","2014-09-16T13:58:32.000","2014-09-16T13:58:32.000","MONDAWMIN","Repair Completed","14-00698340","MD","CLOSED","2014-09-16T13:58:32.000","2014-09-16T13:58:32.000","21216",3,-76.6538939,39.312488
"Repair Pothole","5100  PARKSIDE DR","BALTIMORE CITY","TRMPICKU","TRM-Pickup Potholes","2014-09-15T18:49:53.000","2014-09-15T18:49:53.000","LOWER HERRING RUN PARK","Repair Completed","14-00696432","MD","CLOSED","2014-09-15T18:49:53.000","2014-09-15T18:49:53.000","21206",3,-76.5547333,39.3195498
"Repair Pothole","900 E 25TH ST","BALTIMORE CITY","TRMPICKU","TRM-Pickup Potholes","2014-09-12T18:39:16.000","2014-09-12T18:39:16.000","COLDSTREAM HOMESTEAD MONTEBELLO","Repair Completed","14-00690668","MD","CLOSED","2014-09-12T18:39:16.000","2014-09-12T18:39:16.000","21218",3,-76.6009794,39.3182733
"Repair Pothole","5900  FALKIRK RD","BALTIMORE CITY","TRMPICKU","TRM-Pickup Potholes","2014-09-12T18:19:11.000","2014-09-12T18:19:11.000","RAMBLEWOOD","Repair Completed","14-00690577","MD","CLOSED","2014-09-12T18:19:11.000","2014-09-12T18:19:11.000","21239",3,-76.588714,39.363141
"Repair Pothole","2 N CHARLES ST","BALTIMORE CITY","TRMPICKU","TRM-Pickup Potholes","2014-09-12T13:49:49.000","2014-09-12T13:49:49.000","DOWNTOWN","Repair Completed","14-00689483","MD","CLOSED","2014-09-12T13:49:49.000","2014-09-12T13:49:49.000","21201",3,-76.615602,39.289807
"Repair Pothole","1800  EAGLE ST","BALTIMORE CITY","TRMPICKU","TRM-Pickup Potholes","2014-09-12T13:48:16.000","2014-09-12T13:48:16.000","CARROLLTON RIDGE","Repair Completed","14-00689475","MD","CLOSED","2014-09-12T13:48:16.000","2014-09-12T13:48:16.000","21223",3,-76.6448966,39.281205
"Repair Pothole","1700  RIGGS AVE","BALTIMORE CITY","TRMPICKU","TRM-Pickup Potholes","2014-09-12T13:44:47.000","2014-09-12T13:44:47.000","SANDTOWN-WINCHESTER","Repair Completed","14-00689448","MD","CLOSED","2014-09-12T13:44:47.000","2014-09-12T13:44:47.000","21217",3,-76.6444858,39.3010227
"Repair Pothole","900 N CAREY ST","BALTIMORE CITY","TRMPICKU","TRM-Pickup Potholes","2014-09-12T13:37:30.000","2014-09-12T13:37:30.000","SANDTOWN-WINCHESTER","Repair Completed","14-00689391","MD","CLOSED","2014-09-12T13:37:30.000","2014-09-12T13:37:30.000","21217",3,-76.6387259,39.2990871
"Repair Pothole","900 N FREMONT AVE","BALTIMORE CITY","TRMPICKU","TRM-Pickup Potholes","2014-09-12T13:33:18.000","2014-09-12T13:33:18.000","SANDTOWN-WINCHESTER","Repair Completed","14-00689368","MD","CLOSED","2014-09-12T13:33:18.000","2014-09-12T13:33:18.000","21217",3,-76.6347747,39.2996705
"Repair Pothole","1500  DRUID HILL AVE","BALTIMORE CITY","TRMPICKU","TRM-Pickup Potholes","2014-09-12T13:32:20.000","2014-09-12T13:32:20.000","UPTON","Repair Completed","14-00689363","MD","CLOSED","2014-09-12T13:32:20.000","2014-09-12T13:32:20.000","21217",3,-76.6309266,39.3035641
"Repair Pothole","W MADISON ST","BALTIMORE CITY","TRMPICKU","TRM-Pickup Potholes","2014-09-12T13:31:13.000","2014-09-12T13:31:13.000","SETON HILL","Repair Completed","14-00689357","MD","CLOSED","2014-09-12T13:31:13.000","2014-09-12T13:31:13.000","21201",3,-76.6192413,39.2984575
"Repair Pothole","1300  EUTAW PL","BALTIMORE CITY","TRMPICKU","TRM-Pickup Potholes","2014-09-12T13:23:35.000","2014-09-12T13:23:35.000","MADISON PARK","Repair Completed","14-00689325","MD","CLOSED","2014-09-12T13:23:35.000","2014-09-12T13:23:35.000","21217",3,-76.6265191,39.3037143
"Repair Pothole","100 W LAFAYETTE AVE","BALTIMORE CITY","TRMPICKU","TRM-Pickup Potholes","2014-09-12T13:18:07.000","2014-09-12T13:18:07.000","BOLTON HILL","Repair Completed","14-00689299","MD","CLOSED","2014-09-12T13:18:07.000","2014-09-12T13:18:07.000","21217",3,-76.6225672,39.3079668
"Repair Pothole","1400  PARK AVE","BALTIMORE CITY","TRMPICKU","TRM-Pickup Potholes","2014-09-12T13:16:52.000","2014-09-12T13:16:52.000","BOLTON HILL","Repair Completed","14-00689277","MD","CLOSED","2014-09-12T13:16:52.000","2014-09-12T13:16:52.000","21217",3,-76.624448,39.306775
"Repair Pothole","100  MOSHER ST","BALTIMORE CITY","TRMPICKU","TRM-Pickup Potholes","2014-09-12T13:15:45.000","2014-09-12T13:15:45.000","BOLTON HILL","Repair Completed","14-00689274","MD","CLOSED","2014-09-12T13:15:45.000","2014-09-12T13:15:45.000","21217",3,-76.6230947,39.3091103
"Repair Pothole","6TH ST &E JEFFREY ST","BALTIMORE CITY","TRMPICKU","TRM-Pickup Potholes","2014-09-12T13:00:50.000","2014-09-12T13:00:50.000","BROOKLYN","Repair Completed","14-00689206","MD","CLOSED","2014-09-12T13:00:50.000","2014-09-12T13:02:06.000","21225",3,-96.7819479,44.3114917
"Repair Pothole","5TH ST &E JEFFREY ST","BALTIMORE CITY","TRMPICKU","TRM-Pickup Potholes","2014-09-12T13:00:19.000","2014-09-12T13:00:19.000","BROOKLYN","Repair Completed","14-00689202","MD","CLOSED","2014-09-12T13:00:19.000","2014-09-12T13:01:20.000","21225",3,-92.0550546,45.4927084
"Repair Pothole","3900  5TH ST","BALTIMORE CITY","TRMPICKU","TRM-Pickup Potholes","2014-09-12T12:59:38.000","2014-09-12T12:59:38.000","BROOKLYN","Repair Completed","14-00689195","MD","CLOSED","2014-09-12T12:59:38.000","2014-09-12T12:59:38.000","21225",3,-76.605845,39.233599
"Repair Pothole","3800  5TH ST","BALTIMORE CITY","TRMPICKU","TRM-Pickup Potholes","2014-09-12T12:58:06.000","2014-09-12T12:58:06.000","BROOKLYN","Repair Completed","14-00689190","MD","CLOSED","2014-09-12T12:58:06.000","2014-09-12T12:58:06.000","21225",3,-76.6052629,39.2346519
"Repair Pothole","6TH ST &E JEFFREY ST","BALTIMORE CITY","TRMPICKU","TRM-Pickup Potholes","2014-09-12T12:57:19.000","2014-09-12T12:57:19.000","BROOKLYN","Repair Completed","14-00689186","MD","CLOSED","2014-09-12T12:57:19.000","2014-09-12T12:57:19.000","21225",3,-96.7819479,44.3114917
"Repair Pothole","600 N CAREY ST","BALTIMORE CITY","TRMPICKU","TRM-Pickup Potholes","2014-09-12T12:56:08.000","2014-09-12T12:56:08.000","HARLEM PARK","Repair Completed","14-00689182","MD","CLOSED","2014-09-12T12:56:08.000","2014-09-12T12:56:08.000","21217",3,-76.638786,39.295553
"Repair Pothole","1100  EDMONDSON AVE","BALTIMORE CITY","TRMPICKU","TRM-Pickup Potholes","2014-09-12T12:50:42.000","2014-09-12T12:50:42.000","HARLEM PARK","Repair Completed","14-00689164","MD","CLOSED","2014-09-12T12:50:42.000","2014-09-12T12:50:42.000","21223",3,-76.636397,39.296145
"Repair Pothole","2400  BAKER ST","BALTIMORE CITY","TRMPICKU","TRM-Pickup Potholes","2014-09-12T12:49:06.000","2014-09-12T12:49:06.000","COPPIN HEIGHTS/ASH-CO-EAST","Repair Completed","14-00689160","MD","CLOSED","2014-09-12T12:49:06.000","2014-09-12T12:49:06.000","21216",3,-76.65633,39.306503
"Repair Pothole","5000  BALTIMORE NATIONAL PIKE","BALTIMORE CITY","TRMPICKU","TRM-Pickup Potholes","2014-09-12T12:46:58.000","2014-09-12T12:46:58.000","WEST HILLS","Repair Completed","14-00689144","MD","CLOSED","2014-09-12T12:46:58.000","2014-09-12T12:47:51.000","21229",3,-76.7049569,39.2925169
"Repair Pothole","1700  PRESSTMAN ST","BALTIMORE CITY","TRMPICKU","TRM-Pickup Potholes","2014-09-12T12:45:41.000","2014-09-12T12:45:41.000","SANDTOWN-WINCHESTER","Repair Completed","14-00689138","MD","CLOSED","2014-09-12T12:45:41.000","2014-09-12T12:47:17.000","21217",3,-76.6448959,39.3054909
"Repair Pothole","1700  PRESSTMAN ST","BALTIMORE CITY","TRMPICKU","TRM-Pickup Potholes","2014-09-12T12:43:00.000","2014-09-12T12:43:00.000","SANDTOWN-WINCHESTER","Repair Completed","14-00689122","MD","CLOSED","2014-09-12T12:43:00.000","2014-09-12T12:47:15.000","21217",3,-76.6448959,39.3054909
"Repair Pothole","200 S ATHOL AVE","BALTIMORE CITY","TRMPICKU","TRM-Pickup Potholes","2014-09-12T12:42:09.000","2014-09-12T12:42:09.000","IRVINGTON","Repair Completed","14-00689119","MD","CLOSED","2014-09-12T12:42:09.000","2014-09-12T12:47:30.000","21229",3,-76.6886264,39.28295
"Repair Pothole","5111  BALTIMORE NATIONAL PIKE","BALTIMORE CITY","TRMPICKU","TRM-Pickup Potholes","2014-09-12T12:40:41.000","2014-09-12T12:40:41.000","WESTGATE","Repair Completed","14-00689112","MD","CLOSED","2014-09-12T12:40:41.000","2014-09-12T12:40:41.000","21229",3,-76.708966,39.291466
"Repair Pothole","1800  BAKER ST","BALTIMORE CITY","TRMPICKU","TRM-Pickup Potholes","2014-09-12T12:39:59.000","2014-09-12T12:39:59.000","SANDTOWN-WINCHESTER","Repair Completed","14-00689107","MD","CLOSED","2014-09-12T12:39:59.000","2014-09-12T12:39:59.000","21217",3,-76.6473005,39.3068032
"Repair Pothole","1300  SARGEANT ST","BALTIMORE CITY","TRMPICKU","TRM-Pickup Potholes","2014-09-12T12:38:46.000","2014-09-12T12:38:46.000","WASHINGTON VILLAGE","Repair Completed","14-00689096","MD","CLOSED","2014-09-12T12:38:46.000","2014-09-12T12:38:46.000","21223",3,-76.6362901,39.2808595
"Repair Pothole","1300  JAMES ST","BALTIMORE CITY","TRMPICKU","TRM-Pickup Potholes","2014-09-12T12:37:26.000","2014-09-12T12:37:26.000","WASHINGTON VILLAGE","Repair Completed","14-00689089","MD","CLOSED","2014-09-12T12:37:26.000","2014-09-12T12:37:55.000","21223",3,-76.6366029,39.2813997
"Repair Pothole","GLYNDON AVE","BALTIMORE CITY","TRMPICKU","TRM-Pickup Potholes","2014-09-12T12:36:23.000","2014-09-12T12:36:23.000","WASHINGTON VILLAGE","Repair Completed","14-00689081","MD","CLOSED","2014-09-12T12:36:23.000","2014-09-12T12:36:23.000","21223",3,-76.6368307,39.2817705
"Repair Pothole","200 N CAREY ST","BALTIMORE CITY","TRMPICKU","TRM-Pickup Potholes","2014-09-12T12:34:50.000","2014-09-12T12:34:50.000","FRANKLIN SQUARE","Repair Completed","14-00689071","MD","CLOSED","2014-09-12T12:34:50.000","2014-09-12T12:34:50.000","21223",3,-76.638326,39.2915864
"Repair Pothole","W FRANKLIN ST","BALTIMORE CITY","TRMPICKU","TRM-Pickup Potholes","2014-09-12T12:34:22.000","2014-09-12T12:34:22.000","HARLEM PARK","Repair Completed","14-00689065","MD","CLOSED","2014-09-12T12:34:22.000","2014-09-12T12:34:22.000","21223",3,-76.6405763,39.2940979
"Repair Pothole","600 S FREMONT AVE","BALTIMORE CITY","TRMPICKU","TRM-Pickup Potholes","2014-09-12T12:33:13.000","2014-09-12T12:33:13.000","RIDGELY'S DELIGHT","Repair Completed","14-00689055","MD","CLOSED","2014-09-12T12:33:13.000","2014-09-12T12:33:13.000","21230",3,-76.6253038,39.2826276
"Repair Pothole","500 W PRESTON ST","BALTIMORE CITY","TRMPICKU","TRM-Pickup Potholes","2014-09-12T12:32:43.000","2014-09-12T12:32:43.000","UPTON","Repair Completed","14-00689053","MD","CLOSED","2014-09-12T12:32:43.000","2014-09-12T12:32:43.000","21201",3,-76.6256254,39.2996215
"Repair Pothole","600  CUMBERLAND ST","BALTIMORE CITY","TRMPICKU","TRM-Pickup Potholes","2014-09-12T12:31:38.000","2014-09-12T12:31:38.000","SANDTOWN-WINCHESTER","Repair Completed","14-00689052","MD","CLOSED","2014-09-12T12:31:38.000","2014-09-12T12:31:38.000","21217",3,-76.6416623,39.3093283
"Repair Pothole","500  ROBERT ST","BALTIMORE CITY","TRMPICKU","TRM-Pickup Potholes","2014-09-12T12:30:55.000","2014-09-12T12:30:55.000","DRUID HEIGHTS","Repair Completed","14-00689048","MD","CLOSED","2014-09-12T12:30:55.000","2014-09-12T12:30:55.000","21217",3,-76.6344331,39.3066879
"Repair Pothole","600 W LAFAYETTE AVE","BALTIMORE CITY","TRMPICKU","TRM-Pickup Potholes","2014-09-12T12:30:04.000","2014-09-12T12:30:04.000","UPTON","Repair Completed","14-00689046","MD","CLOSED","2014-09-12T12:30:04.000","2014-09-12T12:30:04.000","21217",3,-76.6322118,39.3009993
"Repair Pothole","800  PENNSYLVANIA AVE","BALTIMORE CITY","TRMPICKU","TRM-Pickup Potholes","2014-09-12T12:28:53.000","2014-09-12T12:28:53.000","SETON HILL","Repair Completed","14-00689043","MD","CLOSED","2014-09-12T12:28:53.000","2014-09-12T12:28:53.000","21201",3,-76.6259486,39.2964558
"Repair Pothole","1300  DIVISION ST","BALTIMORE CITY","TRMPICKU","TRM-Pickup Potholes","2014-09-12T12:26:35.000","2014-09-12T12:26:35.000","UPTON","Repair Completed","14-00689033","MD","CLOSED","2014-09-12T12:26:35.000","2014-09-12T12:26:35.000","21217",3,-76.629821,39.301044
"Repair Pothole","1800 W PRATT ST","BALTIMORE CITY","TRMPICKU","TRM-Pickup Potholes","2014-09-12T12:22:18.000","2014-09-12T12:22:18.000","CARROLLTON RIDGE","Repair Completed","14-00689021","MD","CLOSED","2014-09-12T12:22:18.000","2014-09-12T12:22:18.000","21223",3,-76.6453432,39.2854771
"Repair Pothole","1900  MOSHER ST","BALTIMORE CITY","TRMPICKU","TRM-Pickup Potholes","2014-09-12T12:18:32.000","2014-09-12T12:18:32.000","MIDTOWN-EDMONDSON","Repair Completed","14-00688994","MD","CLOSED","2014-09-12T12:18:32.000","2014-09-12T12:18:32.000","21217",3,-76.6477057,39.2999132
"Repair Pothole","1700  PRESBURY ST","BALTIMORE CITY","TRMPICKU","TRM-Pickup Potholes","2014-09-12T12:14:51.000","2014-09-12T12:14:51.000","SANDTOWN-WINCHESTER","Repair Completed","14-00688977","MD","CLOSED","2014-09-12T12:14:51.000","2014-09-12T12:14:51.000","21217",3,-76.6449058,39.3079868
"Repair Pothole","2500  BAKER ST","BALTIMORE CITY","TRMPICKU","TRM-Pickup Potholes","2014-09-12T12:14:05.000","2014-09-12T12:14:05.000","COPPIN HEIGHTS/ASH-CO-EAST","Repair Completed","14-00688973","MD","CLOSED","2014-09-12T12:14:05.000","2014-09-12T12:14:05.000","21216",3,-76.6570243,39.3062958
"Repair Pothole","2300  RIGGS AVE","BALTIMORE CITY","TRMPICKU","TRM-Pickup Potholes","2014-09-12T12:13:17.000","2014-09-12T12:13:17.000","BRIDGEVIEW/GREENLAWN","Repair Completed","14-00688968","MD","CLOSED","2014-09-12T12:13:17.000","2014-09-12T12:13:17.000","21216",3,-76.65379,39.300922
"Repair Pothole","2200 W LAFAYETTE AVE","BALTIMORE CITY","TRMPICKU","TRM-Pickup Potholes","2014-09-12T12:12:37.000","2014-09-12T12:12:37.000","MIDTOWN-EDMONDSON","Repair Completed","14-00688966","MD","CLOSED","2014-09-12T12:12:37.000","2014-09-12T12:12:37.000","21216",3,-76.652295,39.298903
"Repair Pothole","900 N BENTALOU ST","BALTIMORE CITY","TRMPICKU","TRM-Pickup Potholes","2014-09-12T12:08:35.000","2014-09-12T12:08:35.000","BRIDGEVIEW/GREENLAWN","Repair Completed","14-00688935","MD","CLOSED","2014-09-12T12:08:35.000","2014-09-12T12:08:35.000","21216",3,-76.6537286,39.2986791
"Repair Pothole","700 N WHEELER AVE","BALTIMORE CITY","TRMPICKU","TRM-Pickup Potholes","2014-09-12T12:07:44.000","2014-09-12T12:07:44.000","EVERGREEN LAWN","Repair Completed","14-00688928","MD","CLOSED","2014-09-12T12:07:44.000","2014-09-12T12:07:44.000","21216",3,-76.6548438,39.2956184
"Repair Pothole","2500  HARLEM AVE","BALTIMORE CITY","TRMPICKU","TRM-Pickup Potholes","2014-09-12T12:06:26.000","2014-09-12T12:06:26.000","EVERGREEN LAWN","Repair Completed","14-00688923","MD","CLOSED","2014-09-12T12:06:26.000","2014-09-12T12:06:26.000","21216",3,-76.656799,39.296405
"Repair Pothole","2500 W LEXINGTON ST","BALTIMORE CITY","TRMPICKU","TRM-Pickup Potholes","2014-09-12T12:05:38.000","2014-09-12T12:05:38.000","SHIPLEY HILL","Repair Completed","14-00688914","MD","CLOSED","2014-09-12T12:05:38.000","2014-09-12T12:05:38.000","21223",3,-76.6559288,39.2902867
"Repair Pothole","100 N WARWICK AVE","BALTIMORE CITY","TRMPICKU","TRM-Pickup Potholes","2014-09-12T12:04:58.000","2014-09-12T12:04:58.000","PENROSE/FAYETTE STREET OUTREACH","Repair Completed","14-00688903","MD","CLOSED","2014-09-12T12:04:58.000","2014-09-12T12:04:58.000","21223",3,-76.6556654,39.2891961
"Repair Pothole","3800  LEADENHALL ST","BALTIMORE CITY","TRMPICKU","TRM-Pickup Potholes","2014-09-12T12:04:15.000","2014-09-12T12:04:15.000","BROOKLYN","Repair Completed","14-00688897","MD","CLOSED","2014-09-12T12:04:15.000","2014-09-12T12:04:15.000","21225",3,-76.61381,39.236743
"Repair Pothole","WOODVIEW RD","BALTIMORE CITY","TRMPICKU","TRM-Pickup Potholes","2014-09-12T12:01:59.000","2014-09-12T12:01:59.000","CHERRY HILL","Repair Completed","14-00688881","MD","CLOSED","2014-09-12T12:01:59.000","2014-09-12T12:01:59.000","21225",3,-76.6275593,39.2487552
"Repair Pothole","1900 W PRATT ST","BALTIMORE CITY","TRMPICKU","TRM-Pickup Potholes","2014-09-12T12:00:55.000","2014-09-12T12:00:55.000","CARROLLTON RIDGE","Repair Completed","14-00688878","MD","CLOSED","2014-09-12T12:00:55.000","2014-09-12T12:00:55.000","21223",3,-76.6469074,39.2853195
"Repair Pothole","100 S SCHROEDER ST","BALTIMORE CITY","TRMPICKU","TRM-Pickup Potholes","2014-09-12T11:59:24.000","2014-09-12T11:59:24.000","HOLLINS MARKET","Repair Completed","14-00688870","MD","CLOSED","2014-09-12T11:59:24.000","2014-09-12T11:59:24.000","21223",3,-76.6336781,39.2867514
"Repair Pothole","2100  PRESSTMAN ST","BALTIMORE CITY","TRMPICKU","TRM-Pickup Potholes","2014-09-12T11:58:31.000","2014-09-12T11:58:31.000","EASTERWOOD","Repair Completed","14-00688862","MD","CLOSED","2014-09-12T11:58:31.000","2014-09-12T11:58:31.000","21217",3,-76.651546,39.305304
"Repair Pothole","S FULTON AVE","BALTIMORE CITY","TRMPICKU","TRM-Pickup Potholes","2014-09-12T11:57:02.000","2014-09-12T11:57:02.000","NEW SOUTHWEST/MOUNT CLARE","Repair Completed","14-00688855","MD","CLOSED","2014-09-12T11:57:02.000","2014-09-12T11:57:02.000","21223",3,-76.6449598,39.2843197
"Repair Pothole","YALE AVE","BALTIMORE CITY","TRMPICKU","TRM-Pickup Potholes","2014-09-11T17:21:34.000","2014-09-11T17:21:34.000","YALE HEIGHTS","Repair Completed","14-00687093","MD","CLOSED","2014-09-11T17:21:34.000","2014-09-11T17:21:34.000","21229",3,-76.6876343,39.2758582
"Repair Pothole","1100  EDMONDSON AVE","BALTIMORE CITY","TRMPICKU","TRM-Pickup Potholes","2014-09-11T17:15:53.000","2014-09-11T17:15:53.000","HARLEM PARK","Repair Completed","14-00687059","MD","CLOSED","2014-09-11T17:15:53.000","2014-09-11T17:15:53.000","21223",3,-76.636397,39.296145
"Repair Pothole","BLOOMINGDALE RD","BALTIMORE CITY","TRMPICKU","TRM-Pickup Potholes","2014-09-11T17:12:23.000","2014-09-11T17:12:23.000","WALBROOK","Repair Completed","14-00687047","MD","CLOSED","2014-09-11T17:12:23.000","2014-09-11T17:13:37.000","21216",3,-76.668405,39.307117
"Repair Pothole","1200 N BENTALOU ST","BALTIMORE CITY","TRMPICKU","TRM-Pickup Potholes","2014-09-11T17:11:54.000","2014-09-11T17:11:54.000","BRIDGEVIEW/GREENLAWN","Repair Completed","14-00687042","MD","CLOSED","2014-09-11T17:11:54.000","2014-09-11T17:11:54.000","21216",3,-76.65393,39.301829
"Repair Pothole","600 N FULTON AVE","BALTIMORE CITY","TRMPICKU","TRM-Pickup Potholes","2014-09-11T17:11:02.000","2014-09-11T17:11:02.000","HARLEM PARK","Repair Completed","14-00687038","MD","CLOSED","2014-09-11T17:11:02.000","2014-09-11T17:11:02.000","21217",3,-76.645904,39.295312
"Repair Pothole","500 N FULTON AVE","BALTIMORE CITY","TRMPICKU","TRM-Pickup Potholes","2014-09-11T17:10:19.000","2014-09-11T17:10:19.000","HARLEM PARK","Repair Completed","14-00687035","MD","CLOSED","2014-09-11T17:10:19.000","2014-09-11T17:10:19.000","21223",3,-76.6455144,39.2939128
"Repair Pothole","400 N FULTON AVE","BALTIMORE CITY","TRMPICKU","TRM-Pickup Potholes","2014-09-11T17:09:09.000","2014-09-11T17:09:09.000","HARLEM PARK","Repair Completed","14-00687033","MD","CLOSED","2014-09-11T17:09:09.000","2014-09-11T17:09:09.000","21223",3,-76.6454801,39.2932953
"Repair Pothole","700 N LONGWOOD ST","BALTIMORE CITY","TRMPICKU","TRM-Pickup Potholes","2014-09-11T17:07:13.000","2014-09-11T17:07:13.000","FRANKLINTOWN ROAD","Repair Completed","14-00687026","MD","CLOSED","2014-09-11T17:07:13.000","2014-09-11T17:07:13.000","21216",3,-76.6667439,39.2949835
"Repair Pothole","3000  RAYNER AVE","BALTIMORE CITY","TRMPICKU","TRM-Pickup Potholes","2014-09-11T16:40:17.000","2014-09-11T16:40:17.000","FRANKLINTOWN ROAD","Repair Completed","14-00686911","MD","CLOSED","2014-09-11T16:40:17.000","2014-09-11T16:40:17.000","21216",3,-76.6669425,39.2966272
"Repair Pothole","1700 N BENTALOU ST","BALTIMORE CITY","TRMPICKU","TRM-Pickup Potholes","2014-09-11T16:30:11.000","2014-09-11T16:30:11.000","COPPIN HEIGHTS/ASH-CO-EAST","Repair Completed","14-00686851","MD","CLOSED","2014-09-11T16:30:11.000","2014-09-11T16:30:11.000","21216",3,-76.654293,39.307747
"Repair Pothole","400 S CAREY ST","BALTIMORE CITY","TRMPICKU","TRM-Pickup Potholes","2014-09-11T16:27:18.000","2014-09-11T16:27:18.000","WASHINGTON VILLAGE","Repair Completed","14-00686837","MD","CLOSED","2014-09-11T16:27:18.000","2014-09-11T16:27:18.000","21223",3,-76.6381701,39.2831946
"Repair Pothole","1100  EDMONDSON AVE","BALTIMORE CITY","TRMPICKU","TRM-Pickup Potholes","2014-09-11T16:18:35.000","2014-09-11T16:18:35.000","HARLEM PARK","Repair Completed","14-00686794","MD","CLOSED","2014-09-11T16:18:35.000","2014-09-11T16:18:35.000","21223",3,-76.636397,39.296145
"Repair Pothole","1200  HARLEM AVE","BALTIMORE CITY","TRMPICKU","TRM-Pickup Potholes","2014-09-11T16:17:03.000","2014-09-11T16:17:03.000","HARLEM PARK","Repair Completed","14-00686790","MD","CLOSED","2014-09-11T16:17:03.000","2014-09-11T16:17:03.000","21217",3,-76.6372078,39.2967454
"Repair Pothole","800 N ARLINGTON AVE","BALTIMORE CITY","TRMPICKU","TRM-Pickup Potholes","2014-09-11T16:16:26.000","2014-09-11T16:16:26.000","HARLEM PARK","Repair Completed","14-00686787","MD","CLOSED","2014-09-11T16:16:26.000","2014-09-11T16:16:26.000","21217",3,-76.635825,39.2979694
"Repair Pothole","DIVISION ST","BALTIMORE CITY","TRMPICKU","TRM-Pickup Potholes","2014-09-11T16:15:52.000","2014-09-11T16:15:52.000","DRUID HEIGHTS","Repair Completed","14-00686781","MD","CLOSED","2014-09-11T16:15:52.000","2014-09-11T16:15:52.000","21217",3,-76.6348851,39.3054472
"Repair Pothole","400  MCMECHEN ST","BALTIMORE CITY","TRMPICKU","TRM-Pickup Potholes","2014-09-11T16:13:55.000","2014-09-11T16:13:55.000","MADISON PARK","Repair Completed","14-00686775","MD","CLOSED","2014-09-11T16:13:55.000","2014-09-11T16:13:55.000","21217",3,-76.6307403,39.3052157
"Repair Pothole","300 N EUTAW ST","BALTIMORE CITY","TRMPICKU","TRM-Pickup Potholes","2014-09-11T16:13:19.000","2014-09-11T16:13:19.000","DOWNTOWN","Repair Completed","14-00686770","MD","CLOSED","2014-09-11T16:13:19.000","2014-09-11T16:13:19.000","21201",3,-76.621383,39.292988
"Repair Pothole","500 W SARATOGA ST","BALTIMORE CITY","TRMPICKU","TRM-Pickup Potholes","2014-09-11T16:12:28.000","2014-09-11T16:12:28.000","SETON HILL","Repair Completed","14-00686767","MD","CLOSED","2014-09-11T16:12:28.000","2014-09-11T16:12:28.000","21201",3,-76.6225618,39.2927787
"Repair Pothole","400 W LAFAYETTE AVE","BALTIMORE CITY","TRMPICKU","TRM-Pickup Potholes","2014-09-11T16:11:51.000","2014-09-11T16:11:51.000","MADISON PARK","Repair Completed","14-00686766","MD","CLOSED","2014-09-11T16:11:51.000","2014-09-11T16:11:51.000","21217",3,-76.6280394,39.303926
"Repair Pothole","311 W SARATOGA ST","BALTIMORE CITY","TRMPICKU","TRM-Pickup Potholes","2014-09-11T16:10:18.000","2014-09-11T16:10:18.000","DOWNTOWN","Repair Completed","14-00686762","MD","CLOSED","2014-09-11T16:10:18.000","2014-09-11T16:10:18.000","21201",3,-76.6202068,39.2925326
"Repair Pothole","600 N GILMOR ST","BALTIMORE CITY","TRMPICKU","TRM-Pickup Potholes","2014-09-11T16:08:41.000","2014-09-11T16:08:41.000","HARLEM PARK","Repair Completed","14-00686758","MD","CLOSED","2014-09-11T16:08:41.000","2014-09-11T16:08:41.000","21217",3,-76.643067,39.295418
"Repair Pothole","2900 W BELVEDERE AVE","BALTIMORE CITY","TRMPICKU","TRM-Pickup Potholes","2014-09-11T16:07:19.000","2014-09-11T16:07:19.000","CENTRAL PARK HEIGHTS","Repair Completed","14-00686742","MD","CLOSED","2014-09-11T16:08:11.000","2014-09-09T16:07:00.000","21215",3,-76.6711137,39.3516237
"Repair Pothole","1300 S HANOVER ST","BALTIMORE CITY","TRMPICKU","TRM-Pickup Potholes","2014-09-11T16:06:00.000","2014-09-11T16:06:00.000","SBIC","Repair Completed","14-00686746","MD","CLOSED","2014-09-11T16:06:00.000","2014-09-11T16:06:00.000","21230",3,-76.615665,39.274572
"Repair Pothole","4600  REISTERSTOWN RD","BALTIMORE CITY","TRMPICKU","TRM-Pickup Potholes","2014-09-11T16:05:18.000","2014-09-11T16:05:18.000","CENTRAL PARK HEIGHTS","Repair Completed","14-00686730","MD","CLOSED","2014-09-11T16:06:29.000","2014-09-09T16:05:00.000","21215",3,-76.671547,39.3401767
"Repair Pothole","1100  RACE ST","BALTIMORE CITY","TRMPICKU","TRM-Pickup Potholes","2014-09-11T16:05:00.000","2014-09-11T16:05:00.000","SHARP-LEADENHALL","Repair Completed","14-00686740","MD","CLOSED","2014-09-11T16:05:00.000","2014-09-11T16:05:00.000","21230",3,-76.6165352,39.2765593
"Repair Pothole","1200 S PACA ST","BALTIMORE CITY","TRMPICKU","TRM-Pickup Potholes","2014-09-11T16:04:04.000","2014-09-11T16:04:04.000","WASHINGTON VILLAGE","Repair Completed","14-00686733","MD","CLOSED","2014-09-11T16:04:04.000","2014-09-11T16:04:04.000","21230",3,-76.6275531,39.2785019
"Repair Pothole","800 W OSTEND ST","BALTIMORE CITY","TRMPICKU","TRM-Pickup Potholes","2014-09-11T16:03:13.000","2014-09-11T16:03:13.000","WASHINGTON VILLAGE","Repair Completed","14-00686727","MD","CLOSED","2014-09-11T16:03:13.000","2014-09-11T16:03:13.000","21230",3,-76.6285511,39.2776803
"Repair Pothole","4700  REISTERSTOWN RD","BALTIMORE CITY","TRMPICKU","TRM-Pickup Potholes","2014-09-11T16:03:01.000","2014-09-11T16:03:01.000","CENTRAL PARK HEIGHTS","Repair Completed","14-00686715","MD","CLOSED","2014-09-11T16:04:10.000","2014-09-09T16:03:00.000","21215",3,-76.6737893,39.3409902
"Repair Pothole","1400 S CAREY ST","BALTIMORE CITY","TRMPICKU","TRM-Pickup Potholes","2014-09-11T16:02:24.000","2014-09-11T16:02:24.000","WASHINGTON VILLAGE","Repair Completed","14-00686721","MD","CLOSED","2014-09-11T16:02:24.000","2014-09-11T16:02:24.000","21230",3,-76.633842,39.279204
"Repair Pothole","830  RYAN ST","BALTIMORE CITY","TRMPICKU","TRM-Pickup Potholes","2014-09-11T16:00:52.000","2014-09-11T16:00:52.000","WASHINGTON VILLAGE","Repair Completed","14-00686712","MD","CLOSED","2014-09-11T16:00:52.000","2014-09-11T16:00:52.000","21230",3,-76.6299936,39.284416
"Repair Pothole","3400  GARRISON BLVD","BALTIMORE CITY","TRMPICKU","TRM-Pickup Potholes","2014-09-11T15:57:14.000","2014-09-11T15:57:14.000","CALLAWAY-GARRISON","Repair Completed","14-00686667","MD","CLOSED","2014-09-11T15:58:54.000","2014-09-09T15:57:00.000","21215",3,-76.682822,39.327929
"Repair Pothole","4100  RIDGEWOOD AVE","BALTIMORE CITY","TRMPICKU","TRM-Pickup Potholes","2014-09-11T15:54:18.000","2014-09-11T15:54:18.000","WEST ARLINGTON","Repair Completed","14-00686653","MD","CLOSED","2014-09-11T15:55:57.000","2014-09-09T15:54:00.000","21215",3,-76.687246,39.336925
"Repair Pothole","3200  SPAULDING AVE","BALTIMORE CITY","TRMPICKU","TRM-Pickup Potholes","2014-09-11T15:51:29.000","2014-09-11T15:51:29.000","CENTRAL PARK HEIGHTS","Repair Completed","14-00686640","MD","CLOSED","2014-09-11T15:52:51.000","2014-09-09T15:52:00.000","21215",3,-76.6747502,39.3483867
"Repair Pothole","5400  REISTERSTOWN RD","BALTIMORE CITY","TRMPICKU","TRM-Pickup Potholes","2014-09-11T15:48:16.000","2014-09-11T15:48:16.000","WOODMERE","Repair Completed","14-00686630","MD","CLOSED","2014-09-11T15:50:02.000","2014-09-09T15:49:00.000","21215",3,-76.688334,39.346023
"Repair Pothole","5000  REISTERSTOWN RD","BALTIMORE CITY","TRMPICKU","TRM-Pickup Potholes","2014-09-11T15:44:21.000","2014-09-11T15:44:21.000","LANGSTON HUGHES","Repair Completed","14-00686608","MD","CLOSED","2014-09-11T15:46:16.000","2014-09-11T15:45:00.000","21215",3,-76.6794077,39.3419594
"Repair Pothole","3300  BLOEDE AVE","BALTIMORE CITY","TRMPICKU","TRM-Pickup Potholes","2014-09-11T15:42:30.000","2014-09-11T15:42:30.000","VIOLETVILLE","Repair Completed","14-00686607","MD","CLOSED","2014-09-11T15:42:30.000","2014-09-11T15:42:30.000","21227",3,-76.6655304,39.2622254
"Repair Pothole","2500  LIBERTY HEIGHTS AVE","BALTIMORE CITY","TRMPICKU","TRM-Pickup Potholes","2014-09-11T15:38:42.000","2014-09-11T15:38:42.000","BURLEITH-LEIGHTON","Repair Completed","14-00686580","MD","CLOSED","2014-09-11T15:43:23.000","2014-09-09T15:42:00.000","21215",3,-76.6556601,39.3197533
"Repair Pothole","500  NOTTINGHAM RD","BALTIMORE CITY","TRMPICKU","TRM-Pickup Potholes","2014-09-11T14:34:48.000","2014-09-11T14:34:48.000","TEN HILLS","Repair Completed","14-00686272","MD","CLOSED","2014-09-11T14:34:48.000","2014-09-11T14:34:48.000","21229",3,-76.698818,39.2890919
"Repair Pothole","RIGGS AVE","BALTIMORE CITY","TRMPICKU","TRM-Pickup Potholes","2014-09-11T14:33:53.000","2014-09-11T14:33:53.000","SANDTOWN-WINCHESTER","Repair Completed","14-00686268","MD","CLOSED","2014-09-11T14:33:53.000","2014-09-11T14:33:53.000","21217",3,-76.652356,39.3007312
"Repair Pothole","3100  JANICE AVE","BALTIMORE CITY","TRMPICKU","TRM-Pickup Potholes","2014-09-11T14:12:49.000","2014-09-11T14:12:49.000","LAKELAND","Repair Completed","14-00686126","MD","CLOSED","2014-09-11T14:12:49.000","2014-09-11T14:12:49.000","21230",3,-76.6525791,39.2546552
"Repair Pothole","1900  PRESSTMAN ST","BALTIMORE CITY","TRMPICKU","TRM-Pickup Potholes","2014-09-11T14:31:15.000","2014-09-11T14:31:15.000","BRIDGEVIEW/GREENLAWN","Repair Completed","14-00686258","MD","CLOSED","2014-09-11T14:31:15.000","2014-09-11T14:31:15.000","21217",3,-76.6479639,39.3052417
"Repair Pothole","2400  BAKER ST","BALTIMORE CITY","TRMPICKU","TRM-Pickup Potholes","2014-09-11T14:30:09.000","2014-09-11T14:30:09.000","COPPIN HEIGHTS/ASH-CO-EAST","Repair Completed","14-00686251","MD","CLOSED","2014-09-11T14:30:09.000","2014-09-11T14:30:09.000","21216",3,-76.65633,39.306503
"Repair Pothole","2200  PRESSTMAN ST","BALTIMORE CITY","TRMPICKU","TRM-Pickup Potholes","2014-09-11T14:28:35.000","2014-09-11T14:28:35.000","COPPIN HEIGHTS/ASH-CO-EAST","Repair Completed","14-00686241","MD","CLOSED","2014-09-11T14:28:35.000","2014-09-11T14:28:35.000","21216",3,-76.652598,39.30529
"Repair Pothole","2300  WINCHESTER ST","BALTIMORE CITY","TRMPICKU","TRM-Pickup Potholes","2014-09-11T14:25:05.000","2014-09-11T14:25:05.000","BRIDGEVIEW/GREENLAWN","Repair Completed","14-00686226","MD","CLOSED","2014-09-11T14:25:05.000","2014-09-11T14:25:05.000","21216",3,-76.6536278,39.3017738
"Repair Pothole","EDMONDSON AVE &N BENTALOU ST","BALTIMORE CITY","TRMPICKU","TRM-Pickup Potholes","2014-09-11T14:24:45.000","2014-09-11T14:24:45.000","ROSEMONT HOMEOWNERS/TENANTS","Repair Completed","14-00686220","MD","CLOSED","2014-09-11T14:24:45.000","2014-09-11T14:24:45.000","21223",3,-76.7051535,39.2908485
"Repair Pothole","100 N EUTAW ST","BALTIMORE CITY","TRMPICKU","TRM-Pickup Potholes","2014-09-11T14:22:39.000","2014-09-11T14:22:39.000","DOWNTOWN","Repair Completed","14-00686211","MD","CLOSED","2014-09-11T14:22:39.000","2014-09-11T14:22:39.000","21201",3,-76.621444,39.2905609
"Repair Pothole","5200 W NORTH AVE","BALTIMORE CITY","TRMPICKU","TRM-Pickup Potholes","2014-09-11T14:21:55.000","2014-09-11T14:21:55.000","FRANKLINTOWN","Repair Completed","14-00686206","MD","CLOSED","2014-09-11T14:21:55.000","2014-09-11T14:21:55.000","21207",3,-76.7089916,39.3078193
"Repair Pothole","100 N PULASKI ST","BALTIMORE CITY","TRMPICKU","TRM-Pickup Potholes","2014-09-11T14:17:30.000","2014-09-11T14:17:30.000","PENROSE/FAYETTE STREET OUTREACH","Repair Completed","14-00686161","MD","CLOSED","2014-09-11T14:17:30.000","2014-09-11T14:17:30.000","21223",3,-76.6501859,39.2894334
"Repair Pothole","100 S CARROLLTON AVE","BALTIMORE CITY","TRMPICKU","TRM-Pickup Potholes","2014-09-11T14:16:46.000","2014-09-11T14:16:46.000","HOLLINS MARKET","Repair Completed","14-00686156","MD","CLOSED","2014-09-11T14:16:46.000","2014-09-11T14:16:46.000","21223",3,-76.6366338,39.286572
"Repair Pothole","900 W FAYETTE ST","BALTIMORE CITY","TRMPICKU","TRM-Pickup Potholes","2014-09-11T14:15:40.000","2014-09-11T14:15:40.000","POPPLETON","Repair Completed","14-00686146","MD","CLOSED","2014-09-11T14:15:40.000","2014-09-11T14:15:40.000","21223",3,-76.632362,39.290137
"Repair Pothole","700  DRUID HILL AVE","BALTIMORE CITY","TRMPICKU","TRM-Pickup Potholes","2014-09-11T14:15:29.000","2014-09-11T14:15:29.000","SETON HILL","Repair Completed","14-00686143","MD","CLOSED","2014-09-11T14:15:29.000","2014-09-11T14:15:29.000","21201",3,-76.6231353,39.2974446
"Repair Pothole","W FAYETTE ST &N SMALLWOOD ST","BALTIMORE CITY","TRMPICKU","TRM-Pickup Potholes","2014-09-11T14:14:51.000","2014-09-11T14:14:51.000","PENROSE/FAYETTE STREET OUTREACH","Repair Completed","14-00686141","MD","CLOSED","2014-09-11T14:14:51.000","2014-09-11T14:14:51.000","21223",3,-79.7272629,39.8989031
"Repair Pothole","1700 N ROSEDALE ST","BALTIMORE CITY","TRMPICKU","TRM-Pickup Potholes","2014-09-11T14:13:58.000","2014-09-11T14:13:58.000","ROSEMONT","Repair Completed","14-00686135","MD","CLOSED","2014-09-11T14:13:58.000","2014-09-11T14:13:58.000","21216",3,-76.6694909,39.307647
"Repair Pothole","3000 W PATAPSCO AVE","BALTIMORE CITY","TRMPICKU","TRM-Pickup Potholes","2014-09-11T14:13:16.000","2014-09-11T14:13:16.000","MORRELL PARK","Repair Completed","14-00686128","MD","CLOSED","2014-09-11T14:13:16.000","2014-09-11T14:13:16.000","21227",3,-76.6641303,39.2584122
"Repair Pothole","WATERVIEW AVE","BALTIMORE CITY","TRMPICKU","TRM-Pickup Potholes","2014-09-11T14:11:13.000","2014-09-11T14:11:13.000","WESTPORT","Repair Completed","14-00686114","MD","CLOSED","2014-09-11T14:11:13.000","2014-09-11T14:11:13.000","21230",3,-76.6301974,39.2572396
"Repair Pothole","BAYARD ST &W HAMBURG ST","BALTIMORE CITY","TRMPICKU","TRM-Pickup Potholes","2014-09-11T14:10:45.000","2014-09-11T14:10:45.000","CARROLL - CAMDEN INDUSTRIAL AREA","Repair Completed","14-00686108","MD","CLOSED","2014-09-11T14:10:45.000","2014-09-11T14:10:45.000","21230",3,-76.6336963,39.2772694
"Repair Pothole","RIDGELY ST & BAYARD ST","BALTIMORE CITY","TRMPICKU","TRM-Pickup Potholes","2014-09-11T14:10:19.000","2014-09-11T14:10:19.000","CARROLL - CAMDEN INDUSTRIAL AREA","Repair Completed","14-00686104","MD","CLOSED","2014-09-11T14:10:19.000","2014-09-11T14:10:19.000","21230",3,-77.8867833,40.2370552
"Repair Pothole","FRANKFURST AVE","BALTIMORE CITY","TRMPICKU","TRM-Pickup Potholes","2014-09-11T14:09:12.000","2014-09-11T14:09:12.000","FAIRFIELD AREA","Repair Completed","14-00686102","MD","CLOSED","2014-09-11T14:09:12.000","2014-09-11T14:09:12.000","21225",3,-76.5917995,39.2414674
"Repair Pothole","500 N CAREY ST","BALTIMORE CITY","TRMPICKU","TRM-Pickup Potholes","2014-09-11T14:08:28.000","2014-09-11T14:08:28.000","HARLEM PARK","Repair Completed","14-00686097","MD","CLOSED","2014-09-11T14:08:28.000","2014-09-11T14:08:28.000","21223",3,-76.63875,39.294342
"Repair Pothole","CARROLL ST","BALTIMORE CITY","TRMPICKU","TRM-Pickup Potholes","2014-09-11T14:07:51.000","2014-09-11T14:07:51.000","WASHINGTON VILLAGE","Repair Completed","14-00686094","MD","CLOSED","2014-09-11T14:07:51.000","2014-09-11T14:07:51.000","21230",3,-76.6329064,39.2809166
"Repair Pothole","1300  CLEVELAND ST","BALTIMORE CITY","TRMPICKU","TRM-Pickup Potholes","2014-09-11T14:06:53.000","2014-09-11T14:06:53.000","WASHINGTON VILLAGE","Repair Completed","14-00686089","MD","CLOSED","2014-09-11T14:06:53.000","2014-09-11T14:06:53.000","21230",3,-76.6337806,39.2794147
"Repair Pothole","1200 S CAREY ST","BALTIMORE CITY","TRMPICKU","TRM-Pickup Potholes","2014-09-11T14:05:42.000","2014-09-11T14:05:42.000","WASHINGTON VILLAGE","Repair Completed","14-00686082","MD","CLOSED","2014-09-11T14:05:42.000","2014-09-11T14:05:42.000","21230",3,-76.6353534,39.2806197
"Repair Pothole","3500 W FRANKLIN ST","BALTIMORE CITY","TRMPICKU","TRM-Pickup Potholes","2014-09-11T14:04:14.000","2014-09-11T14:04:14.000","ALLENDALE","Repair Completed","14-00686071","MD","CLOSED","2014-09-11T14:04:14.000","2014-09-11T14:04:14.000","21229",3,-76.6759303,39.2928731
"Repair Pothole","514  DRURY LN","BALTIMORE CITY","TRMPICKU","TRM-Pickup Potholes","2014-09-11T14:01:10.000","2014-09-11T14:01:10.000","TEN HILLS","Repair Completed","14-00686052","MD","CLOSED","2014-09-11T14:01:10.000","2014-09-11T14:01:10.000","21229",3,-76.705097,39.290443
"Repair Pothole","S HANOVER ST","BALTIMORE CITY","TRMPICKU","TRM-Pickup Potholes","2014-09-11T13:59:30.000","2014-09-11T13:59:30.000","PORT COVINGTON","Repair Completed","14-00686044","MD","CLOSED","2014-09-11T13:59:30.000","2014-09-11T13:59:30.000","21230",3,-76.6147011,39.2616375
"Repair Pothole","BAKER ST","BALTIMORE CITY","TRMPICKU","TRM-Pickup Potholes","2014-09-11T13:50:36.000","2014-09-11T13:50:36.000","SANDTOWN-WINCHESTER","Repair Completed","14-00686006","MD","CLOSED","2014-09-11T13:50:36.000","2014-09-11T13:50:36.000","21217",3,-76.654903,39.3063613
"Repair Pothole","700  GOLD ST","BALTIMORE CITY","TRMPICKU","TRM-Pickup Potholes","2014-09-11T13:49:35.000","2014-09-11T13:49:35.000","SANDTOWN-WINCHESTER","Repair Completed","14-00685997","MD","CLOSED","2014-09-11T13:49:35.000","2014-09-11T13:49:35.000","21217",3,-76.640331,39.3068373
"Repair Pothole","600 W LAFAYETTE AVE","BALTIMORE CITY","TRMPICKU","TRM-Pickup Potholes","2014-09-11T13:48:15.000","2014-09-11T13:48:15.000","UPTON","Repair Completed","14-00685991","MD","CLOSED","2014-09-11T13:48:15.000","2014-09-11T13:48:15.000","21217",3,-76.6322118,39.3009993
"Repair Pothole","600  DOLPHIN ST","BALTIMORE CITY","TRMPICKU","TRM-Pickup Potholes","2014-09-11T13:47:17.000","2014-09-11T13:47:17.000","UPTON","Repair Completed","14-00685988","MD","CLOSED","2014-09-11T13:47:17.000","2014-09-11T13:47:17.000","21217",3,-76.6297707,39.2994292
"Repair Pothole","500 W PRESTON ST","BALTIMORE CITY","TRMPICKU","TRM-Pickup Potholes","2014-09-11T13:46:36.000","2014-09-11T13:46:36.000","UPTON","Repair Completed","14-00685983","MD","CLOSED","2014-09-11T13:46:36.000","2014-09-11T13:46:36.000","21201",3,-76.6256254,39.2996215
"Repair Pothole","800  PENNSYLVANIA AVE","BALTIMORE CITY","TRMPICKU","TRM-Pickup Potholes","2014-09-11T13:45:44.000","2014-09-11T13:45:44.000","SETON HILL","Repair Completed","14-00685976","MD","CLOSED","2014-09-11T13:45:44.000","2014-09-11T13:45:44.000","21201",3,-76.6259486,39.2964558
"Repair Pothole","W MOUNT ROYAL AVE","BALTIMORE CITY","TRMPICKU","TRM-Pickup Potholes","2014-09-11T13:44:56.000","2014-09-11T13:44:56.000","MID-TOWN BELVEDERE","Repair Completed","14-00685972","MD","CLOSED","2014-09-11T13:44:56.000","2014-09-11T13:44:56.000","21201",3,-76.6238427,39.3101519
"Repair Pothole","200 W LAFAYETTE AVE","BALTIMORE CITY","TRMPICKU","TRM-Pickup Potholes","2014-09-11T13:43:52.000","2014-09-11T13:43:52.000","BOLTON HILL","Repair Completed","14-00685968","MD","CLOSED","2014-09-11T13:43:52.000","2014-09-11T13:43:52.000","21217",3,-76.6244031,39.3067341
"Repair Pothole","100  MCMECHEN ST","BALTIMORE CITY","TRMPICKU","TRM-Pickup Potholes","2014-09-11T13:42:00.000","2014-09-11T13:42:00.000","BOLTON HILL","Repair Completed","14-00685962","MD","CLOSED","2014-09-11T13:42:00.000","2014-09-11T13:42:00.000","21217",3,-76.6239041,39.3099976
"Repair Pothole","5100  EDMONDSON AVE","BALTIMORE CITY","TRMPICKU","TRM-Pickup Potholes","2014-09-11T13:39:26.000","2014-09-11T13:39:26.000","WESTGATE","Repair Completed","14-00685950","MD","CLOSED","2014-09-11T13:39:26.000","2014-09-11T13:39:26.000","21229",3,-76.7055392,39.2916708
"Repair Pothole","3700  EDMONDSON AVE","BALTIMORE CITY","TRMPICKU","TRM-Pickup Potholes","2014-09-11T13:38:45.000","2014-09-11T13:38:45.000","EDMONDSON VILLAGE","Repair Completed","14-00685947","MD","CLOSED","2014-09-11T13:38:45.000","2014-09-11T13:38:45.000","21229",3,-76.678543,39.294184
"Repair Pothole","3600  EDMONDSON AVE","BALTIMORE CITY","TRMPICKU","TRM-Pickup Potholes","2014-09-11T13:26:10.000","2014-09-11T13:26:10.000","EDMONDSON VILLAGE","Repair Completed","14-00685873","MD","CLOSED","2014-09-11T13:26:10.000","2014-09-11T13:26:10.000","21229",3,-76.6775855,39.2942555
"Repair Pothole","2600 W BALTIMORE ST","BALTIMORE CITY","TRMPICKU","TRM-Pickup Potholes","2014-09-11T13:25:01.000","2014-09-11T13:25:01.000","SHIPLEY HILL","Repair Completed","14-00685869","MD","CLOSED","2014-09-11T13:25:01.000","2014-09-11T13:25:01.000","21223",3,-76.6588177,39.2876616
"Repair Pothole","100 S SMALLWOOD ST","BALTIMORE CITY","TRMPICKU","TRM-Pickup Potholes","2014-09-11T13:24:11.000","2014-09-11T13:24:11.000","CARROLLTON RIDGE","Repair Completed","14-00685864","MD","CLOSED","2014-09-11T13:24:11.000","2014-09-11T13:24:11.000","21223",3,-76.6513408,39.2853159
"Repair Pothole","1300 S CAREY ST","BALTIMORE CITY","TRMPICKU","TRM-Pickup Potholes","2014-09-11T13:23:33.000","2014-09-11T13:23:33.000","WASHINGTON VILLAGE","Repair Completed","14-00685861","MD","CLOSED","2014-09-11T13:23:33.000","2014-09-11T13:23:33.000","21230",3,-76.634381,39.279604
"Repair Pothole","1200 S CAREY ST","BALTIMORE CITY","TRMPICKU","TRM-Pickup Potholes","2014-09-11T13:22:05.000","2014-09-11T13:22:05.000","WASHINGTON VILLAGE","Repair Completed","14-00685850","MD","CLOSED","2014-09-11T13:22:05.000","2014-09-11T13:22:05.000","21230",3,-76.6353534,39.2806197
"Repair Pothole","1400  MOSHER ST","BALTIMORE CITY","TRMPICKU","TRM-Pickup Potholes","2014-09-11T13:20:32.000","2014-09-11T13:20:32.000","SANDTOWN-WINCHESTER","Repair Completed","14-00685825","MD","CLOSED","2014-09-11T13:20:32.000","2014-09-11T13:20:32.000","21217",3,-76.640213,39.3001064
"Repair Pothole","1400  WINCHESTER ST","BALTIMORE CITY","TRMPICKU","TRM-Pickup Potholes","2014-09-11T13:19:11.000","2014-09-11T13:19:11.000","SANDTOWN-WINCHESTER","Repair Completed","14-00685812","MD","CLOSED","2014-09-11T13:19:11.000","2014-09-11T13:19:11.000","21217",3,-76.6405015,39.3024805
"Repair Pothole","S BEECHFIELD AVE","BALTIMORE CITY","TRMPICKU","TRM-Pickup Potholes","2014-09-11T13:18:18.000","2014-09-11T13:18:18.000","YALE HEIGHTS","Repair Completed","14-00685807","MD","CLOSED","2014-09-11T13:18:18.000","2014-09-11T13:18:18.000","21229",3,-76.6932766,39.27342
"Repair Pothole","S BEECHFIELD AVE","BALTIMORE CITY","TRMPICKU","TRM-Pickup Potholes","2014-09-11T13:17:10.000","2014-09-11T13:17:10.000","YALE HEIGHTS","Repair Completed","14-00685803","MD","CLOSED","2014-09-11T13:17:10.000","2014-09-11T13:17:10.000","21229",3,-76.6932766,39.27342
"Repair Pothole","S BEECHFIELD AVE","BALTIMORE CITY","TRMPICKU","TRM-Pickup Potholes","2014-09-11T13:16:01.000","2014-09-11T13:16:01.000","YALE HEIGHTS","Repair Completed","14-00685795","MD","CLOSED","2014-09-11T13:16:01.000","2014-09-11T13:16:01.000","21229",3,-76.6932766,39.27342
"Repair Pothole","N BEECHFIELD AVE","BALTIMORE CITY","TRMPICKU","TRM-Pickup Potholes","2014-09-11T12:55:27.000","2014-09-11T12:55:27.000","IRVINGTON","Repair Completed","14-00685654","MD","CLOSED","2014-09-11T12:55:27.000","2014-09-11T12:56:03.000","21229",3,-76.6937255,39.2845951
"Repair Pothole","5115  BALTIMORE NATIONAL PIKE","BALTIMORE CITY","TRMPICKU","TRM-Pickup Potholes","2014-09-11T12:36:46.000","2014-09-11T12:36:46.000","WESTGATE","Repair Completed","14-00685579","MD","CLOSED","2014-09-11T12:36:46.000","2014-09-11T12:36:46.000","21229",3,-76.7099984,39.2914102
"Repair Pothole","2500 W BALTIMORE ST","BALTIMORE CITY","TRMPICKU","TRM-Pickup Potholes","2014-09-11T12:35:32.000","2014-09-11T12:35:32.000","SHIPLEY HILL","Repair Completed","14-00685572","MD","CLOSED","2014-09-11T12:35:32.000","2014-09-11T12:35:32.000","21223",3,-76.656605,39.28793
"Repair Pothole","800 N EUTAW ST","BALTIMORE CITY","TRMPICKU","TRM-Pickup Potholes","2014-09-11T12:34:08.000","2014-09-11T12:34:08.000","MOUNT VERNON","Repair Completed","14-00685563","MD","CLOSED","2014-09-11T12:34:08.000","2014-09-11T12:34:08.000","21201",3,-76.6217376,39.2992239
"Repair Pothole","S KOSSUTH ST","BALTIMORE CITY","TRMPICKU","TRM-Pickup Potholes","2014-09-11T12:30:20.000","2014-09-11T12:30:20.000","SAINT JOSEPHS","Repair Completed","14-00685541","MD","CLOSED","2014-09-11T12:30:20.000","2014-09-11T12:30:20.000","21229",3,-76.6765398,39.285561
"Repair Pothole","4100  DORIS AVE","BALTIMORE CITY","TRMPICKU","TRM-Pickup Potholes","2014-09-11T12:18:04.000","2014-09-11T12:18:04.000","BROOKLYN","Repair Completed","14-00685459","MD","CLOSED","2014-09-11T12:18:04.000","2014-09-11T12:18:04.000","21225",3,-76.603007,39.229801
"Repair Pothole","1300 N STRICKER ST","BALTIMORE CITY","TRMPICKU","TRM-Pickup Potholes","2014-09-11T12:15:37.000","2014-09-11T12:15:37.000","SANDTOWN-WINCHESTER","Repair Completed","14-00685445","MD","CLOSED","2014-09-11T12:15:37.000","2014-09-11T12:15:37.000","21217",3,-76.6418111,39.3032951
"Repair Pothole","500  EVERGREEN ST","BALTIMORE CITY","TRMPICKU","TRM-Pickup Potholes","2014-09-11T12:01:07.000","2014-09-11T12:01:07.000","ROSEMONT HOMEOWNERS/TENANTS","Repair Completed","14-00685332","MD","CLOSED","2014-09-11T12:01:07.000","2014-09-11T12:01:07.000","21223",3,-76.6593176,39.2932287
"Repair Pothole","2800 W FRANKLIN ST","BALTIMORE CITY","TRMPICKU","TRM-Pickup Potholes","2014-09-11T12:00:11.000","2014-09-11T12:00:11.000","PENROSE/FAYETTE STREET OUTREACH","Repair Completed","14-00685324","MD","CLOSED","2014-09-11T12:00:11.000","2014-09-11T12:00:11.000","21223",3,-76.6624628,39.293226
"Repair Pothole","3100  EDMONDSON AVE","BALTIMORE CITY","TRMPICKU","TRM-Pickup Potholes","2014-09-11T11:59:10.000","2014-09-11T11:59:10.000","GWYNNS FALLS/LEAKIN PARK","Repair Completed","14-00685315","MD","CLOSED","2014-09-11T11:59:10.000","2014-09-11T11:59:10.000","21229",3,-76.6686099,39.2943466
"Repair Pothole","3500 W CATON AVE","BALTIMORE CITY","TRMPICKU","TRM-Pickup Potholes","2014-09-11T11:58:31.000","2014-09-11T11:58:31.000","SAINT JOSEPHS","Repair Completed","14-00685311","MD","CLOSED","2014-09-11T11:58:31.000","2014-09-11T11:58:31.000","21229",3,-76.674849,39.287433
"Repair Pothole","700  CUMBERLAND ST","BALTIMORE CITY","TRMPICKU","TRM-Pickup Potholes","2014-09-11T11:57:31.000","2014-09-11T11:57:31.000","SANDTOWN-WINCHESTER","Repair Completed","14-00685307","MD","CLOSED","2014-09-11T11:57:31.000","2014-09-11T11:57:31.000","21217",3,-76.642809,39.3087004
"Repair Pothole","1600  WESTWOOD AVE","BALTIMORE CITY","TRMPICKU","TRM-Pickup Potholes","2014-09-11T11:56:05.000","2014-09-11T11:56:05.000","SANDTOWN-WINCHESTER","Repair Completed","14-00685301","MD","CLOSED","2014-09-11T11:56:05.000","2014-09-11T11:56:05.000","21217",3,-76.643598,39.3094831
"Repair Pothole","100 W JEFFREY ST","BALTIMORE CITY","TRMPICKU","TRM-Pickup Potholes","2014-09-11T11:53:39.000","2014-09-11T11:53:39.000","BROOKLYN","Repair Completed","14-00685295","MD","CLOSED","2014-09-11T11:53:39.000","2014-09-11T11:53:39.000","21225",3,-76.6124706,39.2360989
"Repair Pothole","200 E JEFFREY ST","BALTIMORE CITY","TRMPICKU","TRM-Pickup Potholes","2014-09-11T11:52:07.000","2014-09-11T11:52:07.000","BROOKLYN","Repair Completed","14-00685291","MD","CLOSED","2014-09-11T11:52:07.000","2014-09-11T11:52:07.000","21225",3,-76.6101148,39.2351584
"Repair Pothole","200  WASHBURN AVE","BALTIMORE CITY","TRMPICKU","TRM-Pickup Potholes","2014-09-11T11:50:43.000","2014-09-11T11:50:43.000","BROOKLYN","Repair Completed","14-00685288","MD","CLOSED","2014-09-11T11:50:43.000","2014-09-11T11:50:43.000","21225",3,-76.6096037,39.2361655
"Repair Pothole","100  WASHBURN AVE","BALTIMORE CITY","TRMPICKU","TRM-Pickup Potholes","2014-09-11T11:50:32.000","2014-09-11T11:50:32.000","BROOKLYN","Repair Completed","14-00685285","MD","CLOSED","2014-09-11T11:50:32.000","2014-09-11T11:50:32.000","21225",3,-76.6105485,39.2364704
"Repair Pothole","3800  2ND ST","BALTIMORE CITY","TRMPICKU","TRM-Pickup Potholes","2014-09-11T11:50:02.000","2014-09-11T11:50:02.000","BROOKLYN","Repair Completed","14-00685284","MD","CLOSED","2014-09-11T11:50:02.000","2014-09-11T11:50:02.000","21225",3,-76.609937,39.2361239
"Repair Pothole","3700  2ND ST","BALTIMORE CITY","TRMPICKU","TRM-Pickup Potholes","2014-09-11T11:49:02.000","2014-09-11T11:49:02.000","BROOKLYN","Repair Completed","14-00685274","MD","CLOSED","2014-09-11T11:49:02.000","2014-09-11T11:49:02.000","21225",3,-76.6091322,39.2371616
"Repair Pothole","3600  2ND ST","BALTIMORE CITY","TRMPICKU","TRM-Pickup Potholes","2014-09-11T11:48:15.000","2014-09-11T11:48:15.000","BROOKLYN","Repair Completed","14-00685272","MD","CLOSED","2014-09-11T11:48:15.000","2014-09-11T11:48:15.000","21225",3,-76.6086006,39.2382025
"Repair Pothole","500  ROUNDVIEW RD","BALTIMORE CITY","TRMPICKU","TRM-Pickup Potholes","2014-09-11T11:47:18.000","2014-09-11T11:47:18.000","CHERRY HILL","Repair Completed","14-00685268","MD","CLOSED","2014-09-11T11:47:18.000","2014-09-11T11:47:18.000","21225",3,-76.6203122,39.2491748
"Repair Pothole","400  ROUNDVIEW RD","BALTIMORE CITY","TRMPICKU","TRM-Pickup Potholes","2014-09-11T11:46:22.000","2014-09-11T11:46:22.000","CHERRY HILL","Repair Completed","14-00685265","MD","CLOSED","2014-09-11T11:46:22.000","2014-09-11T11:46:22.000","21225",3,-76.620901,39.2508402
"Repair Pothole","295","BALTIMORE CITY","TRMPICKU","TRM-Pickup Potholes","2014-09-11T11:45:00.000","2014-09-11T11:45:00.000","WESTPORT","Repair Completed","14-00685260","MD","CLOSED","2014-09-11T11:45:00.000","2014-09-11T11:45:00.000","21230",3,-76.631725,39.271052
"Repair Pothole","295","BALTIMORE CITY","TRMPICKU","TRM-Pickup Potholes","2014-09-11T11:32:38.000","2014-09-11T11:32:38.000","WESTPORT","Repair Completed","14-00685213","MD","CLOSED","2014-09-11T11:32:38.000","2014-09-11T11:45:35.000","21230",3,-76.631725,39.271052
"Repair Pothole","829  BELGIAN AVE","BALTIMORE","TRMPICKU","TRM-Pickup Potholes","2014-09-10T18:49:04.000","2014-09-10T18:49:04.000","PEN LUCY","Repair Completed","14-00683863","MD","CLOSED","2014-09-10T18:49:04.000","2014-09-10T18:49:04.000","21218",3,-76.604103,39.340283
"Repair Pothole","706  BELGIAN AVE","BALTIMORE","TRMPICKU","TRM-Pickup Potholes","2014-09-10T18:48:12.000","2014-09-10T18:48:12.000","PEN LUCY","Repair Completed","14-00683860","MD","CLOSED","2014-09-10T18:48:12.000","2014-09-10T18:50:37.000","21218",3,-76.6063366,39.3403642
"Repair Pothole","5115  EDMONDSON AVE","BALTIMORE","TRMPICKU","TRM-Pickup Potholes","2014-09-10T17:37:26.000","2014-09-10T17:37:26.000","TEN HILLS","Repair Completed","14-00683528","MD","CLOSED","2014-09-10T17:37:26.000","2014-09-10T17:37:26.000",NA,3,-76.708606,39.288585
"Repair Pothole","4100  ROKEBY RD","BALTIMORE","TRMPICKU","TRM-Pickup Potholes","2014-09-10T17:36:59.000","2014-09-10T17:36:59.000","EDMONDSON VILLAGE","Repair Completed","14-00683527","MD","CLOSED","2014-09-10T17:36:59.000","2014-09-10T17:36:59.000",NA,3,-76.684344,39.299484
"Repair Pothole","1200  HOLLINS ST","BALTIMORE","TRMPICKU","TRM-Pickup Potholes","2014-09-10T17:36:25.000","2014-09-10T17:36:25.000","HOLLINS MARKET","Repair Completed","14-00683518","MD","CLOSED","2014-09-10T17:36:25.000","2014-09-10T17:36:25.000",NA,3,-76.6367476,39.2876153
"Repair Pothole","800 N ROSEDALE ST","BALTIMORE","TRMPICKU","TRM-Pickup Potholes","2014-09-10T17:30:42.000","2014-09-10T17:30:42.000","FRANKLINTOWN ROAD","Repair Completed","14-00683475","MD","CLOSED","2014-09-10T17:30:42.000","2014-09-10T17:30:42.000",NA,3,-76.6682993,39.2972401
"Repair Pothole","700 N ROSEDALE ST","BALTIMORE","TRMPICKU","TRM-Pickup Potholes","2014-09-10T17:17:32.000","2014-09-10T17:17:32.000","FRANKLINTOWN ROAD","Repair Completed","14-00683382","MD","CLOSED","2014-09-10T17:17:32.000","2014-09-10T17:17:32.000",NA,3,-76.6684209,39.2958094
"Repair Pothole","ARUNAH AVE","BALTIMORE","TRMPICKU","TRM-Pickup Potholes","2014-09-10T17:12:39.000","2014-09-10T17:12:39.000","ROSEMONT HOMEOWNERS/TENANTS","Repair Completed","14-00683349","MD","CLOSED","2014-09-10T17:12:39.000","2014-09-10T17:12:39.000",NA,3,-76.6563751,39.2955099
"Repair Pothole","200 N CARROLLTON AVE","BALTIMORE","TRMPICKU","TRM-Pickup Potholes","2014-09-10T17:03:54.000","2014-09-10T17:03:54.000","POPPLETON","Repair Completed","14-00683316","MD","CLOSED","2014-09-10T17:03:54.000","2014-09-10T17:03:54.000",NA,3,-76.6368815,39.2909748
"Repair Pothole","200  ALLENDALE ST","BALTIMORE","TRMPICKU","TRM-Pickup Potholes","2014-09-10T17:02:32.000","2014-09-10T17:02:32.000","ALLENDALE","Repair Completed","14-00683311","MD","CLOSED","2014-09-10T17:02:32.000","2014-09-10T17:02:32.000",NA,3,-76.678213,39.2906711
"Repair Pothole","100 S HOWARD ST","BALTIMORE","TRMPICKU","TRM-Pickup Potholes","2014-09-10T17:01:17.000","2014-09-10T17:01:17.000","INNER HARBOR","Repair Completed","14-00683306","MD","CLOSED","2014-09-10T17:01:17.000","2014-09-10T17:01:17.000",NA,3,-76.6193116,39.2875953
"Repair Pothole","S PACA ST &W LOMBARD ST","BALTIMORE","TRMPICKU","TRM-Pickup Potholes","2014-09-10T16:59:43.000","2014-09-10T16:59:43.000","INNER HARBOR","Repair Completed","14-00683302","MD","CLOSED","2014-09-10T16:59:43.000","2014-09-10T16:59:43.000",NA,3,-76.624262,39.2832643
"Repair Pothole","1400  BUSH ST","BALTIMORE","TRMPICKU","TRM-Pickup Potholes","2014-09-10T16:58:34.000","2014-09-10T16:58:34.000","CARROLL - CAMDEN INDUSTRIAL AREA","Repair Completed","14-00683299","MD","CLOSED","2014-09-10T16:58:34.000","2014-09-10T16:58:34.000",NA,3,-76.637452,39.274432
"Repair Pothole","1300  BAYARD ST","BALTIMORE","TRMPICKU","TRM-Pickup Potholes","2014-09-10T16:57:58.000","2014-09-10T16:57:58.000","WASHINGTON VILLAGE","Repair Completed","14-00683292","MD","CLOSED","2014-09-10T16:57:58.000","2014-09-10T16:57:58.000",NA,3,-76.635997,39.278198
"Repair Pothole","1200  CARROLL ST","BALTIMORE","TRMPICKU","TRM-Pickup Potholes","2014-09-10T16:56:57.000","2014-09-10T16:56:57.000","WASHINGTON VILLAGE","Repair Completed","14-00683289","MD","CLOSED","2014-09-10T16:56:57.000","2014-09-10T16:56:57.000",NA,3,-76.6331825,39.2809346
"Repair Pothole","400 S POPPLETON ST","BALTIMORE","TRMPICKU","TRM-Pickup Potholes","2014-09-10T16:51:27.000","2014-09-10T16:51:27.000","WASHINGTON VILLAGE","Repair Completed","14-00683273","MD","CLOSED","2014-09-10T16:51:27.000","2014-09-10T16:51:27.000",NA,3,-76.6318486,39.2835474
"Repair Pothole","1000 W BARRE ST","BALTIMORE","TRMPICKU","TRM-Pickup Potholes","2014-09-10T16:50:20.000","2014-09-10T16:50:20.000","WASHINGTON VILLAGE","Repair Completed","14-00683264","MD","CLOSED","2014-09-10T16:50:20.000","2014-09-10T16:50:20.000",NA,3,-76.627505,39.2831797
"Repair Pothole","200  SCOTT ST","BALTIMORE","TRMPICKU","TRM-Pickup Potholes","2014-09-10T16:49:38.000","2014-09-10T16:49:38.000","WASHINGTON VILLAGE","Repair Completed","14-00683260","MD","CLOSED","2014-09-10T16:49:38.000","2014-09-10T16:49:38.000",NA,3,-76.629202,39.28586
"Repair Pothole","600  WASHINGTON BLVD","BALTIMORE","TRMPICKU","TRM-Pickup Potholes","2014-09-10T16:48:45.000","2014-09-10T16:48:45.000","RIDGELY'S DELIGHT","Repair Completed","14-00683255","MD","CLOSED","2014-09-10T16:48:45.000","2014-09-10T16:48:45.000",NA,3,-76.6161199,39.2965645
"Repair Pothole","600 W SARATOGA ST","BALTIMORE","TRMPICKU","TRM-Pickup Potholes","2014-09-10T16:47:39.000","2014-09-10T16:47:39.000","SETON HILL","Repair Completed","14-00683249","MD","CLOSED","2014-09-10T16:47:39.000","2014-09-10T16:47:39.000",NA,3,-76.6239672,39.2928514
"Repair Pothole","1900 W LANVALE ST","BALTIMORE","TRMPICKU","TRM-Pickup Potholes","2014-09-10T16:46:39.000","2014-09-10T16:46:39.000","MIDTOWN-EDMONDSON","Repair Completed","14-00683239","MD","CLOSED","2014-09-10T16:46:39.000","2014-09-10T16:46:39.000","21217",3,-76.647594,39.297752
"Repair Pothole","900  APPLETON ST","BALTIMORE","TRMPICKU","TRM-Pickup Potholes","2014-09-10T16:45:34.000","2014-09-10T16:45:34.000","MIDTOWN-EDMONDSON","Repair Completed","14-00683232","MD","CLOSED","2014-09-10T16:45:34.000","2014-09-10T16:45:34.000",NA,3,-76.648648,39.299057
"Repair Pothole","900  BRADDISH AVE","BALTIMORE","TRMPICKU","TRM-Pickup Potholes","2014-09-10T16:42:24.000","2014-09-10T16:42:24.000","MOSHER","Repair Completed","14-00683214","MD","CLOSED","2014-09-10T16:42:24.000","2014-09-10T16:42:24.000",NA,3,-76.6595999,39.2983287
"Repair Pothole","900 N DUKELAND ST","BALTIMORE","TRMPICKU","TRM-Pickup Potholes","2014-09-10T16:39:38.000","2014-09-10T16:39:38.000","MOSHER","Repair Completed","14-00683199","MD","CLOSED","2014-09-10T16:39:38.000","2014-09-10T16:39:38.000",NA,3,-76.6631052,39.2984237
"Repair Pothole","2600  BAKER ST","BALTIMORE","TRMPICKU","TRM-Pickup Potholes","2014-09-10T16:38:40.000","2014-09-10T16:38:40.000","COPPIN HEIGHTS/ASH-CO-EAST","Repair Completed","14-00683196","MD","CLOSED","2014-09-10T16:38:40.000","2014-09-10T16:38:40.000",NA,3,-76.6593009,39.3062109
"Repair Pothole","2902  BAKER ST","BALTIMORE","TRMPICKU","TRM-Pickup Potholes","2014-09-10T16:37:24.000","2014-09-10T16:37:24.000","NORTHWEST COMMUNITY ACTION","Repair Completed","14-00683193","MD","CLOSED","2014-09-10T16:37:24.000","2014-09-10T16:37:24.000",NA,3,-76.666093,39.30616
"Repair Pothole","1300  PATAPSCO ST","BALTIMORE","TRMPICKU","TRM-Pickup Potholes","2014-09-10T15:47:33.000","2014-09-10T15:47:33.000","SBIC","Repair Completed","14-00682901","MD","CLOSED","2014-09-10T15:47:33.000","2014-09-10T15:47:33.000",NA,3,-76.6133702,39.2747662
"Repair Pothole","1100  NANTICOKE ST","BALTIMORE","TRMPICKU","TRM-Pickup Potholes","2014-09-10T15:38:52.000","2014-09-10T15:38:52.000","WASHINGTON VILLAGE","Repair Completed","14-00682868","MD","CLOSED","2014-09-10T15:38:52.000","2014-09-10T15:38:52.000",NA,3,-76.6303819,39.28125
"Repair Pothole","1300  CLEVELAND ST","BALTIMORE","TRMPICKU","TRM-Pickup Potholes","2014-09-10T15:37:20.000","2014-09-10T15:37:20.000","WASHINGTON VILLAGE","Repair Completed","14-00682859","MD","CLOSED","2014-09-10T15:37:20.000","2014-09-10T15:37:20.000",NA,3,-76.6337806,39.2794147
"Repair Pothole","W LANVALE ST","BALTIMORE","TRMPICKU","TRM-Pickup Potholes","2014-09-10T15:35:41.000","2014-09-10T15:35:41.000","FRANKLINTOWN ROAD","Repair Completed","14-00682852","MD","CLOSED","2014-09-10T15:35:41.000","2014-09-10T15:35:41.000",NA,3,-76.6414673,39.2977697
"Repair Pothole","900 N ARLINGTON AVE","BALTIMORE","TRMPICKU","TRM-Pickup Potholes","2014-09-10T15:33:15.000","2014-09-10T15:33:15.000","SANDTOWN-WINCHESTER","Repair Completed","14-00682836","MD","CLOSED","2014-09-10T15:33:15.000","2014-09-10T15:33:15.000",NA,3,-76.6358872,39.29924
"Repair Pothole","600  PITCHER ST","BALTIMORE","TRMPICKU","TRM-Pickup Potholes","2014-09-10T15:32:07.000","2014-09-10T15:32:07.000","UPTON","Repair Completed","14-00682833","MD","CLOSED","2014-09-10T15:32:07.000","2014-09-10T15:32:07.000",NA,3,-76.6341407,39.3031317
"Repair Pothole","900  RAMSAY ST","BALTIMORE","TRMPICKU","TRM-Pickup Potholes","2014-09-10T15:30:55.000","2014-09-10T15:30:55.000","WASHINGTON VILLAGE","Repair Completed","14-00682828","MD","CLOSED","2014-09-10T15:30:55.000","2014-09-10T15:30:55.000",NA,3,-76.632199,39.283834
"Repair Pothole","1100 W CROSS ST","BALTIMORE","TRMPICKU","TRM-Pickup Potholes","2014-09-10T15:29:37.000","2014-09-10T15:29:37.000","WASHINGTON VILLAGE","Repair Completed","14-00682822","MD","CLOSED","2014-09-10T15:29:37.000","2014-09-10T15:29:37.000",NA,3,-76.6304045,39.2814325
"Repair Pothole","W HAMBURG ST","BALTIMORE","TRMPICKU","TRM-Pickup Potholes","2014-09-10T15:28:26.000","2014-09-10T15:28:26.000","WASHINGTON VILLAGE","Repair Completed","14-00682812","MD","CLOSED","2014-09-10T15:28:26.000","2014-09-10T15:28:26.000",NA,3,-76.6241074,39.2798741
"Repair Pothole","1100 W LAFAYETTE AVE","BALTIMORE","TRMPICKU","TRM-Pickup Potholes","2014-09-10T15:25:57.000","2014-09-10T15:25:57.000","SANDTOWN-WINCHESTER","Repair Completed","14-00682797","MD","CLOSED","2014-09-10T15:25:57.000","2014-09-10T15:25:57.000",NA,3,-76.636038,39.299446
"Repair Pothole","200 S CALHOUN ST","BALTIMORE","TRMPICKU","TRM-Pickup Potholes","2014-09-10T14:28:07.000","2014-09-10T14:28:07.000","NEW SOUTHWEST/MOUNT CLARE","Repair Completed","14-00682489","MD","CLOSED","2014-09-10T14:28:07.000","2014-09-10T14:28:07.000",NA,3,-76.639763,39.2853319
"Repair Pothole","100  SCOTT ST","BALTIMORE","TRMPICKU","TRM-Pickup Potholes","2014-09-10T14:16:26.000","2014-09-10T14:16:26.000","HOLLINS MARKET","Repair Completed","14-00682436","MD","CLOSED","2014-09-10T14:16:26.000","2014-09-10T14:16:26.000",NA,3,-76.6290784,39.2869261
"Repair Pothole","700  CARROLL ST","BALTIMORE","TRMPICKU","TRM-Pickup Potholes","2014-09-10T14:15:32.000","2014-09-10T14:15:32.000","WASHINGTON VILLAGE","Repair Completed","14-00682431","MD","CLOSED","2014-09-10T14:15:32.000","2014-09-10T14:15:32.000",NA,3,-76.6265707,39.2823449
"Repair Pothole","700 W HAMBURG ST","BALTIMORE","TRMPICKU","TRM-Pickup Potholes","2014-09-10T14:02:00.000","2014-09-10T14:02:00.000","WASHINGTON VILLAGE","Repair Completed","14-00682364","MD","CLOSED","2014-09-10T14:02:00.000","2014-09-10T14:02:00.000",NA,3,-76.6254592,39.2807871
"Repair Pothole","1800  BRUNT ST","BALTIMORE","TRMPICKU","TRM-Pickup Potholes","2014-09-10T13:55:01.000","2014-09-10T13:55:01.000","UPTON","Repair Completed","14-00682339","MD","CLOSED","2014-09-10T13:55:01.000","2014-09-10T13:55:01.000",NA,3,-76.6350773,39.3047243
"Repair Pothole","100 W LANVALE ST","BALTIMORE","TRMPICKU","TRM-Pickup Potholes","2014-09-10T13:51:01.000","2014-09-10T13:51:01.000","BOLTON HILL","Repair Completed","14-00682321","MD","CLOSED","2014-09-10T13:51:01.000","2014-09-10T13:51:01.000",NA,3,-76.6211548,39.3075267
"Repair Pothole","800  LYNDHURST ST","BALTIMORE","TRMPICKU","TRM-Pickup Potholes","2014-09-10T13:50:04.000","2014-09-10T13:50:04.000","EDMONDSON VILLAGE","Repair Completed","14-00682313","MD","CLOSED","2014-09-10T13:50:04.000","2014-09-10T13:50:04.000",NA,3,-76.681618,39.296498
"Repair Pothole","3700  CRANSTON AVE","BALTIMORE","TRMPICKU","TRM-Pickup Potholes","2014-09-10T13:47:44.000","2014-09-10T13:47:44.000","EDMONDSON VILLAGE","Repair Completed","14-00682302","MD","CLOSED","2014-09-10T13:47:44.000","2014-09-10T13:47:44.000",NA,3,-76.679012,39.29669
"Repair Pothole","100 N GILMOR ST","BALTIMORE","TRMPICKU","TRM-Pickup Potholes","2014-09-10T13:21:30.000","2014-09-10T13:21:30.000","FRANKLIN SQUARE","Repair Completed","14-00682138","MD","CLOSED","2014-09-10T13:21:30.000","2014-09-10T13:21:30.000",NA,3,-76.6424782,39.2897216
"Repair Pothole","1300 N BENTALOU ST","BALTIMORE","TRMPICKU","TRM-Pickup Potholes","2014-09-10T13:17:56.000","2014-09-10T13:17:56.000","BRIDGEVIEW/GREENLAWN","Repair Completed","14-00682115","MD","CLOSED","2014-09-10T13:17:56.000","2014-09-10T13:17:56.000",NA,3,-76.653992,39.302811
"Repair Pothole","3900  CRANSTON AVE","BALTIMORE","TRMPICKU","TRM-Pickup Potholes","2014-09-10T13:16:53.000","2014-09-10T13:16:53.000","EDMONDSON VILLAGE","Repair Completed","14-00682081","MD","CLOSED","2014-09-10T13:16:53.000","2014-09-10T13:16:53.000",NA,3,-76.68187,39.296594
"Repair Pothole","1200 S CAREY ST","BALTIMORE","TRMPICKU","TRM-Pickup Potholes","2014-09-10T13:05:33.000","2014-09-10T13:05:33.000","WASHINGTON VILLAGE","Repair Completed","14-00682014","MD","CLOSED","2014-09-10T13:05:33.000","2014-09-10T13:05:33.000",NA,3,-76.6353534,39.2806197
"Repair Pothole","1200  CLEVELAND ST","BALTIMORE","TRMPICKU","TRM-Pickup Potholes","2014-09-10T11:51:36.000","2014-09-10T11:51:36.000","WASHINGTON VILLAGE","Repair Completed","14-00681593","MD","CLOSED","2014-09-10T11:51:36.000","2014-09-10T11:51:36.000","21230",3,-76.6327655,39.2803601
"Repair Pothole","800  CARROLL ST","BALTIMORE","TRMPICKU","TRM-Pickup Potholes","2014-09-10T11:50:31.000","2014-09-10T11:50:31.000","WASHINGTON VILLAGE","Repair Completed","14-00681586","MD","CLOSED","2014-09-10T11:50:31.000","2014-09-10T11:50:31.000",NA,3,-76.6288308,39.2821194
"Repair Pothole","1800  RAMSAY ST","BALTIMORE","TRMPICKU","TRM-Pickup Potholes","2014-09-10T11:49:12.000","2014-09-10T11:49:12.000","CARROLLTON RIDGE","Repair Completed","14-00681582","MD","CLOSED","2014-09-10T11:49:12.000","2014-09-10T11:49:12.000",NA,3,-76.6449479,39.283213
"Repair Pothole","1600  MCHENRY ST","BALTIMORE","TRMPICKU","TRM-Pickup Potholes","2014-09-10T11:47:59.000","2014-09-10T11:47:59.000","NEW SOUTHWEST/MOUNT CLARE","Repair Completed","14-00681577","MD","CLOSED","2014-09-10T11:47:59.000","2014-09-10T11:47:59.000","21223",3,-76.642583,39.2845716
"Repair Pothole","5030  PLYMOUTH RD","BALTIMORE","TRMPICKU","TRM-Pickup Potholes","2014-09-09T13:45:18.000","2014-09-09T13:45:18.000","LAURAVILLE","Repair Completed","14-00678586","MD","CLOSED","2014-09-09T13:45:18.000","2014-09-09T13:45:18.000","21214",3,-76.5727129,39.352689
"Repair Pothole","5028  PLYMOUTH RD","BALTIMORE","TRMPICKU","TRM-Pickup Potholes","2014-09-09T13:44:59.000","2014-09-09T13:44:59.000","LAURAVILLE","Repair Completed","14-00678582","MD","CLOSED","2014-09-09T13:44:59.000","2014-09-09T13:44:59.000","21214",3,-76.572847,39.352597
"Repair Pothole","5900  GLENOAK AVE","BALTIMORE","TRMPICKU","TRM-Pickup Potholes","2014-09-09T13:44:11.000","2014-09-09T13:44:11.000","GLENHAM-BELFORD","Repair Completed","14-00678575","MD","CLOSED","2014-09-09T13:44:11.000","2014-09-09T13:44:11.000",NA,3,-76.5526315,39.3525138
"Repair Pothole","3100  GREENMOUNT AVE","BALTIMORE","TRMPICKU","TRM-Pickup Potholes","2014-09-09T13:40:35.000","2014-09-09T13:40:35.000","ABELL","Repair Completed","14-00678559","MD","CLOSED","2014-09-09T13:40:35.000","2014-09-09T13:40:35.000","21218",3,-76.609706,39.326249
"Repair Pothole","3200  BARCLAY ST","BALTIMORE","TRMPICKU","TRM-Pickup Potholes","2014-09-09T13:39:30.000","2014-09-09T13:39:30.000","ABELL","Repair Completed","14-00678553","MD","CLOSED","2014-09-09T13:39:30.000","2014-09-09T13:39:30.000","21218",3,-76.611351,39.3272199
"Repair Pothole","500  OAKLAND AVE","BALTIMORE","TRMPICKU","TRM-Pickup Potholes","2014-09-09T13:38:44.000","2014-09-09T13:38:44.000","WILSON PARK","Repair Completed","14-00678544","MD","CLOSED","2014-09-09T13:38:44.000","2014-09-09T13:38:44.000",NA,3,-76.6095104,39.3434659
"Repair Pothole","504  WOODBOURNE AVE","BALTIMORE","TRMPICKU","TRM-Pickup Potholes","2014-09-09T13:37:33.000","2014-09-09T13:37:33.000","MID-GOVANS","Repair Completed","14-00678542","MD","CLOSED","2014-09-09T13:37:33.000","2014-09-09T13:37:33.000","21212",3,-76.608998,39.355701
"Repair Pothole","5400  LEITH RD","BALTIMORE","TRMPICKU","TRM-Pickup Potholes","2014-09-09T13:34:46.000","2014-09-09T13:34:46.000","WOODBOURNE HEIGHTS","Repair Completed","14-00678529","MD","CLOSED","2014-09-09T13:34:46.000","2014-09-09T13:36:34.000","21239",3,-76.5917021,39.3551809
"Repair Pothole","3900  MILFORD AVE","BALTIMORE CITY","TRMPICKU","TRM-Pickup Potholes","2014-09-04T18:35:04.000","2014-09-04T18:35:04.000","HOWARD PARK","Repair Completed","14-00667734","MD","CLOSED","2014-09-04T18:35:04.000","2014-09-04T18:35:04.000","21215",3,-76.6963361,39.3374345
"Repair Pothole","4910  LIBERTY HEIGHTS AVE","BALTIMORE CITY","TRMPICKU","TRM-Pickup Potholes","2014-09-04T18:34:06.000","2014-09-04T18:34:06.000","HOWARD PARK","Repair Completed","14-00667730","MD","CLOSED","2014-09-04T18:34:06.000","2014-09-04T18:34:06.000","21207",3,-76.6993339,39.332818
"Repair Pothole","3500  PLATEAU AVE","BALTIMORE CITY","TRMPICKU","TRM-Pickup Potholes","2014-09-04T18:33:09.000","2014-09-04T18:33:09.000","HOWARD PARK","Repair Completed","14-00667726","MD","CLOSED","2014-09-04T18:33:09.000","2014-09-04T18:33:09.000","21207",3,-76.700398,39.331735
"Repair Pothole","GREENMOUNT AVE","BALTIMORE CITY","TRMPICKU","TRM-Pickup Potholes","2014-09-04T17:29:17.000","2014-09-04T17:29:17.000","OAKENSHAWE","Repair Completed","14-00667447","MD","CLOSED","2014-09-04T17:29:17.000","2014-09-04T17:29:17.000","21218",3,-76.6094637,39.3189114
"Repair Pothole","GREENMOUNT AVE","BALTIMORE CITY","TRMPICKU","TRM-Pickup Potholes","2014-09-04T17:27:23.000","2014-09-04T17:27:23.000","OAKENSHAWE","Repair Completed","14-00667430","MD","CLOSED","2014-09-04T17:27:23.000","2014-09-04T17:27:23.000","21218",3,-76.6094637,39.3189114
"Repair Pothole","3900  ERDMAN AVE","BALTIMORE CITY","TRMPICKU","TRM-Pickup Potholes","2014-09-04T15:06:57.000","2014-09-04T15:06:57.000","BELAIR-EDISON","Repair Completed","14-00666744","MD","CLOSED","2014-09-04T15:06:57.000","2014-09-04T17:31:13.000","21213",3,-76.5681529,39.3149796
"Repair Pothole","3900  ERDMAN AVE","BALTIMORE CITY","TRMPICKU","TRM-Pickup Potholes","2014-09-04T15:00:10.000","2014-09-04T15:00:10.000","BELAIR-EDISON","Repair Completed","14-00666710","MD","CLOSED","2014-09-04T15:00:10.000","2014-09-04T15:00:10.000","21213",3,-76.5681529,39.3149796
"Repair Pothole","3900  ERDMAN AVE","BALTIMORE CITY","TRMPICKU","TRM-Pickup Potholes","2014-09-04T14:56:44.000","2014-09-04T14:56:44.000","BELAIR-EDISON","Repair Completed","14-00666694","MD","CLOSED","2014-09-04T14:56:44.000","2014-09-04T14:56:44.000","21213",3,-76.5681529,39.3149796
"Repair Pothole","3900  ERDMAN AVE","BALTIMORE CITY","TRMPICKU","TRM-Pickup Potholes","2014-09-04T14:53:27.000","2014-09-04T14:53:27.000","BELAIR-EDISON","Repair Completed","14-00666675","MD","CLOSED","2014-09-04T14:53:27.000","2014-09-04T14:53:27.000","21213",3,-76.5681529,39.3149796
"Repair Pothole","4900  ROLAND AVE","BALTIMORE CITY","TRMPICKU","TRM-Pickup Potholes","2014-09-04T11:04:39.000","2014-09-04T11:04:39.000","ROLAND PARK","Repair Completed","14-00665206","MD","CLOSED","2014-09-04T11:05:50.000","2014-09-04T11:05:00.000","21210",3,-76.634813,39.352275
"Repair Pothole","100 W 22ND ST","BALTIMORE CITY","TRMPICKU","TRM-Pickup Potholes","2014-09-04T11:02:35.000","2014-09-04T11:02:35.000","CHARLES VILLAGE","Repair Completed","14-00665200","MD","CLOSED","2014-09-04T11:03:48.000","2014-09-04T11:03:00.000","21218",3,-76.6186604,39.3142584
"Repair Pothole","500  MAUDE AVE","BALTIMORE CITY","TRMPICKU","TRM-Pickup Potholes","2014-09-03T18:40:00.000","2014-09-03T18:40:00.000","BROOKLYN","Repair Completed","14-00663845","MD","CLOSED","2014-09-03T18:40:00.000","2014-09-03T18:40:00.000","21225",3,-76.6025255,39.2390875
"Repair Pothole","100 W 24TH ST","BALTIMORE CITY","TRMPICKU","TRM-Pickup Potholes","2014-09-03T19:23:04.000","2014-09-03T19:23:04.000","CHARLES VILLAGE","Repair Completed","14-00664069","MD","CLOSED","2014-09-03T19:24:51.000","2014-09-03T19:23:00.000","21218",3,-76.618249,39.3163214
"Repair Pothole","1300 W 42ND ST","BALTIMORE CITY","TRMPICKU","TRM-Pickup Potholes","2014-09-03T19:20:58.000","2014-09-03T19:20:58.000","MEDFIELD","Repair Completed","14-00664058","MD","CLOSED","2014-09-03T19:22:10.000","2014-09-03T19:21:00.000","21211",3,-76.6392633,39.3387333
"Repair Pothole","1900  FREDERICK AVE","BALTIMORE CITY","TRMPICKU","TRM-Pickup Potholes","2014-09-03T19:12:01.000","2014-09-03T19:12:01.000","BOOTH-BOYD","Repair Completed","14-00664025","MD","CLOSED","2014-09-03T19:12:01.000","2014-09-03T19:12:01.000","21223",3,-76.647024,39.286952
"Repair Pothole","1900  HOLLINS ST","BALTIMORE CITY","TRMPICKU","TRM-Pickup Potholes","2014-09-03T19:11:16.000","2014-09-03T19:11:16.000","BOOTH-BOYD","Repair Completed","14-00664019","MD","CLOSED","2014-09-03T19:11:16.000","2014-09-03T19:11:16.000","21223",3,-76.647326,39.2873329
"Repair Pothole","300 N PAYSON ST","BALTIMORE CITY","TRMPICKU","TRM-Pickup Potholes","2014-09-03T19:08:25.000","2014-09-03T19:08:25.000","PENROSE/FAYETTE STREET OUTREACH","Repair Completed","14-00663999","MD","CLOSED","2014-09-03T19:08:25.000","2014-09-03T19:08:25.000","21223",3,-76.64889,39.291946
"Repair Pothole","200 N PULASKI ST","BALTIMORE CITY","TRMPICKU","TRM-Pickup Potholes","2014-09-03T19:07:43.000","2014-09-03T19:07:43.000","PENROSE/FAYETTE STREET OUTREACH","Repair Completed","14-00663995","MD","CLOSED","2014-09-03T19:07:43.000","2014-09-03T19:07:43.000","21223",3,-76.650235,39.2904893
"Repair Pothole","3200  GRANADA AVE","BALTIMORE CITY","TRMPICKU","TRM-Pickup Potholes","2014-09-03T19:07:36.000","2014-09-03T19:07:36.000","CENTRAL FOREST PARK","Repair Completed","14-00663993","MD","CLOSED","2014-09-03T19:07:36.000","2014-09-03T19:07:36.000","21207",3,-76.6887003,39.3262697
"Repair Pothole","2200 W LEXINGTON ST","BALTIMORE CITY","TRMPICKU","TRM-Pickup Potholes","2014-09-03T19:06:51.000","2014-09-03T19:06:51.000","PENROSE/FAYETTE STREET OUTREACH","Repair Completed","14-00663990","MD","CLOSED","2014-09-03T19:06:51.000","2014-09-03T19:06:51.000","21223",3,-76.651756,39.290627
"Repair Pothole","2200 N FOREST PARK AVE","BALTIMORE CITY","TRMPICKU","TRM-Pickup Potholes","2014-09-03T19:06:33.000","2014-09-03T19:06:33.000","WAKEFIELD","Repair Completed","14-00663991","MD","CLOSED","2014-09-03T19:06:33.000","2014-09-03T19:06:33.000","21207",3,-76.7065635,39.3123984
"Repair Pothole","2200 W SARATOGA ST","BALTIMORE CITY","TRMPICKU","TRM-Pickup Potholes","2014-09-03T19:06:14.000","2014-09-03T19:06:14.000","PENROSE/FAYETTE STREET OUTREACH","Repair Completed","14-00663987","MD","CLOSED","2014-09-03T19:06:14.000","2014-09-03T19:06:14.000","21223",3,-76.6517859,39.2920155
"Repair Pothole","5800  METRO DR","BALTIMORE CITY","TRMPICKU","TRM-Pickup Potholes","2014-09-03T19:05:54.000","2014-09-03T19:05:54.000","SETON BUSINESS PARK","Repair Completed","14-00663988","MD","CLOSED","2014-09-03T19:05:54.000","2014-09-03T19:05:54.000","21215",3,-76.707864,39.344995
"Repair Pothole","6302  WIRT AVE","BALTIMORE CITY","TRMPICKU","TRM-Pickup Potholes","2014-09-03T19:05:04.000","2014-09-03T19:05:04.000","CROSS COUNTRY","Repair Completed","14-00663984","MD","CLOSED","2014-09-03T19:05:04.000","2014-09-03T19:05:04.000","21215",3,-76.693366,39.360971
"Repair Pothole","W REDWOOD ST &S MARTIN LUTHER KING JR BL","BALTIMORE CITY","TRMPICKU","TRM-Pickup Potholes","2014-09-03T19:05:01.000","2014-09-03T19:05:01.000","UNIVERSITY OF MARYLAND","Repair Completed","14-00663983","MD","CLOSED","2014-09-03T19:05:01.000","2014-09-03T19:05:01.000","21201",3,-89.9728332,44.9198347
"Repair Pothole","W FRANKLIN ST &N SMALLWOOD ST","BALTIMORE CITY","TRMPICKU","TRM-Pickup Potholes","2014-09-03T19:04:48.000","2014-09-03T19:04:48.000","MIDTOWN-EDMONDSON","Repair Completed","14-00663980","MD","CLOSED","2014-09-03T19:04:48.000","2014-09-03T19:04:48.000","21223",3,-76.6405763,39.2940979
"Repair Pothole","3300  STRATHMORE PINKNEY","BALTIMORE CITY","TRMPICKU","TRM-Pickup Potholes","2014-09-03T19:04:17.000","2014-09-03T19:04:17.000","CROSS COUNTRY","Repair Completed","14-00663978","MD","CLOSED","2014-09-03T19:04:17.000","2014-09-03T19:04:17.000","21215",3,-76.6121893,39.2903848
"Repair Pothole","4600  ROLAND AVE","BALTIMORE CITY","TRMPICKU","TRM-Pickup Potholes","2014-09-03T19:03:29.000","2014-09-03T19:03:29.000","ROLAND PARK","Repair Completed","14-00663972","MD","CLOSED","2014-09-03T19:03:29.000","2014-09-03T19:03:29.000","21210",3,-76.636234,39.345867
"Repair Pothole","1729  HOLLINS ST","BALTIMORE CITY","TRMPICKU","TRM-Pickup Potholes","2014-09-03T19:02:51.000","2014-09-03T19:02:51.000","UNION SQUARE","Repair Completed","14-00663968","MD","CLOSED","2014-09-03T19:02:51.000","2014-09-03T19:02:51.000","21223",3,-76.644785,39.287064
"Repair Pothole","4700  ROLAND AVE","BALTIMORE CITY","TRMPICKU","TRM-Pickup Potholes","2014-09-03T19:02:43.000","2014-09-03T19:02:43.000","ROLAND PARK","Repair Completed","14-00663965","MD","CLOSED","2014-09-03T19:02:43.000","2014-09-03T19:02:43.000","21210",3,-76.6365353,39.3479441
"Repair Pothole","4800  ROLAND AVE","BALTIMORE CITY","TRMPICKU","TRM-Pickup Potholes","2014-09-03T19:01:41.000","2014-09-03T19:01:41.000","ROLAND PARK","Repair Completed","14-00663960","MD","CLOSED","2014-09-03T19:01:41.000","2014-09-03T19:01:41.000","21210",3,-76.6356732,39.350461
"Repair Pothole","S HANOVER ST","BALTIMORE CITY","TRMPICKU","TRM-Pickup Potholes","2014-09-03T19:01:11.000","2014-09-03T19:01:11.000","PORT COVINGTON","Repair Completed","14-00663954","MD","CLOSED","2014-09-03T19:01:11.000","2014-09-03T19:01:11.000","21230",3,-76.6147011,39.2616375
"Repair Pothole","2900  WINDSOR AVE","BALTIMORE CITY","TRMPICKU","TRM-Pickup Potholes","2014-09-03T19:00:56.000","2014-09-03T19:00:56.000","WALBROOK","Repair Completed","14-00663955","MD","CLOSED","2014-09-03T19:00:56.000","2014-09-03T19:00:56.000","21216",3,-76.666485,39.31254
"Repair Pothole","900 N BENTALOU ST","BALTIMORE CITY","TRMPICKU","TRM-Pickup Potholes","2014-09-03T19:00:23.000","2014-09-03T19:00:23.000","BRIDGEVIEW/GREENLAWN","Repair Completed","14-00663951","MD","CLOSED","2014-09-03T19:00:23.000","2014-09-03T19:00:23.000","21216",3,-76.6537286,39.2986791
"Repair Pothole","2804  WINDSOR AVE","BALTIMORE CITY","TRMPICKU","TRM-Pickup Potholes","2014-09-03T18:59:55.000","2014-09-03T18:59:55.000","PANWAY/BRADDISH AVENUE","Repair Completed","14-00663949","MD","CLOSED","2014-09-03T18:59:55.000","2014-09-03T18:59:55.000","21216",3,-76.664512,39.31262
"Repair Pothole","2000 W LAFAYETTE AVE","BALTIMORE CITY","TRMPICKU","TRM-Pickup Potholes","2014-09-03T18:59:42.000","2014-09-03T18:59:42.000","BRIDGEVIEW/GREENLAWN","Repair Completed","14-00663944","MD","CLOSED","2014-09-03T18:59:42.000","2014-09-03T18:59:42.000","21217",3,-76.6504884,39.2992345
